{"business_id": "1vObhKVuXQF7YX5R6qxwVA", "full_address": "Kriegsstrasse 276\n76135 Karlsruhe", "hours": {}, "open": true, "categories": ["Bars", "German", "Arts & Entertainment", "Pubs", "Nightlife", "Social Clubs", "Restaurants"], "city": "Karlsruhe", "review_count": 8, "name": "Rote Taube", "neighborhoods": [], "longitude": 8.3721617, "state": "BW", "stars": 4.5, "latitude": 49.0057518, "attributes": {"Coat Check": false, "Take-out": false, "Alcohol": "full_bar", "Good For Dancing": true, "Noise Level": "average", "Takes Reservations": true, "Smoking": "no", "Delivery": true, "Dogs Allowed": false, "Happy Hour": false, "Parking": {"garage": false, "street": false, "validated": false, "lot": false, "valet": false}, "Music": {"dj": true}, "Outdoor Seating": true, "Attire": "casual", "Waiter Service": true, "Accepts Credit Cards": false, "Good for Kids": true, "Good For Groups": true, "Caters": true, "Price Range": 2}, "type": "business"}
{"business_id": "wheuLBEzZQ-my4gNt7aPUg", "full_address": "Kaiserpassage 6\n76133 Karlsruhe", "hours": {}, "open": true, "categories": ["Arts & Entertainment", "Cinema"], "city": "Karlsruhe", "review_count": 5, "name": "Die Kurbel", "neighborhoods": [], "longitude": 8.3973248, "state": "BW", "stars": 4.0, "latitude": 49.0102619, "attributes": {"Price Range": 2, "Alcohol": "beer_and_wine", "Coat Check": false, "Happy Hour": false, "Outdoor Seating": false, "Parking": {"garage": false, "validated": false, "street": false, "lot": false, "valet": false}, "Smoking": "outdoor", "Accepts Credit Cards": false, "Good for Kids": false, "Wheelchair Accessible": true}, "type": "business"}
{"business_id": "V_covJrJEmKoj8qTE-sfgw", "full_address": "Kaiserstr. 152-154\n76133 Karlsruhe", "hours": {}, "open": true, "categories": ["Arts & Entertainment", "Cinema"], "city": "Karlsruhe", "review_count": 5, "name": "Universum-City", "neighborhoods": [], "longitude": 8.39424, "state": "BW", "stars": 4.0, "latitude": 49.0101, "attributes": {"Good for Kids": true, "Price Range": 2}, "type": "business"}
{"business_id": "7VVJwBvw0NG-LCKZ_EuCoA", "full_address": "Hans-Thoma-Str. 2-6\n76133 Karlsruhe", "hours": {}, "open": true, "categories": ["Museums", "Arts & Entertainment"], "city": "Karlsruhe", "review_count": 8, "name": "Staatliche Kunsthalle Karlsruhe", "neighborhoods": [], "longitude": 8.4002493, "state": "BW", "stars": 5.0, "latitude": 49.0115823, "attributes": {"Good for Kids": true, "Parking": {"garage": false, "validated": false, "street": false, "lot": false, "valet": false}}, "type": "business"}
{"business_id": "XIikFKubRRURUqQKNs29AQ", "full_address": "Marienstr. 16\n76137 Karlsruhe", "hours": {}, "open": true, "categories": ["Arts & Entertainment", "Cinema"], "city": "Karlsruhe", "review_count": 59, "name": "Schauburg Kino", "neighborhoods": [], "longitude": 8.4077757, "state": "BW", "stars": 4.5, "latitude": 49.0031885, "attributes": {"Coat Check": false, "Alcohol": "beer_and_wine", "Attire": "casual", "Happy Hour": true, "Wheelchair Accessible": true, "Outdoor Seating": false, "Parking": {"garage": false, "validated": false, "street": false, "lot": false, "valet": false}, "Smoking": "no", "Accepts Credit Cards": false, "Good for Kids": true, "Good For Groups": true, "Price Range": 1}, "type": "business"}
{"business_id": "I_Xw9RZ01FB_7MetXIlrfw", "full_address": "Erbprinzenstra\u00dfe  13\n73133 Karlsruhe", "hours": {}, "open": true, "categories": ["Museums", "Arts & Entertainment"], "city": "Karlsruhe", "review_count": 6, "name": "Staatliches Museum f\u00fcr Naturkunde", "neighborhoods": [], "longitude": 8.4007324, "state": "BW", "stars": 4.5, "latitude": 49.0078044, "attributes": {"Wheelchair Accessible": true, "Parking": {"garage": false, "validated": false, "street": false, "lot": false, "valet": false}}, "type": "business"}
{"business_id": "BSi3InD9nxAfeKRlxwK7pQ", "full_address": "Schlachthausstr. 1\n76131 Karlsruhe", "hours": {}, "open": true, "categories": ["Arts & Entertainment", "Performing Arts", "Cultural Center"], "city": "Karlsruhe", "review_count": 6, "name": "Tollhaus", "neighborhoods": [], "longitude": 8.42482, "state": "BW", "stars": 4.5, "latitude": 49.0038, "attributes": {"Good for Kids": true, "Parking": {"garage": false, "validated": false, "street": false, "lot": false, "valet": false}, "Wheelchair Accessible": true, "Price Range": 2}, "type": "business"}
{"business_id": "qrGmLp2qyvlVYLuGzn0W7Q", "full_address": "Kaiserallee 11\n76133 Karlsruhe", "hours": {}, "open": true, "categories": ["Arts & Entertainment", "Performing Arts", "Nightlife", "Active Life", "Kids Activities", "Comedy Clubs"], "city": "Karlsruhe", "review_count": 9, "name": "marotte Figurentheater", "neighborhoods": [], "longitude": 8.3847, "state": "BW", "stars": 5.0, "latitude": 49.0091, "attributes": {"Price Range": 2, "Alcohol": "beer_and_wine", "Coat Check": true, "Happy Hour": false, "Outdoor Seating": false, "Parking": {"garage": false, "validated": false, "street": false, "lot": false, "valet": false}, "Smoking": "outdoor", "Accepts Credit Cards": false, "Wheelchair Accessible": false}, "type": "business"}
{"business_id": "HE5iuNFpQ1uKs1KuzLgQow", "full_address": "Schlo\u00dfbezirk 10\nSchloss\n76131 Karlsruhe", "hours": {}, "open": true, "categories": ["Museums", "Arts & Entertainment"], "city": "Karlsruhe", "review_count": 6, "name": "Badisches Landesmuseum", "neighborhoods": [], "longitude": 8.4043185, "state": "BW", "stars": 5.0, "latitude": 49.0134235, "attributes": {"Wheelchair Accessible": true, "Good for Kids": true, "Price Range": 4}, "type": "business"}
{"business_id": "-czvRRDB6tTlo6HUzBTMwg", "full_address": "Ahaweg 6\n76131 Karlsruhe", "hours": {}, "open": true, "categories": ["Museums", "Arts & Entertainment", "Shopping", "Home Services", "Home & Garden", "Painters", "Home Decor"], "city": "Karlsruhe", "review_count": 4, "name": "Staatliche Majolika Manufaktur Karlsruhe", "neighborhoods": [], "longitude": 8.4023623, "state": "BW", "stars": 3.5, "latitude": 49.0177377, "attributes": {"Parking": {"garage": false, "street": false, "validated": false, "lot": false, "valet": false}, "Accepts Credit Cards": true, "Good for Kids": false, "Price Range": 4}, "type": "business"}
{"business_id": "dbXe_WkVbbTuAbbz3G8Vtw", "full_address": "Baumeisterstr. 11\n76137 Karlsruhe", "hours": {}, "open": true, "categories": ["Arts & Entertainment", "Performing Arts"], "city": "Karlsruhe", "review_count": 11, "name": "Badisches Staatstheater", "neighborhoods": [], "longitude": 8.40699, "state": "BW", "stars": 3.5, "latitude": 49.0041, "attributes": {"Good for Kids": true, "Parking": {"garage": false, "validated": false, "street": false, "lot": false, "valet": false}, "Wheelchair Accessible": true, "Good For Groups": true, "Price Range": 3}, "type": "business"}
{"business_id": "nb5J-28w8naR38vg6fbdmA", "full_address": "Hirschstra\u00dfe 18\n76133 Karlsruhe", "hours": {"Monday": {"close": "03:00", "open": "19:00"}, "Friday": {"close": "05:00", "open": "19:00"}, "Wednesday": {"close": "03:00", "open": "19:00"}, "Thursday": {"close": "03:00", "open": "19:00"}, "Sunday": {"close": "03:00", "open": "19:00"}, "Saturday": {"close": "05:00", "open": "19:00"}}, "open": true, "categories": ["Arts & Entertainment", "Nightlife", "Music Venues"], "city": "Karlsruhe", "review_count": 4, "name": "Radio Oriente", "neighborhoods": [], "longitude": 8.3917067, "state": "BW", "stars": 3.0, "latitude": 49.0092996, "attributes": {"Price Range": 2}, "type": "business"}
{"business_id": "vgAl99QbSRg48FFBRk1gKg", "full_address": "Herrenstr. 30/32\n76133 Karlsruhe", "hours": {}, "open": true, "categories": ["Arts & Entertainment", "Performing Arts"], "city": "Karlsruhe", "review_count": 7, "name": "Kammertheater", "neighborhoods": [], "longitude": 8.393843, "state": "BW", "stars": 4.5, "latitude": 49.0067498, "attributes": {"Wheelchair Accessible": false, "Price Range": 2}, "type": "business"}
{"business_id": "mDGpCtjxl79YtwtyFEO5fg", "full_address": "Amthausstra\u00dfe  17-19\n76227 Karlsruhe", "hours": {}, "open": true, "categories": ["Arts & Entertainment", "Performing Arts"], "city": "Karlsruhe", "review_count": 6, "name": "Kabarett in der Orgelfabrik, die Spiegelfechter e.V.", "neighborhoods": [], "longitude": 8.4713051, "state": "BW", "stars": 4.5, "latitude": 48.9979356, "attributes": {"Good for Kids": false, "Price Range": 1}, "type": "business"}
{"business_id": "lNforL0COH6J5hnF08l_1w", "full_address": "Brauerstr. 40\n76135 Karlsruhe", "hours": {}, "open": true, "categories": ["Arts & Entertainment", "Cinema"], "city": "Karlsruhe", "review_count": 66, "name": "Filmpalast am ZKM", "neighborhoods": [], "longitude": 8.38557, "state": "BW", "stars": 3.5, "latitude": 49.00038, "attributes": {"Take-out": true, "Good For": {"dessert": false, "latenight": false, "lunch": false, "dinner": false, "breakfast": false, "brunch": false}, "Takes Reservations": true, "Parking": {"garage": false, "validated": false, "street": false, "lot": false, "valet": false}, "Wheelchair Accessible": true, "Outdoor Seating": true, "Attire": "casual", "Alcohol": "beer_and_wine", "Smoking": "no", "Accepts Credit Cards": true, "Good for Kids": true, "Good For Groups": true, "Price Range": 3}, "type": "business"}
{"business_id": "qaV3YBqrm9MVkXJuCPafaw", "full_address": "Ettlinger Str. 6\nHaupteingang am Hauptbahnhof, Bahnhofplatz\n76137 Karlsruhe", "hours": {}, "open": true, "categories": ["Arts & Entertainment", "Botanical Gardens"], "city": "Karlsruhe", "review_count": 32, "name": "Zoo Karlsruhe", "neighborhoods": [], "longitude": 8.4031862, "state": "BW", "stars": 4.0, "latitude": 48.9989894, "attributes": {"Good for Kids": true, "Price Range": 2}, "type": "business"}
{"business_id": "9hws9grDsZHAnhWEl_RICA", "full_address": "Ziegelstr. 1\n76185 Karlsruhe", "hours": {}, "open": true, "categories": ["Active Life", "Climbing", "Arts & Entertainment", "Bed & Breakfast", "Hotels & Travel"], "city": "Karlsruhe", "review_count": 8, "name": "The Rock Kletterzentrum Karlsruhe", "neighborhoods": [], "longitude": 8.36151, "state": "BW", "stars": 5.0, "latitude": 49.0071, "attributes": {"Parking": {"garage": false, "validated": false, "street": false, "lot": false, "valet": false}, "Wheelchair Accessible": false, "Price Range": 3}, "type": "business"}
{"business_id": "byFsjYzzttWh6DLptWx_fg", "full_address": "Lorenzstr. 19\n76135 Karlsruhe", "hours": {"Sunday": {"close": "18:00", "open": "11:00"}, "Friday": {"close": "18:00", "open": "10:00"}, "Wednesday": {"close": "18:00", "open": "10:00"}, "Thursday": {"close": "18:00", "open": "10:00"}, "Saturday": {"close": "18:00", "open": "11:00"}}, "open": true, "categories": ["Museums", "Arts & Entertainment"], "city": "Karlsruhe", "review_count": 27, "name": "ZkM | Zentrum f\u00fcr Kunst und Medientechnologie", "neighborhoods": [], "longitude": 8.3831, "state": "BW", "stars": 4.5, "latitude": 49.0018, "attributes": {"Price Range": 2, "Parking": {"garage": true, "street": false, "validated": false, "lot": false, "valet": false}, "By Appointment Only": false, "Accepts Credit Cards": true, "Good for Kids": true, "Wheelchair Accessible": true}, "type": "business"}
{"business_id": "hgGC4Y8TsJRuBTGUn08RBw", "full_address": "Pfannkuchstr. 14\n76185 Karlsruhe", "hours": {}, "open": true, "categories": ["Music Venues", "Arts & Entertainment", "Nightlife", "Dance Clubs"], "city": "Karlsruhe", "review_count": 5, "name": "Nachtwerk Musikclub", "neighborhoods": [], "longitude": 8.34813, "state": "BW", "stars": 4.5, "latitude": 49.0106, "attributes": {"Alcohol": "beer_and_wine", "Attire": "formal", "Parking": {"garage": false, "validated": false, "street": false, "lot": false, "valet": false}, "Smoking": "outdoor", "Good For Groups": true, "Price Range": 2}, "type": "business"}
{"business_id": "ZZPfV62S73wqtWhQxiBALg", "full_address": "Pforzheimer Str. 68\n76275 Ettlingen", "hours": {}, "open": true, "categories": ["Arts & Entertainment", "Cultural Center"], "city": "Ettlingen", "review_count": 3, "name": "Buhlsche M\u00fchle", "neighborhoods": [], "longitude": 8.41873, "state": "BW", "stars": 4.0, "latitude": 48.93814, "attributes": {"Wheelchair Accessible": true, "Parking": {"garage": false, "validated": false, "street": false, "lot": false, "valet": false}}, "type": "business"}
{"business_id": "fuO8q9apAj88q9RHx3yecQ", "full_address": "Karlsruhe, Baden-W\u00fcrttemberg", "hours": {}, "open": true, "categories": ["Arts & Entertainment", "Stadiums & Arenas"], "city": "Karlsruhe", "review_count": 3, "name": "Wildpark Stadion", "neighborhoods": [], "longitude": 8.41312408447266, "state": "BW", "stars": 3.0, "latitude": 49.020056196875, "attributes": {"Good for Kids": true}, "type": "business"}
{"business_id": "XlytpM7Y7EIMrqy3gK2xjg", "full_address": "Schlossbezirk 10\n76131 Karlsruhe", "hours": {}, "open": true, "categories": ["Castles", "Museums", "Arts & Entertainment"], "city": "Karlsruhe", "review_count": 5, "name": "Schloss Karlsruhe", "neighborhoods": [], "longitude": 8.404352, "state": "BW", "stars": 4.5, "latitude": 49.013532, "attributes": {"Good for Kids": true, "Price Range": 1}, "type": "business"}
{"business_id": "E6xrU8gCZxRlL60nGnf86w", "full_address": "Bahnhofplatz 1a\n76137 Karlsruhe", "hours": {}, "open": true, "categories": ["Arts & Entertainment", "General Festivals", "Festivals"], "city": "Karlsruhe", "review_count": 7, "name": "Bierb\u00f6rse", "neighborhoods": [], "longitude": 8.40099795225087, "state": "BW", "stars": 4.0, "latitude": 48.9935726631097, "attributes": {"Accepts Credit Cards": false, "Good for Kids": false, "Price Range": 2}, "type": "business"}
{"business_id": "agkUtfCYDPnLmxcFL54r5w", "full_address": "Gablonzer Str. 11\n76185 Karlsruhe", "hours": {"Tuesday": {"close": "23:00", "open": "19:00"}, "Saturday": {"close": "01:00", "open": "21:00"}}, "open": true, "categories": ["Arts & Entertainment", "Arcades"], "city": "Karlsruhe", "review_count": 17, "name": "RetroGames e.V.", "neighborhoods": [], "longitude": 8.3530988, "state": "BW", "stars": 5.0, "latitude": 49.0239835, "attributes": {"Price Range": 1, "Alcohol": "beer_and_wine", "Coat Check": true, "Happy Hour": false, "Outdoor Seating": false, "Parking": {"garage": false, "street": true, "validated": false, "lot": false, "valet": false}, "Ages Allowed": "18plus", "Smoking": "no", "Accepts Credit Cards": false, "Good for Kids": true, "Good For Groups": true, "Wheelchair Accessible": false}, "type": "business"}
{"business_id": "22yGKqF09XSoZ49A9E209g", "full_address": "G\u00fcnther-Klotz-Anlage\n76135 Karlsruhe", "hours": {"Sunday": {"close": "02:00", "open": "09:00"}, "Friday": {"close": "02:00", "open": "18:00"}, "Saturday": {"close": "02:00", "open": "09:00"}}, "open": true, "categories": ["Arts & Entertainment", "General Festivals", "Festivals"], "city": "Karlsruhe", "review_count": 12, "name": "Das Fest", "neighborhoods": [], "longitude": 8.3820167, "state": "BW", "stars": 5.0, "latitude": 48.9908752, "attributes": {"Good for Kids": true, "Parking": {"garage": false, "validated": false, "street": false, "lot": false, "valet": false}, "Wheelchair Accessible": false, "Price Range": 1}, "type": "business"}
{"business_id": "yKA1moKJGHg_XNHmEfmigQ", "full_address": "76133 Karlsruhe", "hours": {}, "open": true, "categories": ["Arts & Entertainment", "Festivals", "Christmas Markets"], "city": "Karlsruhe", "review_count": 12, "name": "Weihnachtsmarkt am Marktplatz", "neighborhoods": [], "longitude": 8.393843, "state": "BW", "stars": 3.0, "latitude": 49.0067498, "attributes": {"Wheelchair Accessible": false, "Good for Kids": true, "Parking": {"garage": true, "validated": false, "street": false, "lot": false, "valet": false}}, "type": "business"}
{"business_id": "ntjg79DoncBIViCa2_ES7w", "full_address": "Scheibenhardt 1\n76135 Karlsruhe", "hours": {}, "open": true, "categories": ["Arts & Entertainment"], "city": "Karlsruhe", "review_count": 3, "name": "Golfclub Hofgut Scheibenhardt e.V.", "neighborhoods": [], "longitude": 8.37226, "state": "BW", "stars": 4.5, "latitude": 48.97557, "attributes": {}, "type": "business"}
{"business_id": "sVcfcjQ3X5dAMQyndIm35w", "full_address": "Pfinztalstra\u00dfe 9\n76227 Karlsruhe", "hours": {}, "open": true, "categories": ["Arts & Entertainment", "Festivals"], "city": "Karlsruhe", "review_count": 6, "name": "Mittelalterlicher Weihnachtsmarkt", "neighborhoods": [], "longitude": 8.47371, "state": "BW", "stars": 4.5, "latitude": 48.99888, "attributes": {}, "type": "business"}
{"business_id": "6S-7J-16S4hMEFSFfJpZBQ", "full_address": "Schlachthausstr\nam Schloss Gottesaue\n76131 Karlsruhe", "hours": {}, "open": true, "categories": ["Arts & Entertainment", "Cinema"], "city": "Karlsruhe", "review_count": 4, "name": "OpenAir Kino-N\u00e4chte", "neighborhoods": [], "longitude": 8.4258554, "state": "BW", "stars": 4.5, "latitude": 49.0037318, "attributes": {"Price Range": 2}, "type": "business"}
{"business_id": "yGgSNX8uJ6cKJQzLfmIjIQ", "full_address": "Karlstr. 10\n76133 Karlsruhe", "hours": {}, "open": true, "categories": ["Arts & Entertainment", "Cinema"], "city": "Karlsruhe", "review_count": 4, "name": "Das Kino Kinemathek Karlsruhe e.V. Kasse", "neighborhoods": [], "longitude": 8.39512, "state": "BW", "stars": 4.5, "latitude": 49.0109, "attributes": {"Price Range": 2}, "type": "business"}
{"business_id": "dCbLF_ttaqLxUcdW0n0S8g", "full_address": "Beim Schloss\n76275 Ettlingen", "hours": {}, "open": true, "categories": ["Arts & Entertainment", "Festivals", "Christmas Markets"], "city": "Ettlingen", "review_count": 3, "name": "Ettlinger Weihnachtsmarkt", "neighborhoods": [], "longitude": 8.36877, "state": "BW", "stars": 3.5, "latitude": 49.0299, "attributes": {"Good for Kids": true}, "type": "business"}
{"business_id": "iKFaOwdFxiWutQPaUUNmng", "full_address": "Alter Schlachthof 19\n76131 Karlsruhe", "hours": {}, "open": true, "categories": ["Music Venues", "Arts & Entertainment", "Nightlife", "Dance Clubs"], "city": "Karlsruhe", "review_count": 5, "name": "Substage", "neighborhoods": [], "longitude": 8.42974772838168, "state": "BW", "stars": 4.5, "latitude": 49.0052667602489, "attributes": {"Alcohol": "beer_and_wine", "Good For Dancing": true, "Music": {"dj": false, "background_music": false, "karaoke": false, "live": true, "video": false, "jukebox": false}, "Outdoor Seating": false, "Attire": "casual", "Has TV": false, "Good for Kids": false, "Good For Groups": true, "Price Range": 2}, "type": "business"}
{"business_id": "QKSTvcCbYHtCKST2AQ9W4Q", "full_address": "Weiherhof  13\n76227 Karlsruhe", "hours": {}, "open": true, "categories": ["Active Life", "Arts & Entertainment", "Swimming Pools"], "city": "Karlsruhe", "review_count": 4, "name": "Weiherhofbad", "neighborhoods": [], "longitude": 8.47243, "state": "BW", "stars": 4.0, "latitude": 48.9976, "attributes": {"Parking": {"garage": false, "validated": false, "street": false, "lot": false, "valet": false}}, "type": "business"}
{"business_id": "ZWBakQIVSnqIvigLt14p1w", "full_address": "Durlacher Allee 64\n76131 Karlsruhe", "hours": {"Monday": {"close": "00:00", "open": "11:30"}, "Tuesday": {"close": "00:00", "open": "11:30"}, "Friday": {"close": "00:00", "open": "11:30"}, "Wednesday": {"close": "00:00", "open": "11:30"}, "Thursday": {"close": "00:00", "open": "11:30"}, "Sunday": {"close": "16:00", "open": "10:00"}, "Saturday": {"close": "00:00", "open": "17:00"}}, "open": true, "categories": ["Jazz & Blues", "Arts & Entertainment", "Bistros", "Nightlife", "Restaurants"], "city": "Karlsruhe", "review_count": 14, "name": "Im Schlachthof", "neighborhoods": [], "longitude": 8.43102, "state": "BW", "stars": 4.0, "latitude": 49.0061, "attributes": {"Take-out": false, "Wi-Fi": "no", "Good For": {"dessert": false, "latenight": false, "lunch": false, "dinner": false, "breakfast": false, "brunch": false}, "Good For Dancing": false, "Noise Level": "average", "Takes Reservations": true, "Smoking": "no", "Delivery": false, "Dogs Allowed": false, "Parking": {"garage": false, "validated": false, "street": false, "lot": false, "valet": false}, "Music": {"dj": false, "background_music": false, "karaoke": false, "live": true, "video": false, "jukebox": false}, "Outdoor Seating": true, "Attire": "casual", "Alcohol": "full_bar", "Waiter Service": true, "Accepts Credit Cards": false, "Good for Kids": true, "Good For Groups": true, "Price Range": 2}, "type": "business"}
{"business_id": "OFD83GJxZwmVCEwWjJmwsQ", "full_address": "Adenauerring\n76131 Karlsruhe", "hours": {}, "open": true, "categories": ["Active Life", "Arts & Entertainment", "Soccer", "Stadiums & Arenas"], "city": "Karlsruhe", "review_count": 13, "name": "Wildparkstadion", "neighborhoods": [], "longitude": 8.41312, "state": "BW", "stars": 3.0, "latitude": 49.0201, "attributes": {"Good for Kids": true, "Parking": {"garage": false, "validated": false, "street": false, "lot": false, "valet": false}, "Wheelchair Accessible": true, "Price Range": 2}, "type": "business"}
{"business_id": "1vObhKVuXQF7YX5R6qxwVA", "full_address": "Kriegsstrasse 276\n76135 Karlsruhe", "hours": {}, "open": true, "categories": ["Bars", "German", "Arts & Entertainment", "Pubs", "Nightlife", "Social Clubs", "Restaurants"], "city": "Karlsruhe", "review_count": 8, "name": "Rote Taube", "neighborhoods": [], "longitude": 8.3721617, "state": "BW", "stars": 4.5, "latitude": 49.0057518, "attributes": {"Coat Check": false, "Take-out": false, "Alcohol": "full_bar", "Good For Dancing": true, "Noise Level": "average", "Takes Reservations": true, "Smoking": "no", "Delivery": true, "Dogs Allowed": false, "Happy Hour": false, "Parking": {"garage": false, "street": false, "validated": false, "lot": false, "valet": false}, "Music": {"dj": true}, "Outdoor Seating": true, "Attire": "casual", "Waiter Service": true, "Accepts Credit Cards": false, "Good for Kids": true, "Good For Groups": true, "Caters": true, "Price Range": 2}, "type": "business"}
{"business_id": "wheuLBEzZQ-my4gNt7aPUg", "full_address": "Kaiserpassage 6\n76133 Karlsruhe", "hours": {}, "open": true, "categories": ["Arts & Entertainment", "Cinema"], "city": "Karlsruhe", "review_count": 5, "name": "Die Kurbel", "neighborhoods": [], "longitude": 8.3973248, "state": "BW", "stars": 4.0, "latitude": 49.0102619, "attributes": {"Price Range": 2, "Alcohol": "beer_and_wine", "Coat Check": false, "Happy Hour": false, "Outdoor Seating": false, "Parking": {"garage": false, "validated": false, "street": false, "lot": false, "valet": false}, "Smoking": "outdoor", "Accepts Credit Cards": false, "Good for Kids": false, "Wheelchair Accessible": true}, "type": "business"}
{"business_id": "V_covJrJEmKoj8qTE-sfgw", "full_address": "Kaiserstr. 152-154\n76133 Karlsruhe", "hours": {}, "open": true, "categories": ["Arts & Entertainment", "Cinema"], "city": "Karlsruhe", "review_count": 5, "name": "Universum-City", "neighborhoods": [], "longitude": 8.39424, "state": "BW", "stars": 4.0, "latitude": 49.0101, "attributes": {"Good for Kids": true, "Price Range": 2}, "type": "business"}
{"business_id": "7VVJwBvw0NG-LCKZ_EuCoA", "full_address": "Hans-Thoma-Str. 2-6\n76133 Karlsruhe", "hours": {}, "open": true, "categories": ["Museums", "Arts & Entertainment"], "city": "Karlsruhe", "review_count": 8, "name": "Staatliche Kunsthalle Karlsruhe", "neighborhoods": [], "longitude": 8.4002493, "state": "BW", "stars": 5.0, "latitude": 49.0115823, "attributes": {"Good for Kids": true, "Parking": {"garage": false, "validated": false, "street": false, "lot": false, "valet": false}}, "type": "business"}
{"business_id": "XIikFKubRRURUqQKNs29AQ", "full_address": "Marienstr. 16\n76137 Karlsruhe", "hours": {}, "open": true, "categories": ["Arts & Entertainment", "Cinema"], "city": "Karlsruhe", "review_count": 59, "name": "Schauburg Kino", "neighborhoods": [], "longitude": 8.4077757, "state": "BW", "stars": 4.5, "latitude": 49.0031885, "attributes": {"Coat Check": false, "Alcohol": "beer_and_wine", "Attire": "casual", "Happy Hour": true, "Wheelchair Accessible": true, "Outdoor Seating": false, "Parking": {"garage": false, "validated": false, "street": false, "lot": false, "valet": false}, "Smoking": "no", "Accepts Credit Cards": false, "Good for Kids": true, "Good For Groups": true, "Price Range": 1}, "type": "business"}
{"business_id": "I_Xw9RZ01FB_7MetXIlrfw", "full_address": "Erbprinzenstra\u00dfe  13\n73133 Karlsruhe", "hours": {}, "open": true, "categories": ["Museums", "Arts & Entertainment"], "city": "Karlsruhe", "review_count": 6, "name": "Staatliches Museum f\u00fcr Naturkunde", "neighborhoods": [], "longitude": 8.4007324, "state": "BW", "stars": 4.5, "latitude": 49.0078044, "attributes": {"Wheelchair Accessible": true, "Parking": {"garage": false, "validated": false, "street": false, "lot": false, "valet": false}}, "type": "business"}
{"business_id": "BSi3InD9nxAfeKRlxwK7pQ", "full_address": "Schlachthausstr. 1\n76131 Karlsruhe", "hours": {}, "open": true, "categories": ["Arts & Entertainment", "Performing Arts", "Cultural Center"], "city": "Karlsruhe", "review_count": 6, "name": "Tollhaus", "neighborhoods": [], "longitude": 8.42482, "state": "BW", "stars": 4.5, "latitude": 49.0038, "attributes": {"Good for Kids": true, "Parking": {"garage": false, "validated": false, "street": false, "lot": false, "valet": false}, "Wheelchair Accessible": true, "Price Range": 2}, "type": "business"}
{"business_id": "qrGmLp2qyvlVYLuGzn0W7Q", "full_address": "Kaiserallee 11\n76133 Karlsruhe", "hours": {}, "open": true, "categories": ["Arts & Entertainment", "Performing Arts", "Nightlife", "Active Life", "Kids Activities", "Comedy Clubs"], "city": "Karlsruhe", "review_count": 9, "name": "marotte Figurentheater", "neighborhoods": [], "longitude": 8.3847, "state": "BW", "stars": 5.0, "latitude": 49.0091, "attributes": {"Price Range": 2, "Alcohol": "beer_and_wine", "Coat Check": true, "Happy Hour": false, "Outdoor Seating": false, "Parking": {"garage": false, "validated": false, "street": false, "lot": false, "valet": false}, "Smoking": "outdoor", "Accepts Credit Cards": false, "Wheelchair Accessible": false}, "type": "business"}
{"business_id": "HE5iuNFpQ1uKs1KuzLgQow", "full_address": "Schlo\u00dfbezirk 10\nSchloss\n76131 Karlsruhe", "hours": {}, "open": true, "categories": ["Museums", "Arts & Entertainment"], "city": "Karlsruhe", "review_count": 6, "name": "Badisches Landesmuseum", "neighborhoods": [], "longitude": 8.4043185, "state": "BW", "stars": 5.0, "latitude": 49.0134235, "attributes": {"Wheelchair Accessible": true, "Good for Kids": true, "Price Range": 4}, "type": "business"}
{"business_id": "-czvRRDB6tTlo6HUzBTMwg", "full_address": "Ahaweg 6\n76131 Karlsruhe", "hours": {}, "open": true, "categories": ["Museums", "Arts & Entertainment", "Shopping", "Home Services", "Home & Garden", "Painters", "Home Decor"], "city": "Karlsruhe", "review_count": 4, "name": "Staatliche Majolika Manufaktur Karlsruhe", "neighborhoods": [], "longitude": 8.4023623, "state": "BW", "stars": 3.5, "latitude": 49.0177377, "attributes": {"Parking": {"garage": false, "street": false, "validated": false, "lot": false, "valet": false}, "Accepts Credit Cards": true, "Good for Kids": false, "Price Range": 4}, "type": "business"}
{"business_id": "dbXe_WkVbbTuAbbz3G8Vtw", "full_address": "Baumeisterstr. 11\n76137 Karlsruhe", "hours": {}, "open": true, "categories": ["Arts & Entertainment", "Performing Arts"], "city": "Karlsruhe", "review_count": 11, "name": "Badisches Staatstheater", "neighborhoods": [], "longitude": 8.40699, "state": "BW", "stars": 3.5, "latitude": 49.0041, "attributes": {"Good for Kids": true, "Parking": {"garage": false, "validated": false, "street": false, "lot": false, "valet": false}, "Wheelchair Accessible": true, "Good For Groups": true, "Price Range": 3}, "type": "business"}
{"business_id": "nb5J-28w8naR38vg6fbdmA", "full_address": "Hirschstra\u00dfe 18\n76133 Karlsruhe", "hours": {"Monday": {"close": "03:00", "open": "19:00"}, "Friday": {"close": "05:00", "open": "19:00"}, "Wednesday": {"close": "03:00", "open": "19:00"}, "Thursday": {"close": "03:00", "open": "19:00"}, "Sunday": {"close": "03:00", "open": "19:00"}, "Saturday": {"close": "05:00", "open": "19:00"}}, "open": true, "categories": ["Arts & Entertainment", "Nightlife", "Music Venues"], "city": "Karlsruhe", "review_count": 4, "name": "Radio Oriente", "neighborhoods": [], "longitude": 8.3917067, "state": "BW", "stars": 3.0, "latitude": 49.0092996, "attributes": {"Price Range": 2}, "type": "business"}
{"business_id": "vgAl99QbSRg48FFBRk1gKg", "full_address": "Herrenstr. 30/32\n76133 Karlsruhe", "hours": {}, "open": true, "categories": ["Arts & Entertainment", "Performing Arts"], "city": "Karlsruhe", "review_count": 7, "name": "Kammertheater", "neighborhoods": [], "longitude": 8.393843, "state": "BW", "stars": 4.5, "latitude": 49.0067498, "attributes": {"Wheelchair Accessible": false, "Price Range": 2}, "type": "business"}
{"business_id": "mDGpCtjxl79YtwtyFEO5fg", "full_address": "Amthausstra\u00dfe  17-19\n76227 Karlsruhe", "hours": {}, "open": true, "categories": ["Arts & Entertainment", "Performing Arts"], "city": "Karlsruhe", "review_count": 6, "name": "Kabarett in der Orgelfabrik, die Spiegelfechter e.V.", "neighborhoods": [], "longitude": 8.4713051, "state": "BW", "stars": 4.5, "latitude": 48.9979356, "attributes": {"Good for Kids": false, "Price Range": 1}, "type": "business"}
{"business_id": "lNforL0COH6J5hnF08l_1w", "full_address": "Brauerstr. 40\n76135 Karlsruhe", "hours": {}, "open": true, "categories": ["Arts & Entertainment", "Cinema"], "city": "Karlsruhe", "review_count": 66, "name": "Filmpalast am ZKM", "neighborhoods": [], "longitude": 8.38557, "state": "BW", "stars": 3.5, "latitude": 49.00038, "attributes": {"Take-out": true, "Good For": {"dessert": false, "latenight": false, "lunch": false, "dinner": false, "breakfast": false, "brunch": false}, "Takes Reservations": true, "Parking": {"garage": false, "validated": false, "street": false, "lot": false, "valet": false}, "Wheelchair Accessible": true, "Outdoor Seating": true, "Attire": "casual", "Alcohol": "beer_and_wine", "Smoking": "no", "Accepts Credit Cards": true, "Good for Kids": true, "Good For Groups": true, "Price Range": 3}, "type": "business"}
{"business_id": "qaV3YBqrm9MVkXJuCPafaw", "full_address": "Ettlinger Str. 6\nHaupteingang am Hauptbahnhof, Bahnhofplatz\n76137 Karlsruhe", "hours": {}, "open": true, "categories": ["Arts & Entertainment", "Botanical Gardens"], "city": "Karlsruhe", "review_count": 32, "name": "Zoo Karlsruhe", "neighborhoods": [], "longitude": 8.4031862, "state": "BW", "stars": 4.0, "latitude": 48.9989894, "attributes": {"Good for Kids": true, "Price Range": 2}, "type": "business"}
{"business_id": "9hws9grDsZHAnhWEl_RICA", "full_address": "Ziegelstr. 1\n76185 Karlsruhe", "hours": {}, "open": true, "categories": ["Active Life", "Climbing", "Arts & Entertainment", "Bed & Breakfast", "Hotels & Travel"], "city": "Karlsruhe", "review_count": 8, "name": "The Rock Kletterzentrum Karlsruhe", "neighborhoods": [], "longitude": 8.36151, "state": "BW", "stars": 5.0, "latitude": 49.0071, "attributes": {"Parking": {"garage": false, "validated": false, "street": false, "lot": false, "valet": false}, "Wheelchair Accessible": false, "Price Range": 3}, "type": "business"}
{"business_id": "byFsjYzzttWh6DLptWx_fg", "full_address": "Lorenzstr. 19\n76135 Karlsruhe", "hours": {"Sunday": {"close": "18:00", "open": "11:00"}, "Friday": {"close": "18:00", "open": "10:00"}, "Wednesday": {"close": "18:00", "open": "10:00"}, "Thursday": {"close": "18:00", "open": "10:00"}, "Saturday": {"close": "18:00", "open": "11:00"}}, "open": true, "categories": ["Museums", "Arts & Entertainment"], "city": "Karlsruhe", "review_count": 27, "name": "ZkM | Zentrum f\u00fcr Kunst und Medientechnologie", "neighborhoods": [], "longitude": 8.3831, "state": "BW", "stars": 4.5, "latitude": 49.0018, "attributes": {"Price Range": 2, "Parking": {"garage": true, "street": false, "validated": false, "lot": false, "valet": false}, "By Appointment Only": false, "Accepts Credit Cards": true, "Good for Kids": true, "Wheelchair Accessible": true}, "type": "business"}
{"business_id": "hgGC4Y8TsJRuBTGUn08RBw", "full_address": "Pfannkuchstr. 14\n76185 Karlsruhe", "hours": {}, "open": true, "categories": ["Music Venues", "Arts & Entertainment", "Nightlife", "Dance Clubs"], "city": "Karlsruhe", "review_count": 5, "name": "Nachtwerk Musikclub", "neighborhoods": [], "longitude": 8.34813, "state": "BW", "stars": 4.5, "latitude": 49.0106, "attributes": {"Alcohol": "beer_and_wine", "Attire": "formal", "Parking": {"garage": false, "validated": false, "street": false, "lot": false, "valet": false}, "Smoking": "outdoor", "Good For Groups": true, "Price Range": 2}, "type": "business"}
{"business_id": "ZZPfV62S73wqtWhQxiBALg", "full_address": "Pforzheimer Str. 68\n76275 Ettlingen", "hours": {}, "open": true, "categories": ["Arts & Entertainment", "Cultural Center"], "city": "Ettlingen", "review_count": 3, "name": "Buhlsche M\u00fchle", "neighborhoods": [], "longitude": 8.41873, "state": "BW", "stars": 4.0, "latitude": 48.93814, "attributes": {"Wheelchair Accessible": true, "Parking": {"garage": false, "validated": false, "street": false, "lot": false, "valet": false}}, "type": "business"}
{"business_id": "fuO8q9apAj88q9RHx3yecQ", "full_address": "Karlsruhe, Baden-W\u00fcrttemberg", "hours": {}, "open": true, "categories": ["Arts & Entertainment", "Stadiums & Arenas"], "city": "Karlsruhe", "review_count": 3, "name": "Wildpark Stadion", "neighborhoods": [], "longitude": 8.41312408447266, "state": "BW", "stars": 3.0, "latitude": 49.020056196875, "attributes": {"Good for Kids": true}, "type": "business"}
{"business_id": "XlytpM7Y7EIMrqy3gK2xjg", "full_address": "Schlossbezirk 10\n76131 Karlsruhe", "hours": {}, "open": true, "categories": ["Castles", "Museums", "Arts & Entertainment"], "city": "Karlsruhe", "review_count": 5, "name": "Schloss Karlsruhe", "neighborhoods": [], "longitude": 8.404352, "state": "BW", "stars": 4.5, "latitude": 49.013532, "attributes": {"Good for Kids": true, "Price Range": 1}, "type": "business"}
{"business_id": "E6xrU8gCZxRlL60nGnf86w", "full_address": "Bahnhofplatz 1a\n76137 Karlsruhe", "hours": {}, "open": true, "categories": ["Arts & Entertainment", "General Festivals", "Festivals"], "city": "Karlsruhe", "review_count": 7, "name": "Bierb\u00f6rse", "neighborhoods": [], "longitude": 8.40099795225087, "state": "BW", "stars": 4.0, "latitude": 48.9935726631097, "attributes": {"Accepts Credit Cards": false, "Good for Kids": false, "Price Range": 2}, "type": "business"}
{"business_id": "agkUtfCYDPnLmxcFL54r5w", "full_address": "Gablonzer Str. 11\n76185 Karlsruhe", "hours": {"Tuesday": {"close": "23:00", "open": "19:00"}, "Saturday": {"close": "01:00", "open": "21:00"}}, "open": true, "categories": ["Arts & Entertainment", "Arcades"], "city": "Karlsruhe", "review_count": 17, "name": "RetroGames e.V.", "neighborhoods": [], "longitude": 8.3530988, "state": "BW", "stars": 5.0, "latitude": 49.0239835, "attributes": {"Price Range": 1, "Alcohol": "beer_and_wine", "Coat Check": true, "Happy Hour": false, "Outdoor Seating": false, "Parking": {"garage": false, "street": true, "validated": false, "lot": false, "valet": false}, "Ages Allowed": "18plus", "Smoking": "no", "Accepts Credit Cards": false, "Good for Kids": true, "Good For Groups": true, "Wheelchair Accessible": false}, "type": "business"}
{"business_id": "22yGKqF09XSoZ49A9E209g", "full_address": "G\u00fcnther-Klotz-Anlage\n76135 Karlsruhe", "hours": {"Sunday": {"close": "02:00", "open": "09:00"}, "Friday": {"close": "02:00", "open": "18:00"}, "Saturday": {"close": "02:00", "open": "09:00"}}, "open": true, "categories": ["Arts & Entertainment", "General Festivals", "Festivals"], "city": "Karlsruhe", "review_count": 12, "name": "Das Fest", "neighborhoods": [], "longitude": 8.3820167, "state": "BW", "stars": 5.0, "latitude": 48.9908752, "attributes": {"Good for Kids": true, "Parking": {"garage": false, "validated": false, "street": false, "lot": false, "valet": false}, "Wheelchair Accessible": false, "Price Range": 1}, "type": "business"}
{"business_id": "yKA1moKJGHg_XNHmEfmigQ", "full_address": "76133 Karlsruhe", "hours": {}, "open": true, "categories": ["Arts & Entertainment", "Festivals", "Christmas Markets"], "city": "Karlsruhe", "review_count": 12, "name": "Weihnachtsmarkt am Marktplatz", "neighborhoods": [], "longitude": 8.393843, "state": "BW", "stars": 3.0, "latitude": 49.0067498, "attributes": {"Wheelchair Accessible": false, "Good for Kids": true, "Parking": {"garage": true, "validated": false, "street": false, "lot": false, "valet": false}}, "type": "business"}
{"business_id": "ntjg79DoncBIViCa2_ES7w", "full_address": "Scheibenhardt 1\n76135 Karlsruhe", "hours": {}, "open": true, "categories": ["Arts & Entertainment"], "city": "Karlsruhe", "review_count": 3, "name": "Golfclub Hofgut Scheibenhardt e.V.", "neighborhoods": [], "longitude": 8.37226, "state": "BW", "stars": 4.5, "latitude": 48.97557, "attributes": {}, "type": "business"}
{"business_id": "sVcfcjQ3X5dAMQyndIm35w", "full_address": "Pfinztalstra\u00dfe 9\n76227 Karlsruhe", "hours": {}, "open": true, "categories": ["Arts & Entertainment", "Festivals"], "city": "Karlsruhe", "review_count": 6, "name": "Mittelalterlicher Weihnachtsmarkt", "neighborhoods": [], "longitude": 8.47371, "state": "BW", "stars": 4.5, "latitude": 48.99888, "attributes": {}, "type": "business"}
{"business_id": "6S-7J-16S4hMEFSFfJpZBQ", "full_address": "Schlachthausstr\nam Schloss Gottesaue\n76131 Karlsruhe", "hours": {}, "open": true, "categories": ["Arts & Entertainment", "Cinema"], "city": "Karlsruhe", "review_count": 4, "name": "OpenAir Kino-N\u00e4chte", "neighborhoods": [], "longitude": 8.4258554, "state": "BW", "stars": 4.5, "latitude": 49.0037318, "attributes": {"Price Range": 2}, "type": "business"}
{"business_id": "yGgSNX8uJ6cKJQzLfmIjIQ", "full_address": "Karlstr. 10\n76133 Karlsruhe", "hours": {}, "open": true, "categories": ["Arts & Entertainment", "Cinema"], "city": "Karlsruhe", "review_count": 4, "name": "Das Kino Kinemathek Karlsruhe e.V. Kasse", "neighborhoods": [], "longitude": 8.39512, "state": "BW", "stars": 4.5, "latitude": 49.0109, "attributes": {"Price Range": 2}, "type": "business"}
{"business_id": "dCbLF_ttaqLxUcdW0n0S8g", "full_address": "Beim Schloss\n76275 Ettlingen", "hours": {}, "open": true, "categories": ["Arts & Entertainment", "Festivals", "Christmas Markets"], "city": "Ettlingen", "review_count": 3, "name": "Ettlinger Weihnachtsmarkt", "neighborhoods": [], "longitude": 8.36877, "state": "BW", "stars": 3.5, "latitude": 49.0299, "attributes": {"Good for Kids": true}, "type": "business"}
{"business_id": "iKFaOwdFxiWutQPaUUNmng", "full_address": "Alter Schlachthof 19\n76131 Karlsruhe", "hours": {}, "open": true, "categories": ["Music Venues", "Arts & Entertainment", "Nightlife", "Dance Clubs"], "city": "Karlsruhe", "review_count": 5, "name": "Substage", "neighborhoods": [], "longitude": 8.42974772838168, "state": "BW", "stars": 4.5, "latitude": 49.0052667602489, "attributes": {"Alcohol": "beer_and_wine", "Good For Dancing": true, "Music": {"dj": false, "background_music": false, "karaoke": false, "live": true, "video": false, "jukebox": false}, "Outdoor Seating": false, "Attire": "casual", "Has TV": false, "Good for Kids": false, "Good For Groups": true, "Price Range": 2}, "type": "business"}
{"business_id": "QKSTvcCbYHtCKST2AQ9W4Q", "full_address": "Weiherhof  13\n76227 Karlsruhe", "hours": {}, "open": true, "categories": ["Active Life", "Arts & Entertainment", "Swimming Pools"], "city": "Karlsruhe", "review_count": 4, "name": "Weiherhofbad", "neighborhoods": [], "longitude": 8.47243, "state": "BW", "stars": 4.0, "latitude": 48.9976, "attributes": {"Parking": {"garage": false, "validated": false, "street": false, "lot": false, "valet": false}}, "type": "business"}
{"business_id": "ZWBakQIVSnqIvigLt14p1w", "full_address": "Durlacher Allee 64\n76131 Karlsruhe", "hours": {"Monday": {"close": "00:00", "open": "11:30"}, "Tuesday": {"close": "00:00", "open": "11:30"}, "Friday": {"close": "00:00", "open": "11:30"}, "Wednesday": {"close": "00:00", "open": "11:30"}, "Thursday": {"close": "00:00", "open": "11:30"}, "Sunday": {"close": "16:00", "open": "10:00"}, "Saturday": {"close": "00:00", "open": "17:00"}}, "open": true, "categories": ["Jazz & Blues", "Arts & Entertainment", "Bistros", "Nightlife", "Restaurants"], "city": "Karlsruhe", "review_count": 14, "name": "Im Schlachthof", "neighborhoods": [], "longitude": 8.43102, "state": "BW", "stars": 4.0, "latitude": 49.0061, "attributes": {"Take-out": false, "Wi-Fi": "no", "Good For": {"dessert": false, "latenight": false, "lunch": false, "dinner": false, "breakfast": false, "brunch": false}, "Good For Dancing": false, "Noise Level": "average", "Takes Reservations": true, "Smoking": "no", "Delivery": false, "Dogs Allowed": false, "Parking": {"garage": false, "validated": false, "street": false, "lot": false, "valet": false}, "Music": {"dj": false, "background_music": false, "karaoke": false, "live": true, "video": false, "jukebox": false}, "Outdoor Seating": true, "Attire": "casual", "Alcohol": "full_bar", "Waiter Service": true, "Accepts Credit Cards": false, "Good for Kids": true, "Good For Groups": true, "Price Range": 2}, "type": "business"}
{"business_id": "OFD83GJxZwmVCEwWjJmwsQ", "full_address": "Adenauerring\n76131 Karlsruhe", "hours": {}, "open": true, "categories": ["Active Life", "Arts & Entertainment", "Soccer", "Stadiums & Arenas"], "city": "Karlsruhe", "review_count": 13, "name": "Wildparkstadion", "neighborhoods": [], "longitude": 8.41312, "state": "BW", "stars": 3.0, "latitude": 49.0201, "attributes": {"Good for Kids": true, "Parking": {"garage": false, "validated": false, "street": false, "lot": false, "valet": false}, "Wheelchair Accessible": true, "Price Range": 2}, "type": "business"}
{"business_id": "1vObhKVuXQF7YX5R6qxwVA", "full_address": "Kriegsstrasse 276\n76135 Karlsruhe", "hours": {}, "open": true, "categories": ["Bars", "German", "Arts & Entertainment", "Pubs", "Nightlife", "Social Clubs", "Restaurants"], "city": "Karlsruhe", "review_count": 8, "name": "Rote Taube", "neighborhoods": [], "longitude": 8.3721617, "state": "BW", "stars": 4.5, "latitude": 49.0057518, "attributes": {"Coat Check": false, "Take-out": false, "Alcohol": "full_bar", "Good For Dancing": true, "Noise Level": "average", "Takes Reservations": true, "Smoking": "no", "Delivery": true, "Dogs Allowed": false, "Happy Hour": false, "Parking": {"garage": false, "street": false, "validated": false, "lot": false, "valet": false}, "Music": {"dj": true}, "Outdoor Seating": true, "Attire": "casual", "Waiter Service": true, "Accepts Credit Cards": false, "Good for Kids": true, "Good For Groups": true, "Caters": true, "Price Range": 2}, "type": "business"}
{"business_id": "wheuLBEzZQ-my4gNt7aPUg", "full_address": "Kaiserpassage 6\n76133 Karlsruhe", "hours": {}, "open": true, "categories": ["Arts & Entertainment", "Cinema"], "city": "Karlsruhe", "review_count": 5, "name": "Die Kurbel", "neighborhoods": [], "longitude": 8.3973248, "state": "BW", "stars": 4.0, "latitude": 49.0102619, "attributes": {"Price Range": 2, "Alcohol": "beer_and_wine", "Coat Check": false, "Happy Hour": false, "Outdoor Seating": false, "Parking": {"garage": false, "validated": false, "street": false, "lot": false, "valet": false}, "Smoking": "outdoor", "Accepts Credit Cards": false, "Good for Kids": false, "Wheelchair Accessible": true}, "type": "business"}
{"business_id": "V_covJrJEmKoj8qTE-sfgw", "full_address": "Kaiserstr. 152-154\n76133 Karlsruhe", "hours": {}, "open": true, "categories": ["Arts & Entertainment", "Cinema"], "city": "Karlsruhe", "review_count": 5, "name": "Universum-City", "neighborhoods": [], "longitude": 8.39424, "state": "BW", "stars": 4.0, "latitude": 49.0101, "attributes": {"Good for Kids": true, "Price Range": 2}, "type": "business"}
{"business_id": "7VVJwBvw0NG-LCKZ_EuCoA", "full_address": "Hans-Thoma-Str. 2-6\n76133 Karlsruhe", "hours": {}, "open": true, "categories": ["Museums", "Arts & Entertainment"], "city": "Karlsruhe", "review_count": 8, "name": "Staatliche Kunsthalle Karlsruhe", "neighborhoods": [], "longitude": 8.4002493, "state": "BW", "stars": 5.0, "latitude": 49.0115823, "attributes": {"Good for Kids": true, "Parking": {"garage": false, "validated": false, "street": false, "lot": false, "valet": false}}, "type": "business"}
{"business_id": "XIikFKubRRURUqQKNs29AQ", "full_address": "Marienstr. 16\n76137 Karlsruhe", "hours": {}, "open": true, "categories": ["Arts & Entertainment", "Cinema"], "city": "Karlsruhe", "review_count": 59, "name": "Schauburg Kino", "neighborhoods": [], "longitude": 8.4077757, "state": "BW", "stars": 4.5, "latitude": 49.0031885, "attributes": {"Coat Check": false, "Alcohol": "beer_and_wine", "Attire": "casual", "Happy Hour": true, "Wheelchair Accessible": true, "Outdoor Seating": false, "Parking": {"garage": false, "validated": false, "street": false, "lot": false, "valet": false}, "Smoking": "no", "Accepts Credit Cards": false, "Good for Kids": true, "Good For Groups": true, "Price Range": 1}, "type": "business"}
{"business_id": "I_Xw9RZ01FB_7MetXIlrfw", "full_address": "Erbprinzenstra\u00dfe  13\n73133 Karlsruhe", "hours": {}, "open": true, "categories": ["Museums", "Arts & Entertainment"], "city": "Karlsruhe", "review_count": 6, "name": "Staatliches Museum f\u00fcr Naturkunde", "neighborhoods": [], "longitude": 8.4007324, "state": "BW", "stars": 4.5, "latitude": 49.0078044, "attributes": {"Wheelchair Accessible": true, "Parking": {"garage": false, "validated": false, "street": false, "lot": false, "valet": false}}, "type": "business"}
{"business_id": "BSi3InD9nxAfeKRlxwK7pQ", "full_address": "Schlachthausstr. 1\n76131 Karlsruhe", "hours": {}, "open": true, "categories": ["Arts & Entertainment", "Performing Arts", "Cultural Center"], "city": "Karlsruhe", "review_count": 6, "name": "Tollhaus", "neighborhoods": [], "longitude": 8.42482, "state": "BW", "stars": 4.5, "latitude": 49.0038, "attributes": {"Good for Kids": true, "Parking": {"garage": false, "validated": false, "street": false, "lot": false, "valet": false}, "Wheelchair Accessible": true, "Price Range": 2}, "type": "business"}
{"business_id": "qrGmLp2qyvlVYLuGzn0W7Q", "full_address": "Kaiserallee 11\n76133 Karlsruhe", "hours": {}, "open": true, "categories": ["Arts & Entertainment", "Performing Arts", "Nightlife", "Active Life", "Kids Activities", "Comedy Clubs"], "city": "Karlsruhe", "review_count": 9, "name": "marotte Figurentheater", "neighborhoods": [], "longitude": 8.3847, "state": "BW", "stars": 5.0, "latitude": 49.0091, "attributes": {"Price Range": 2, "Alcohol": "beer_and_wine", "Coat Check": true, "Happy Hour": false, "Outdoor Seating": false, "Parking": {"garage": false, "validated": false, "street": false, "lot": false, "valet": false}, "Smoking": "outdoor", "Accepts Credit Cards": false, "Wheelchair Accessible": false}, "type": "business"}
{"business_id": "HE5iuNFpQ1uKs1KuzLgQow", "full_address": "Schlo\u00dfbezirk 10\nSchloss\n76131 Karlsruhe", "hours": {}, "open": true, "categories": ["Museums", "Arts & Entertainment"], "city": "Karlsruhe", "review_count": 6, "name": "Badisches Landesmuseum", "neighborhoods": [], "longitude": 8.4043185, "state": "BW", "stars": 5.0, "latitude": 49.0134235, "attributes": {"Wheelchair Accessible": true, "Good for Kids": true, "Price Range": 4}, "type": "business"}
{"business_id": "-czvRRDB6tTlo6HUzBTMwg", "full_address": "Ahaweg 6\n76131 Karlsruhe", "hours": {}, "open": true, "categories": ["Museums", "Arts & Entertainment", "Shopping", "Home Services", "Home & Garden", "Painters", "Home Decor"], "city": "Karlsruhe", "review_count": 4, "name": "Staatliche Majolika Manufaktur Karlsruhe", "neighborhoods": [], "longitude": 8.4023623, "state": "BW", "stars": 3.5, "latitude": 49.0177377, "attributes": {"Parking": {"garage": false, "street": false, "validated": false, "lot": false, "valet": false}, "Accepts Credit Cards": true, "Good for Kids": false, "Price Range": 4}, "type": "business"}
{"business_id": "dbXe_WkVbbTuAbbz3G8Vtw", "full_address": "Baumeisterstr. 11\n76137 Karlsruhe", "hours": {}, "open": true, "categories": ["Arts & Entertainment", "Performing Arts"], "city": "Karlsruhe", "review_count": 11, "name": "Badisches Staatstheater", "neighborhoods": [], "longitude": 8.40699, "state": "BW", "stars": 3.5, "latitude": 49.0041, "attributes": {"Good for Kids": true, "Parking": {"garage": false, "validated": false, "street": false, "lot": false, "valet": false}, "Wheelchair Accessible": true, "Good For Groups": true, "Price Range": 3}, "type": "business"}
{"business_id": "nb5J-28w8naR38vg6fbdmA", "full_address": "Hirschstra\u00dfe 18\n76133 Karlsruhe", "hours": {"Monday": {"close": "03:00", "open": "19:00"}, "Friday": {"close": "05:00", "open": "19:00"}, "Wednesday": {"close": "03:00", "open": "19:00"}, "Thursday": {"close": "03:00", "open": "19:00"}, "Sunday": {"close": "03:00", "open": "19:00"}, "Saturday": {"close": "05:00", "open": "19:00"}}, "open": true, "categories": ["Arts & Entertainment", "Nightlife", "Music Venues"], "city": "Karlsruhe", "review_count": 4, "name": "Radio Oriente", "neighborhoods": [], "longitude": 8.3917067, "state": "BW", "stars": 3.0, "latitude": 49.0092996, "attributes": {"Price Range": 2}, "type": "business"}
{"business_id": "vgAl99QbSRg48FFBRk1gKg", "full_address": "Herrenstr. 30/32\n76133 Karlsruhe", "hours": {}, "open": true, "categories": ["Arts & Entertainment", "Performing Arts"], "city": "Karlsruhe", "review_count": 7, "name": "Kammertheater", "neighborhoods": [], "longitude": 8.393843, "state": "BW", "stars": 4.5, "latitude": 49.0067498, "attributes": {"Wheelchair Accessible": false, "Price Range": 2}, "type": "business"}
{"business_id": "mDGpCtjxl79YtwtyFEO5fg", "full_address": "Amthausstra\u00dfe  17-19\n76227 Karlsruhe", "hours": {}, "open": true, "categories": ["Arts & Entertainment", "Performing Arts"], "city": "Karlsruhe", "review_count": 6, "name": "Kabarett in der Orgelfabrik, die Spiegelfechter e.V.", "neighborhoods": [], "longitude": 8.4713051, "state": "BW", "stars": 4.5, "latitude": 48.9979356, "attributes": {"Good for Kids": false, "Price Range": 1}, "type": "business"}
{"business_id": "lNforL0COH6J5hnF08l_1w", "full_address": "Brauerstr. 40\n76135 Karlsruhe", "hours": {}, "open": true, "categories": ["Arts & Entertainment", "Cinema"], "city": "Karlsruhe", "review_count": 66, "name": "Filmpalast am ZKM", "neighborhoods": [], "longitude": 8.38557, "state": "BW", "stars": 3.5, "latitude": 49.00038, "attributes": {"Take-out": true, "Good For": {"dessert": false, "latenight": false, "lunch": false, "dinner": false, "breakfast": false, "brunch": false}, "Takes Reservations": true, "Parking": {"garage": false, "validated": false, "street": false, "lot": false, "valet": false}, "Wheelchair Accessible": true, "Outdoor Seating": true, "Attire": "casual", "Alcohol": "beer_and_wine", "Smoking": "no", "Accepts Credit Cards": true, "Good for Kids": true, "Good For Groups": true, "Price Range": 3}, "type": "business"}
{"business_id": "qaV3YBqrm9MVkXJuCPafaw", "full_address": "Ettlinger Str. 6\nHaupteingang am Hauptbahnhof, Bahnhofplatz\n76137 Karlsruhe", "hours": {}, "open": true, "categories": ["Arts & Entertainment", "Botanical Gardens"], "city": "Karlsruhe", "review_count": 32, "name": "Zoo Karlsruhe", "neighborhoods": [], "longitude": 8.4031862, "state": "BW", "stars": 4.0, "latitude": 48.9989894, "attributes": {"Good for Kids": true, "Price Range": 2}, "type": "business"}
{"business_id": "9hws9grDsZHAnhWEl_RICA", "full_address": "Ziegelstr. 1\n76185 Karlsruhe", "hours": {}, "open": true, "categories": ["Active Life", "Climbing", "Arts & Entertainment", "Bed & Breakfast", "Hotels & Travel"], "city": "Karlsruhe", "review_count": 8, "name": "The Rock Kletterzentrum Karlsruhe", "neighborhoods": [], "longitude": 8.36151, "state": "BW", "stars": 5.0, "latitude": 49.0071, "attributes": {"Parking": {"garage": false, "validated": false, "street": false, "lot": false, "valet": false}, "Wheelchair Accessible": false, "Price Range": 3}, "type": "business"}
{"business_id": "byFsjYzzttWh6DLptWx_fg", "full_address": "Lorenzstr. 19\n76135 Karlsruhe", "hours": {"Sunday": {"close": "18:00", "open": "11:00"}, "Friday": {"close": "18:00", "open": "10:00"}, "Wednesday": {"close": "18:00", "open": "10:00"}, "Thursday": {"close": "18:00", "open": "10:00"}, "Saturday": {"close": "18:00", "open": "11:00"}}, "open": true, "categories": ["Museums", "Arts & Entertainment"], "city": "Karlsruhe", "review_count": 27, "name": "ZkM | Zentrum f\u00fcr Kunst und Medientechnologie", "neighborhoods": [], "longitude": 8.3831, "state": "BW", "stars": 4.5, "latitude": 49.0018, "attributes": {"Price Range": 2, "Parking": {"garage": true, "street": false, "validated": false, "lot": false, "valet": false}, "By Appointment Only": false, "Accepts Credit Cards": true, "Good for Kids": true, "Wheelchair Accessible": true}, "type": "business"}
{"business_id": "hgGC4Y8TsJRuBTGUn08RBw", "full_address": "Pfannkuchstr. 14\n76185 Karlsruhe", "hours": {}, "open": true, "categories": ["Music Venues", "Arts & Entertainment", "Nightlife", "Dance Clubs"], "city": "Karlsruhe", "review_count": 5, "name": "Nachtwerk Musikclub", "neighborhoods": [], "longitude": 8.34813, "state": "BW", "stars": 4.5, "latitude": 49.0106, "attributes": {"Alcohol": "beer_and_wine", "Attire": "formal", "Parking": {"garage": false, "validated": false, "street": false, "lot": false, "valet": false}, "Smoking": "outdoor", "Good For Groups": true, "Price Range": 2}, "type": "business"}
{"business_id": "ZZPfV62S73wqtWhQxiBALg", "full_address": "Pforzheimer Str. 68\n76275 Ettlingen", "hours": {}, "open": true, "categories": ["Arts & Entertainment", "Cultural Center"], "city": "Ettlingen", "review_count": 3, "name": "Buhlsche M\u00fchle", "neighborhoods": [], "longitude": 8.41873, "state": "BW", "stars": 4.0, "latitude": 48.93814, "attributes": {"Wheelchair Accessible": true, "Parking": {"garage": false, "validated": false, "street": false, "lot": false, "valet": false}}, "type": "business"}
{"business_id": "fuO8q9apAj88q9RHx3yecQ", "full_address": "Karlsruhe, Baden-W\u00fcrttemberg", "hours": {}, "open": true, "categories": ["Arts & Entertainment", "Stadiums & Arenas"], "city": "Karlsruhe", "review_count": 3, "name": "Wildpark Stadion", "neighborhoods": [], "longitude": 8.41312408447266, "state": "BW", "stars": 3.0, "latitude": 49.020056196875, "attributes": {"Good for Kids": true}, "type": "business"}
{"business_id": "XlytpM7Y7EIMrqy3gK2xjg", "full_address": "Schlossbezirk 10\n76131 Karlsruhe", "hours": {}, "open": true, "categories": ["Castles", "Museums", "Arts & Entertainment"], "city": "Karlsruhe", "review_count": 5, "name": "Schloss Karlsruhe", "neighborhoods": [], "longitude": 8.404352, "state": "BW", "stars": 4.5, "latitude": 49.013532, "attributes": {"Good for Kids": true, "Price Range": 1}, "type": "business"}
{"business_id": "E6xrU8gCZxRlL60nGnf86w", "full_address": "Bahnhofplatz 1a\n76137 Karlsruhe", "hours": {}, "open": true, "categories": ["Arts & Entertainment", "General Festivals", "Festivals"], "city": "Karlsruhe", "review_count": 7, "name": "Bierb\u00f6rse", "neighborhoods": [], "longitude": 8.40099795225087, "state": "BW", "stars": 4.0, "latitude": 48.9935726631097, "attributes": {"Accepts Credit Cards": false, "Good for Kids": false, "Price Range": 2}, "type": "business"}
{"business_id": "agkUtfCYDPnLmxcFL54r5w", "full_address": "Gablonzer Str. 11\n76185 Karlsruhe", "hours": {"Tuesday": {"close": "23:00", "open": "19:00"}, "Saturday": {"close": "01:00", "open": "21:00"}}, "open": true, "categories": ["Arts & Entertainment", "Arcades"], "city": "Karlsruhe", "review_count": 17, "name": "RetroGames e.V.", "neighborhoods": [], "longitude": 8.3530988, "state": "BW", "stars": 5.0, "latitude": 49.0239835, "attributes": {"Price Range": 1, "Alcohol": "beer_and_wine", "Coat Check": true, "Happy Hour": false, "Outdoor Seating": false, "Parking": {"garage": false, "street": true, "validated": false, "lot": false, "valet": false}, "Ages Allowed": "18plus", "Smoking": "no", "Accepts Credit Cards": false, "Good for Kids": true, "Good For Groups": true, "Wheelchair Accessible": false}, "type": "business"}
{"business_id": "22yGKqF09XSoZ49A9E209g", "full_address": "G\u00fcnther-Klotz-Anlage\n76135 Karlsruhe", "hours": {"Sunday": {"close": "02:00", "open": "09:00"}, "Friday": {"close": "02:00", "open": "18:00"}, "Saturday": {"close": "02:00", "open": "09:00"}}, "open": true, "categories": ["Arts & Entertainment", "General Festivals", "Festivals"], "city": "Karlsruhe", "review_count": 12, "name": "Das Fest", "neighborhoods": [], "longitude": 8.3820167, "state": "BW", "stars": 5.0, "latitude": 48.9908752, "attributes": {"Good for Kids": true, "Parking": {"garage": false, "validated": false, "street": false, "lot": false, "valet": false}, "Wheelchair Accessible": false, "Price Range": 1}, "type": "business"}
{"business_id": "yKA1moKJGHg_XNHmEfmigQ", "full_address": "76133 Karlsruhe", "hours": {}, "open": true, "categories": ["Arts & Entertainment", "Festivals", "Christmas Markets"], "city": "Karlsruhe", "review_count": 12, "name": "Weihnachtsmarkt am Marktplatz", "neighborhoods": [], "longitude": 8.393843, "state": "BW", "stars": 3.0, "latitude": 49.0067498, "attributes": {"Wheelchair Accessible": false, "Good for Kids": true, "Parking": {"garage": true, "validated": false, "street": false, "lot": false, "valet": false}}, "type": "business"}
{"business_id": "ntjg79DoncBIViCa2_ES7w", "full_address": "Scheibenhardt 1\n76135 Karlsruhe", "hours": {}, "open": true, "categories": ["Arts & Entertainment"], "city": "Karlsruhe", "review_count": 3, "name": "Golfclub Hofgut Scheibenhardt e.V.", "neighborhoods": [], "longitude": 8.37226, "state": "BW", "stars": 4.5, "latitude": 48.97557, "attributes": {}, "type": "business"}
{"business_id": "sVcfcjQ3X5dAMQyndIm35w", "full_address": "Pfinztalstra\u00dfe 9\n76227 Karlsruhe", "hours": {}, "open": true, "categories": ["Arts & Entertainment", "Festivals"], "city": "Karlsruhe", "review_count": 6, "name": "Mittelalterlicher Weihnachtsmarkt", "neighborhoods": [], "longitude": 8.47371, "state": "BW", "stars": 4.5, "latitude": 48.99888, "attributes": {}, "type": "business"}
{"business_id": "6S-7J-16S4hMEFSFfJpZBQ", "full_address": "Schlachthausstr\nam Schloss Gottesaue\n76131 Karlsruhe", "hours": {}, "open": true, "categories": ["Arts & Entertainment", "Cinema"], "city": "Karlsruhe", "review_count": 4, "name": "OpenAir Kino-N\u00e4chte", "neighborhoods": [], "longitude": 8.4258554, "state": "BW", "stars": 4.5, "latitude": 49.0037318, "attributes": {"Price Range": 2}, "type": "business"}
{"business_id": "yGgSNX8uJ6cKJQzLfmIjIQ", "full_address": "Karlstr. 10\n76133 Karlsruhe", "hours": {}, "open": true, "categories": ["Arts & Entertainment", "Cinema"], "city": "Karlsruhe", "review_count": 4, "name": "Das Kino Kinemathek Karlsruhe e.V. Kasse", "neighborhoods": [], "longitude": 8.39512, "state": "BW", "stars": 4.5, "latitude": 49.0109, "attributes": {"Price Range": 2}, "type": "business"}
{"business_id": "dCbLF_ttaqLxUcdW0n0S8g", "full_address": "Beim Schloss\n76275 Ettlingen", "hours": {}, "open": true, "categories": ["Arts & Entertainment", "Festivals", "Christmas Markets"], "city": "Ettlingen", "review_count": 3, "name": "Ettlinger Weihnachtsmarkt", "neighborhoods": [], "longitude": 8.36877, "state": "BW", "stars": 3.5, "latitude": 49.0299, "attributes": {"Good for Kids": true}, "type": "business"}
{"business_id": "iKFaOwdFxiWutQPaUUNmng", "full_address": "Alter Schlachthof 19\n76131 Karlsruhe", "hours": {}, "open": true, "categories": ["Music Venues", "Arts & Entertainment", "Nightlife", "Dance Clubs"], "city": "Karlsruhe", "review_count": 5, "name": "Substage", "neighborhoods": [], "longitude": 8.42974772838168, "state": "BW", "stars": 4.5, "latitude": 49.0052667602489, "attributes": {"Alcohol": "beer_and_wine", "Good For Dancing": true, "Music": {"dj": false, "background_music": false, "karaoke": false, "live": true, "video": false, "jukebox": false}, "Outdoor Seating": false, "Attire": "casual", "Has TV": false, "Good for Kids": false, "Good For Groups": true, "Price Range": 2}, "type": "business"}
{"business_id": "QKSTvcCbYHtCKST2AQ9W4Q", "full_address": "Weiherhof  13\n76227 Karlsruhe", "hours": {}, "open": true, "categories": ["Active Life", "Arts & Entertainment", "Swimming Pools"], "city": "Karlsruhe", "review_count": 4, "name": "Weiherhofbad", "neighborhoods": [], "longitude": 8.47243, "state": "BW", "stars": 4.0, "latitude": 48.9976, "attributes": {"Parking": {"garage": false, "validated": false, "street": false, "lot": false, "valet": false}}, "type": "business"}
{"business_id": "ZWBakQIVSnqIvigLt14p1w", "full_address": "Durlacher Allee 64\n76131 Karlsruhe", "hours": {"Monday": {"close": "00:00", "open": "11:30"}, "Tuesday": {"close": "00:00", "open": "11:30"}, "Friday": {"close": "00:00", "open": "11:30"}, "Wednesday": {"close": "00:00", "open": "11:30"}, "Thursday": {"close": "00:00", "open": "11:30"}, "Sunday": {"close": "16:00", "open": "10:00"}, "Saturday": {"close": "00:00", "open": "17:00"}}, "open": true, "categories": ["Jazz & Blues", "Arts & Entertainment", "Bistros", "Nightlife", "Restaurants"], "city": "Karlsruhe", "review_count": 14, "name": "Im Schlachthof", "neighborhoods": [], "longitude": 8.43102, "state": "BW", "stars": 4.0, "latitude": 49.0061, "attributes": {"Take-out": false, "Wi-Fi": "no", "Good For": {"dessert": false, "latenight": false, "lunch": false, "dinner": false, "breakfast": false, "brunch": false}, "Good For Dancing": false, "Noise Level": "average", "Takes Reservations": true, "Smoking": "no", "Delivery": false, "Dogs Allowed": false, "Parking": {"garage": false, "validated": false, "street": false, "lot": false, "valet": false}, "Music": {"dj": false, "background_music": false, "karaoke": false, "live": true, "video": false, "jukebox": false}, "Outdoor Seating": true, "Attire": "casual", "Alcohol": "full_bar", "Waiter Service": true, "Accepts Credit Cards": false, "Good for Kids": true, "Good For Groups": true, "Price Range": 2}, "type": "business"}
{"business_id": "OFD83GJxZwmVCEwWjJmwsQ", "full_address": "Adenauerring\n76131 Karlsruhe", "hours": {}, "open": true, "categories": ["Active Life", "Arts & Entertainment", "Soccer", "Stadiums & Arenas"], "city": "Karlsruhe", "review_count": 13, "name": "Wildparkstadion", "neighborhoods": [], "longitude": 8.41312, "state": "BW", "stars": 3.0, "latitude": 49.0201, "attributes": {"Good for Kids": true, "Parking": {"garage": false, "validated": false, "street": false, "lot": false, "valet": false}, "Wheelchair Accessible": true, "Price Range": 2}, "type": "business"}
{"business_id": "1vObhKVuXQF7YX5R6qxwVA", "full_address": "Kriegsstrasse 276\n76135 Karlsruhe", "hours": {}, "open": true, "categories": ["Bars", "German", "Arts & Entertainment", "Pubs", "Nightlife", "Social Clubs", "Restaurants"], "city": "Karlsruhe", "review_count": 8, "name": "Rote Taube", "neighborhoods": [], "longitude": 8.3721617, "state": "BW", "stars": 4.5, "latitude": 49.0057518, "attributes": {"Coat Check": false, "Take-out": false, "Alcohol": "full_bar", "Good For Dancing": true, "Noise Level": "average", "Takes Reservations": true, "Smoking": "no", "Delivery": true, "Dogs Allowed": false, "Happy Hour": false, "Parking": {"garage": false, "street": false, "validated": false, "lot": false, "valet": false}, "Music": {"dj": true}, "Outdoor Seating": true, "Attire": "casual", "Waiter Service": true, "Accepts Credit Cards": false, "Good for Kids": true, "Good For Groups": true, "Caters": true, "Price Range": 2}, "type": "business"}
{"business_id": "wheuLBEzZQ-my4gNt7aPUg", "full_address": "Kaiserpassage 6\n76133 Karlsruhe", "hours": {}, "open": true, "categories": ["Arts & Entertainment", "Cinema"], "city": "Karlsruhe", "review_count": 5, "name": "Die Kurbel", "neighborhoods": [], "longitude": 8.3973248, "state": "BW", "stars": 4.0, "latitude": 49.0102619, "attributes": {"Price Range": 2, "Alcohol": "beer_and_wine", "Coat Check": false, "Happy Hour": false, "Outdoor Seating": false, "Parking": {"garage": false, "validated": false, "street": false, "lot": false, "valet": false}, "Smoking": "outdoor", "Accepts Credit Cards": false, "Good for Kids": false, "Wheelchair Accessible": true}, "type": "business"}
{"business_id": "V_covJrJEmKoj8qTE-sfgw", "full_address": "Kaiserstr. 152-154\n76133 Karlsruhe", "hours": {}, "open": true, "categories": ["Arts & Entertainment", "Cinema"], "city": "Karlsruhe", "review_count": 5, "name": "Universum-City", "neighborhoods": [], "longitude": 8.39424, "state": "BW", "stars": 4.0, "latitude": 49.0101, "attributes": {"Good for Kids": true, "Price Range": 2}, "type": "business"}
{"business_id": "7VVJwBvw0NG-LCKZ_EuCoA", "full_address": "Hans-Thoma-Str. 2-6\n76133 Karlsruhe", "hours": {}, "open": true, "categories": ["Museums", "Arts & Entertainment"], "city": "Karlsruhe", "review_count": 8, "name": "Staatliche Kunsthalle Karlsruhe", "neighborhoods": [], "longitude": 8.4002493, "state": "BW", "stars": 5.0, "latitude": 49.0115823, "attributes": {"Good for Kids": true, "Parking": {"garage": false, "validated": false, "street": false, "lot": false, "valet": false}}, "type": "business"}
{"business_id": "XIikFKubRRURUqQKNs29AQ", "full_address": "Marienstr. 16\n76137 Karlsruhe", "hours": {}, "open": true, "categories": ["Arts & Entertainment", "Cinema"], "city": "Karlsruhe", "review_count": 59, "name": "Schauburg Kino", "neighborhoods": [], "longitude": 8.4077757, "state": "BW", "stars": 4.5, "latitude": 49.0031885, "attributes": {"Coat Check": false, "Alcohol": "beer_and_wine", "Attire": "casual", "Happy Hour": true, "Wheelchair Accessible": true, "Outdoor Seating": false, "Parking": {"garage": false, "validated": false, "street": false, "lot": false, "valet": false}, "Smoking": "no", "Accepts Credit Cards": false, "Good for Kids": true, "Good For Groups": true, "Price Range": 1}, "type": "business"}
{"business_id": "I_Xw9RZ01FB_7MetXIlrfw", "full_address": "Erbprinzenstra\u00dfe  13\n73133 Karlsruhe", "hours": {}, "open": true, "categories": ["Museums", "Arts & Entertainment"], "city": "Karlsruhe", "review_count": 6, "name": "Staatliches Museum f\u00fcr Naturkunde", "neighborhoods": [], "longitude": 8.4007324, "state": "BW", "stars": 4.5, "latitude": 49.0078044, "attributes": {"Wheelchair Accessible": true, "Parking": {"garage": false, "validated": false, "street": false, "lot": false, "valet": false}}, "type": "business"}
{"business_id": "BSi3InD9nxAfeKRlxwK7pQ", "full_address": "Schlachthausstr. 1\n76131 Karlsruhe", "hours": {}, "open": true, "categories": ["Arts & Entertainment", "Performing Arts", "Cultural Center"], "city": "Karlsruhe", "review_count": 6, "name": "Tollhaus", "neighborhoods": [], "longitude": 8.42482, "state": "BW", "stars": 4.5, "latitude": 49.0038, "attributes": {"Good for Kids": true, "Parking": {"garage": false, "validated": false, "street": false, "lot": false, "valet": false}, "Wheelchair Accessible": true, "Price Range": 2}, "type": "business"}
{"business_id": "qrGmLp2qyvlVYLuGzn0W7Q", "full_address": "Kaiserallee 11\n76133 Karlsruhe", "hours": {}, "open": true, "categories": ["Arts & Entertainment", "Performing Arts", "Nightlife", "Active Life", "Kids Activities", "Comedy Clubs"], "city": "Karlsruhe", "review_count": 9, "name": "marotte Figurentheater", "neighborhoods": [], "longitude": 8.3847, "state": "BW", "stars": 5.0, "latitude": 49.0091, "attributes": {"Price Range": 2, "Alcohol": "beer_and_wine", "Coat Check": true, "Happy Hour": false, "Outdoor Seating": false, "Parking": {"garage": false, "validated": false, "street": false, "lot": false, "valet": false}, "Smoking": "outdoor", "Accepts Credit Cards": false, "Wheelchair Accessible": false}, "type": "business"}
{"business_id": "HE5iuNFpQ1uKs1KuzLgQow", "full_address": "Schlo\u00dfbezirk 10\nSchloss\n76131 Karlsruhe", "hours": {}, "open": true, "categories": ["Museums", "Arts & Entertainment"], "city": "Karlsruhe", "review_count": 6, "name": "Badisches Landesmuseum", "neighborhoods": [], "longitude": 8.4043185, "state": "BW", "stars": 5.0, "latitude": 49.0134235, "attributes": {"Wheelchair Accessible": true, "Good for Kids": true, "Price Range": 4}, "type": "business"}
{"business_id": "-czvRRDB6tTlo6HUzBTMwg", "full_address": "Ahaweg 6\n76131 Karlsruhe", "hours": {}, "open": true, "categories": ["Museums", "Arts & Entertainment", "Shopping", "Home Services", "Home & Garden", "Painters", "Home Decor"], "city": "Karlsruhe", "review_count": 4, "name": "Staatliche Majolika Manufaktur Karlsruhe", "neighborhoods": [], "longitude": 8.4023623, "state": "BW", "stars": 3.5, "latitude": 49.0177377, "attributes": {"Parking": {"garage": false, "street": false, "validated": false, "lot": false, "valet": false}, "Accepts Credit Cards": true, "Good for Kids": false, "Price Range": 4}, "type": "business"}
{"business_id": "dbXe_WkVbbTuAbbz3G8Vtw", "full_address": "Baumeisterstr. 11\n76137 Karlsruhe", "hours": {}, "open": true, "categories": ["Arts & Entertainment", "Performing Arts"], "city": "Karlsruhe", "review_count": 11, "name": "Badisches Staatstheater", "neighborhoods": [], "longitude": 8.40699, "state": "BW", "stars": 3.5, "latitude": 49.0041, "attributes": {"Good for Kids": true, "Parking": {"garage": false, "validated": false, "street": false, "lot": false, "valet": false}, "Wheelchair Accessible": true, "Good For Groups": true, "Price Range": 3}, "type": "business"}
{"business_id": "nb5J-28w8naR38vg6fbdmA", "full_address": "Hirschstra\u00dfe 18\n76133 Karlsruhe", "hours": {"Monday": {"close": "03:00", "open": "19:00"}, "Friday": {"close": "05:00", "open": "19:00"}, "Wednesday": {"close": "03:00", "open": "19:00"}, "Thursday": {"close": "03:00", "open": "19:00"}, "Sunday": {"close": "03:00", "open": "19:00"}, "Saturday": {"close": "05:00", "open": "19:00"}}, "open": true, "categories": ["Arts & Entertainment", "Nightlife", "Music Venues"], "city": "Karlsruhe", "review_count": 4, "name": "Radio Oriente", "neighborhoods": [], "longitude": 8.3917067, "state": "BW", "stars": 3.0, "latitude": 49.0092996, "attributes": {"Price Range": 2}, "type": "business"}
{"business_id": "vgAl99QbSRg48FFBRk1gKg", "full_address": "Herrenstr. 30/32\n76133 Karlsruhe", "hours": {}, "open": true, "categories": ["Arts & Entertainment", "Performing Arts"], "city": "Karlsruhe", "review_count": 7, "name": "Kammertheater", "neighborhoods": [], "longitude": 8.393843, "state": "BW", "stars": 4.5, "latitude": 49.0067498, "attributes": {"Wheelchair Accessible": false, "Price Range": 2}, "type": "business"}
{"business_id": "mDGpCtjxl79YtwtyFEO5fg", "full_address": "Amthausstra\u00dfe  17-19\n76227 Karlsruhe", "hours": {}, "open": true, "categories": ["Arts & Entertainment", "Performing Arts"], "city": "Karlsruhe", "review_count": 6, "name": "Kabarett in der Orgelfabrik, die Spiegelfechter e.V.", "neighborhoods": [], "longitude": 8.4713051, "state": "BW", "stars": 4.5, "latitude": 48.9979356, "attributes": {"Good for Kids": false, "Price Range": 1}, "type": "business"}
{"business_id": "lNforL0COH6J5hnF08l_1w", "full_address": "Brauerstr. 40\n76135 Karlsruhe", "hours": {}, "open": true, "categories": ["Arts & Entertainment", "Cinema"], "city": "Karlsruhe", "review_count": 66, "name": "Filmpalast am ZKM", "neighborhoods": [], "longitude": 8.38557, "state": "BW", "stars": 3.5, "latitude": 49.00038, "attributes": {"Take-out": true, "Good For": {"dessert": false, "latenight": false, "lunch": false, "dinner": false, "breakfast": false, "brunch": false}, "Takes Reservations": true, "Parking": {"garage": false, "validated": false, "street": false, "lot": false, "valet": false}, "Wheelchair Accessible": true, "Outdoor Seating": true, "Attire": "casual", "Alcohol": "beer_and_wine", "Smoking": "no", "Accepts Credit Cards": true, "Good for Kids": true, "Good For Groups": true, "Price Range": 3}, "type": "business"}
{"business_id": "qaV3YBqrm9MVkXJuCPafaw", "full_address": "Ettlinger Str. 6\nHaupteingang am Hauptbahnhof, Bahnhofplatz\n76137 Karlsruhe", "hours": {}, "open": true, "categories": ["Arts & Entertainment", "Botanical Gardens"], "city": "Karlsruhe", "review_count": 32, "name": "Zoo Karlsruhe", "neighborhoods": [], "longitude": 8.4031862, "state": "BW", "stars": 4.0, "latitude": 48.9989894, "attributes": {"Good for Kids": true, "Price Range": 2}, "type": "business"}
{"business_id": "9hws9grDsZHAnhWEl_RICA", "full_address": "Ziegelstr. 1\n76185 Karlsruhe", "hours": {}, "open": true, "categories": ["Active Life", "Climbing", "Arts & Entertainment", "Bed & Breakfast", "Hotels & Travel"], "city": "Karlsruhe", "review_count": 8, "name": "The Rock Kletterzentrum Karlsruhe", "neighborhoods": [], "longitude": 8.36151, "state": "BW", "stars": 5.0, "latitude": 49.0071, "attributes": {"Parking": {"garage": false, "validated": false, "street": false, "lot": false, "valet": false}, "Wheelchair Accessible": false, "Price Range": 3}, "type": "business"}
{"business_id": "byFsjYzzttWh6DLptWx_fg", "full_address": "Lorenzstr. 19\n76135 Karlsruhe", "hours": {"Sunday": {"close": "18:00", "open": "11:00"}, "Friday": {"close": "18:00", "open": "10:00"}, "Wednesday": {"close": "18:00", "open": "10:00"}, "Thursday": {"close": "18:00", "open": "10:00"}, "Saturday": {"close": "18:00", "open": "11:00"}}, "open": true, "categories": ["Museums", "Arts & Entertainment"], "city": "Karlsruhe", "review_count": 27, "name": "ZkM | Zentrum f\u00fcr Kunst und Medientechnologie", "neighborhoods": [], "longitude": 8.3831, "state": "BW", "stars": 4.5, "latitude": 49.0018, "attributes": {"Price Range": 2, "Parking": {"garage": true, "street": false, "validated": false, "lot": false, "valet": false}, "By Appointment Only": false, "Accepts Credit Cards": true, "Good for Kids": true, "Wheelchair Accessible": true}, "type": "business"}
{"business_id": "hgGC4Y8TsJRuBTGUn08RBw", "full_address": "Pfannkuchstr. 14\n76185 Karlsruhe", "hours": {}, "open": true, "categories": ["Music Venues", "Arts & Entertainment", "Nightlife", "Dance Clubs"], "city": "Karlsruhe", "review_count": 5, "name": "Nachtwerk Musikclub", "neighborhoods": [], "longitude": 8.34813, "state": "BW", "stars": 4.5, "latitude": 49.0106, "attributes": {"Alcohol": "beer_and_wine", "Attire": "formal", "Parking": {"garage": false, "validated": false, "street": false, "lot": false, "valet": false}, "Smoking": "outdoor", "Good For Groups": true, "Price Range": 2}, "type": "business"}
{"business_id": "ZZPfV62S73wqtWhQxiBALg", "full_address": "Pforzheimer Str. 68\n76275 Ettlingen", "hours": {}, "open": true, "categories": ["Arts & Entertainment", "Cultural Center"], "city": "Ettlingen", "review_count": 3, "name": "Buhlsche M\u00fchle", "neighborhoods": [], "longitude": 8.41873, "state": "BW", "stars": 4.0, "latitude": 48.93814, "attributes": {"Wheelchair Accessible": true, "Parking": {"garage": false, "validated": false, "street": false, "lot": false, "valet": false}}, "type": "business"}
{"business_id": "fuO8q9apAj88q9RHx3yecQ", "full_address": "Karlsruhe, Baden-W\u00fcrttemberg", "hours": {}, "open": true, "categories": ["Arts & Entertainment", "Stadiums & Arenas"], "city": "Karlsruhe", "review_count": 3, "name": "Wildpark Stadion", "neighborhoods": [], "longitude": 8.41312408447266, "state": "BW", "stars": 3.0, "latitude": 49.020056196875, "attributes": {"Good for Kids": true}, "type": "business"}
{"business_id": "XlytpM7Y7EIMrqy3gK2xjg", "full_address": "Schlossbezirk 10\n76131 Karlsruhe", "hours": {}, "open": true, "categories": ["Castles", "Museums", "Arts & Entertainment"], "city": "Karlsruhe", "review_count": 5, "name": "Schloss Karlsruhe", "neighborhoods": [], "longitude": 8.404352, "state": "BW", "stars": 4.5, "latitude": 49.013532, "attributes": {"Good for Kids": true, "Price Range": 1}, "type": "business"}
{"business_id": "E6xrU8gCZxRlL60nGnf86w", "full_address": "Bahnhofplatz 1a\n76137 Karlsruhe", "hours": {}, "open": true, "categories": ["Arts & Entertainment", "General Festivals", "Festivals"], "city": "Karlsruhe", "review_count": 7, "name": "Bierb\u00f6rse", "neighborhoods": [], "longitude": 8.40099795225087, "state": "BW", "stars": 4.0, "latitude": 48.9935726631097, "attributes": {"Accepts Credit Cards": false, "Good for Kids": false, "Price Range": 2}, "type": "business"}
{"business_id": "agkUtfCYDPnLmxcFL54r5w", "full_address": "Gablonzer Str. 11\n76185 Karlsruhe", "hours": {"Tuesday": {"close": "23:00", "open": "19:00"}, "Saturday": {"close": "01:00", "open": "21:00"}}, "open": true, "categories": ["Arts & Entertainment", "Arcades"], "city": "Karlsruhe", "review_count": 17, "name": "RetroGames e.V.", "neighborhoods": [], "longitude": 8.3530988, "state": "BW", "stars": 5.0, "latitude": 49.0239835, "attributes": {"Price Range": 1, "Alcohol": "beer_and_wine", "Coat Check": true, "Happy Hour": false, "Outdoor Seating": false, "Parking": {"garage": false, "street": true, "validated": false, "lot": false, "valet": false}, "Ages Allowed": "18plus", "Smoking": "no", "Accepts Credit Cards": false, "Good for Kids": true, "Good For Groups": true, "Wheelchair Accessible": false}, "type": "business"}
{"business_id": "22yGKqF09XSoZ49A9E209g", "full_address": "G\u00fcnther-Klotz-Anlage\n76135 Karlsruhe", "hours": {"Sunday": {"close": "02:00", "open": "09:00"}, "Friday": {"close": "02:00", "open": "18:00"}, "Saturday": {"close": "02:00", "open": "09:00"}}, "open": true, "categories": ["Arts & Entertainment", "General Festivals", "Festivals"], "city": "Karlsruhe", "review_count": 12, "name": "Das Fest", "neighborhoods": [], "longitude": 8.3820167, "state": "BW", "stars": 5.0, "latitude": 48.9908752, "attributes": {"Good for Kids": true, "Parking": {"garage": false, "validated": false, "street": false, "lot": false, "valet": false}, "Wheelchair Accessible": false, "Price Range": 1}, "type": "business"}
{"business_id": "yKA1moKJGHg_XNHmEfmigQ", "full_address": "76133 Karlsruhe", "hours": {}, "open": true, "categories": ["Arts & Entertainment", "Festivals", "Christmas Markets"], "city": "Karlsruhe", "review_count": 12, "name": "Weihnachtsmarkt am Marktplatz", "neighborhoods": [], "longitude": 8.393843, "state": "BW", "stars": 3.0, "latitude": 49.0067498, "attributes": {"Wheelchair Accessible": false, "Good for Kids": true, "Parking": {"garage": true, "validated": false, "street": false, "lot": false, "valet": false}}, "type": "business"}
{"business_id": "ntjg79DoncBIViCa2_ES7w", "full_address": "Scheibenhardt 1\n76135 Karlsruhe", "hours": {}, "open": true, "categories": ["Arts & Entertainment"], "city": "Karlsruhe", "review_count": 3, "name": "Golfclub Hofgut Scheibenhardt e.V.", "neighborhoods": [], "longitude": 8.37226, "state": "BW", "stars": 4.5, "latitude": 48.97557, "attributes": {}, "type": "business"}
{"business_id": "sVcfcjQ3X5dAMQyndIm35w", "full_address": "Pfinztalstra\u00dfe 9\n76227 Karlsruhe", "hours": {}, "open": true, "categories": ["Arts & Entertainment", "Festivals"], "city": "Karlsruhe", "review_count": 6, "name": "Mittelalterlicher Weihnachtsmarkt", "neighborhoods": [], "longitude": 8.47371, "state": "BW", "stars": 4.5, "latitude": 48.99888, "attributes": {}, "type": "business"}
{"business_id": "6S-7J-16S4hMEFSFfJpZBQ", "full_address": "Schlachthausstr\nam Schloss Gottesaue\n76131 Karlsruhe", "hours": {}, "open": true, "categories": ["Arts & Entertainment", "Cinema"], "city": "Karlsruhe", "review_count": 4, "name": "OpenAir Kino-N\u00e4chte", "neighborhoods": [], "longitude": 8.4258554, "state": "BW", "stars": 4.5, "latitude": 49.0037318, "attributes": {"Price Range": 2}, "type": "business"}
{"business_id": "yGgSNX8uJ6cKJQzLfmIjIQ", "full_address": "Karlstr. 10\n76133 Karlsruhe", "hours": {}, "open": true, "categories": ["Arts & Entertainment", "Cinema"], "city": "Karlsruhe", "review_count": 4, "name": "Das Kino Kinemathek Karlsruhe e.V. Kasse", "neighborhoods": [], "longitude": 8.39512, "state": "BW", "stars": 4.5, "latitude": 49.0109, "attributes": {"Price Range": 2}, "type": "business"}
{"business_id": "dCbLF_ttaqLxUcdW0n0S8g", "full_address": "Beim Schloss\n76275 Ettlingen", "hours": {}, "open": true, "categories": ["Arts & Entertainment", "Festivals", "Christmas Markets"], "city": "Ettlingen", "review_count": 3, "name": "Ettlinger Weihnachtsmarkt", "neighborhoods": [], "longitude": 8.36877, "state": "BW", "stars": 3.5, "latitude": 49.0299, "attributes": {"Good for Kids": true}, "type": "business"}
{"business_id": "iKFaOwdFxiWutQPaUUNmng", "full_address": "Alter Schlachthof 19\n76131 Karlsruhe", "hours": {}, "open": true, "categories": ["Music Venues", "Arts & Entertainment", "Nightlife", "Dance Clubs"], "city": "Karlsruhe", "review_count": 5, "name": "Substage", "neighborhoods": [], "longitude": 8.42974772838168, "state": "BW", "stars": 4.5, "latitude": 49.0052667602489, "attributes": {"Alcohol": "beer_and_wine", "Good For Dancing": true, "Music": {"dj": false, "background_music": false, "karaoke": false, "live": true, "video": false, "jukebox": false}, "Outdoor Seating": false, "Attire": "casual", "Has TV": false, "Good for Kids": false, "Good For Groups": true, "Price Range": 2}, "type": "business"}
{"business_id": "QKSTvcCbYHtCKST2AQ9W4Q", "full_address": "Weiherhof  13\n76227 Karlsruhe", "hours": {}, "open": true, "categories": ["Active Life", "Arts & Entertainment", "Swimming Pools"], "city": "Karlsruhe", "review_count": 4, "name": "Weiherhofbad", "neighborhoods": [], "longitude": 8.47243, "state": "BW", "stars": 4.0, "latitude": 48.9976, "attributes": {"Parking": {"garage": false, "validated": false, "street": false, "lot": false, "valet": false}}, "type": "business"}
{"business_id": "ZWBakQIVSnqIvigLt14p1w", "full_address": "Durlacher Allee 64\n76131 Karlsruhe", "hours": {"Monday": {"close": "00:00", "open": "11:30"}, "Tuesday": {"close": "00:00", "open": "11:30"}, "Friday": {"close": "00:00", "open": "11:30"}, "Wednesday": {"close": "00:00", "open": "11:30"}, "Thursday": {"close": "00:00", "open": "11:30"}, "Sunday": {"close": "16:00", "open": "10:00"}, "Saturday": {"close": "00:00", "open": "17:00"}}, "open": true, "categories": ["Jazz & Blues", "Arts & Entertainment", "Bistros", "Nightlife", "Restaurants"], "city": "Karlsruhe", "review_count": 14, "name": "Im Schlachthof", "neighborhoods": [], "longitude": 8.43102, "state": "BW", "stars": 4.0, "latitude": 49.0061, "attributes": {"Take-out": false, "Wi-Fi": "no", "Good For": {"dessert": false, "latenight": false, "lunch": false, "dinner": false, "breakfast": false, "brunch": false}, "Good For Dancing": false, "Noise Level": "average", "Takes Reservations": true, "Smoking": "no", "Delivery": false, "Dogs Allowed": false, "Parking": {"garage": false, "validated": false, "street": false, "lot": false, "valet": false}, "Music": {"dj": false, "background_music": false, "karaoke": false, "live": true, "video": false, "jukebox": false}, "Outdoor Seating": true, "Attire": "casual", "Alcohol": "full_bar", "Waiter Service": true, "Accepts Credit Cards": false, "Good for Kids": true, "Good For Groups": true, "Price Range": 2}, "type": "business"}
{"business_id": "OFD83GJxZwmVCEwWjJmwsQ", "full_address": "Adenauerring\n76131 Karlsruhe", "hours": {}, "open": true, "categories": ["Active Life", "Arts & Entertainment", "Soccer", "Stadiums & Arenas"], "city": "Karlsruhe", "review_count": 13, "name": "Wildparkstadion", "neighborhoods": [], "longitude": 8.41312, "state": "BW", "stars": 3.0, "latitude": 49.0201, "attributes": {"Good for Kids": true, "Parking": {"garage": false, "validated": false, "street": false, "lot": false, "valet": false}, "Wheelchair Accessible": true, "Price Range": 2}, "type": "business"}
{"business_id": "1vObhKVuXQF7YX5R6qxwVA", "full_address": "Kriegsstrasse 276\n76135 Karlsruhe", "hours": {}, "open": true, "categories": ["Bars", "German", "Arts & Entertainment", "Pubs", "Nightlife", "Social Clubs", "Restaurants"], "city": "Karlsruhe", "review_count": 8, "name": "Rote Taube", "neighborhoods": [], "longitude": 8.3721617, "state": "BW", "stars": 4.5, "latitude": 49.0057518, "attributes": {"Coat Check": false, "Take-out": false, "Alcohol": "full_bar", "Good For Dancing": true, "Noise Level": "average", "Takes Reservations": true, "Smoking": "no", "Delivery": true, "Dogs Allowed": false, "Happy Hour": false, "Parking": {"garage": false, "street": false, "validated": false, "lot": false, "valet": false}, "Music": {"dj": true}, "Outdoor Seating": true, "Attire": "casual", "Waiter Service": true, "Accepts Credit Cards": false, "Good for Kids": true, "Good For Groups": true, "Caters": true, "Price Range": 2}, "type": "business"}
{"business_id": "wheuLBEzZQ-my4gNt7aPUg", "full_address": "Kaiserpassage 6\n76133 Karlsruhe", "hours": {}, "open": true, "categories": ["Arts & Entertainment", "Cinema"], "city": "Karlsruhe", "review_count": 5, "name": "Die Kurbel", "neighborhoods": [], "longitude": 8.3973248, "state": "BW", "stars": 4.0, "latitude": 49.0102619, "attributes": {"Price Range": 2, "Alcohol": "beer_and_wine", "Coat Check": false, "Happy Hour": false, "Outdoor Seating": false, "Parking": {"garage": false, "validated": false, "street": false, "lot": false, "valet": false}, "Smoking": "outdoor", "Accepts Credit Cards": false, "Good for Kids": false, "Wheelchair Accessible": true}, "type": "business"}
{"business_id": "V_covJrJEmKoj8qTE-sfgw", "full_address": "Kaiserstr. 152-154\n76133 Karlsruhe", "hours": {}, "open": true, "categories": ["Arts & Entertainment", "Cinema"], "city": "Karlsruhe", "review_count": 5, "name": "Universum-City", "neighborhoods": [], "longitude": 8.39424, "state": "BW", "stars": 4.0, "latitude": 49.0101, "attributes": {"Good for Kids": true, "Price Range": 2}, "type": "business"}
{"business_id": "7VVJwBvw0NG-LCKZ_EuCoA", "full_address": "Hans-Thoma-Str. 2-6\n76133 Karlsruhe", "hours": {}, "open": true, "categories": ["Museums", "Arts & Entertainment"], "city": "Karlsruhe", "review_count": 8, "name": "Staatliche Kunsthalle Karlsruhe", "neighborhoods": [], "longitude": 8.4002493, "state": "BW", "stars": 5.0, "latitude": 49.0115823, "attributes": {"Good for Kids": true, "Parking": {"garage": false, "validated": false, "street": false, "lot": false, "valet": false}}, "type": "business"}
{"business_id": "XIikFKubRRURUqQKNs29AQ", "full_address": "Marienstr. 16\n76137 Karlsruhe", "hours": {}, "open": true, "categories": ["Arts & Entertainment", "Cinema"], "city": "Karlsruhe", "review_count": 59, "name": "Schauburg Kino", "neighborhoods": [], "longitude": 8.4077757, "state": "BW", "stars": 4.5, "latitude": 49.0031885, "attributes": {"Coat Check": false, "Alcohol": "beer_and_wine", "Attire": "casual", "Happy Hour": true, "Wheelchair Accessible": true, "Outdoor Seating": false, "Parking": {"garage": false, "validated": false, "street": false, "lot": false, "valet": false}, "Smoking": "no", "Accepts Credit Cards": false, "Good for Kids": true, "Good For Groups": true, "Price Range": 1}, "type": "business"}
{"business_id": "I_Xw9RZ01FB_7MetXIlrfw", "full_address": "Erbprinzenstra\u00dfe  13\n73133 Karlsruhe", "hours": {}, "open": true, "categories": ["Museums", "Arts & Entertainment"], "city": "Karlsruhe", "review_count": 6, "name": "Staatliches Museum f\u00fcr Naturkunde", "neighborhoods": [], "longitude": 8.4007324, "state": "BW", "stars": 4.5, "latitude": 49.0078044, "attributes": {"Wheelchair Accessible": true, "Parking": {"garage": false, "validated": false, "street": false, "lot": false, "valet": false}}, "type": "business"}
{"business_id": "BSi3InD9nxAfeKRlxwK7pQ", "full_address": "Schlachthausstr. 1\n76131 Karlsruhe", "hours": {}, "open": true, "categories": ["Arts & Entertainment", "Performing Arts", "Cultural Center"], "city": "Karlsruhe", "review_count": 6, "name": "Tollhaus", "neighborhoods": [], "longitude": 8.42482, "state": "BW", "stars": 4.5, "latitude": 49.0038, "attributes": {"Good for Kids": true, "Parking": {"garage": false, "validated": false, "street": false, "lot": false, "valet": false}, "Wheelchair Accessible": true, "Price Range": 2}, "type": "business"}
{"business_id": "qrGmLp2qyvlVYLuGzn0W7Q", "full_address": "Kaiserallee 11\n76133 Karlsruhe", "hours": {}, "open": true, "categories": ["Arts & Entertainment", "Performing Arts", "Nightlife", "Active Life", "Kids Activities", "Comedy Clubs"], "city": "Karlsruhe", "review_count": 9, "name": "marotte Figurentheater", "neighborhoods": [], "longitude": 8.3847, "state": "BW", "stars": 5.0, "latitude": 49.0091, "attributes": {"Price Range": 2, "Alcohol": "beer_and_wine", "Coat Check": true, "Happy Hour": false, "Outdoor Seating": false, "Parking": {"garage": false, "validated": false, "street": false, "lot": false, "valet": false}, "Smoking": "outdoor", "Accepts Credit Cards": false, "Wheelchair Accessible": false}, "type": "business"}
{"business_id": "HE5iuNFpQ1uKs1KuzLgQow", "full_address": "Schlo\u00dfbezirk 10\nSchloss\n76131 Karlsruhe", "hours": {}, "open": true, "categories": ["Museums", "Arts & Entertainment"], "city": "Karlsruhe", "review_count": 6, "name": "Badisches Landesmuseum", "neighborhoods": [], "longitude": 8.4043185, "state": "BW", "stars": 5.0, "latitude": 49.0134235, "attributes": {"Wheelchair Accessible": true, "Good for Kids": true, "Price Range": 4}, "type": "business"}
{"business_id": "-czvRRDB6tTlo6HUzBTMwg", "full_address": "Ahaweg 6\n76131 Karlsruhe", "hours": {}, "open": true, "categories": ["Museums", "Arts & Entertainment", "Shopping", "Home Services", "Home & Garden", "Painters", "Home Decor"], "city": "Karlsruhe", "review_count": 4, "name": "Staatliche Majolika Manufaktur Karlsruhe", "neighborhoods": [], "longitude": 8.4023623, "state": "BW", "stars": 3.5, "latitude": 49.0177377, "attributes": {"Parking": {"garage": false, "street": false, "validated": false, "lot": false, "valet": false}, "Accepts Credit Cards": true, "Good for Kids": false, "Price Range": 4}, "type": "business"}
{"business_id": "dbXe_WkVbbTuAbbz3G8Vtw", "full_address": "Baumeisterstr. 11\n76137 Karlsruhe", "hours": {}, "open": true, "categories": ["Arts & Entertainment", "Performing Arts"], "city": "Karlsruhe", "review_count": 11, "name": "Badisches Staatstheater", "neighborhoods": [], "longitude": 8.40699, "state": "BW", "stars": 3.5, "latitude": 49.0041, "attributes": {"Good for Kids": true, "Parking": {"garage": false, "validated": false, "street": false, "lot": false, "valet": false}, "Wheelchair Accessible": true, "Good For Groups": true, "Price Range": 3}, "type": "business"}
{"business_id": "nb5J-28w8naR38vg6fbdmA", "full_address": "Hirschstra\u00dfe 18\n76133 Karlsruhe", "hours": {"Monday": {"close": "03:00", "open": "19:00"}, "Friday": {"close": "05:00", "open": "19:00"}, "Wednesday": {"close": "03:00", "open": "19:00"}, "Thursday": {"close": "03:00", "open": "19:00"}, "Sunday": {"close": "03:00", "open": "19:00"}, "Saturday": {"close": "05:00", "open": "19:00"}}, "open": true, "categories": ["Arts & Entertainment", "Nightlife", "Music Venues"], "city": "Karlsruhe", "review_count": 4, "name": "Radio Oriente", "neighborhoods": [], "longitude": 8.3917067, "state": "BW", "stars": 3.0, "latitude": 49.0092996, "attributes": {"Price Range": 2}, "type": "business"}
{"business_id": "vgAl99QbSRg48FFBRk1gKg", "full_address": "Herrenstr. 30/32\n76133 Karlsruhe", "hours": {}, "open": true, "categories": ["Arts & Entertainment", "Performing Arts"], "city": "Karlsruhe", "review_count": 7, "name": "Kammertheater", "neighborhoods": [], "longitude": 8.393843, "state": "BW", "stars": 4.5, "latitude": 49.0067498, "attributes": {"Wheelchair Accessible": false, "Price Range": 2}, "type": "business"}
{"business_id": "mDGpCtjxl79YtwtyFEO5fg", "full_address": "Amthausstra\u00dfe  17-19\n76227 Karlsruhe", "hours": {}, "open": true, "categories": ["Arts & Entertainment", "Performing Arts"], "city": "Karlsruhe", "review_count": 6, "name": "Kabarett in der Orgelfabrik, die Spiegelfechter e.V.", "neighborhoods": [], "longitude": 8.4713051, "state": "BW", "stars": 4.5, "latitude": 48.9979356, "attributes": {"Good for Kids": false, "Price Range": 1}, "type": "business"}
{"business_id": "lNforL0COH6J5hnF08l_1w", "full_address": "Brauerstr. 40\n76135 Karlsruhe", "hours": {}, "open": true, "categories": ["Arts & Entertainment", "Cinema"], "city": "Karlsruhe", "review_count": 66, "name": "Filmpalast am ZKM", "neighborhoods": [], "longitude": 8.38557, "state": "BW", "stars": 3.5, "latitude": 49.00038, "attributes": {"Take-out": true, "Good For": {"dessert": false, "latenight": false, "lunch": false, "dinner": false, "breakfast": false, "brunch": false}, "Takes Reservations": true, "Parking": {"garage": false, "validated": false, "street": false, "lot": false, "valet": false}, "Wheelchair Accessible": true, "Outdoor Seating": true, "Attire": "casual", "Alcohol": "beer_and_wine", "Smoking": "no", "Accepts Credit Cards": true, "Good for Kids": true, "Good For Groups": true, "Price Range": 3}, "type": "business"}
{"business_id": "qaV3YBqrm9MVkXJuCPafaw", "full_address": "Ettlinger Str. 6\nHaupteingang am Hauptbahnhof, Bahnhofplatz\n76137 Karlsruhe", "hours": {}, "open": true, "categories": ["Arts & Entertainment", "Botanical Gardens"], "city": "Karlsruhe", "review_count": 32, "name": "Zoo Karlsruhe", "neighborhoods": [], "longitude": 8.4031862, "state": "BW", "stars": 4.0, "latitude": 48.9989894, "attributes": {"Good for Kids": true, "Price Range": 2}, "type": "business"}
{"business_id": "9hws9grDsZHAnhWEl_RICA", "full_address": "Ziegelstr. 1\n76185 Karlsruhe", "hours": {}, "open": true, "categories": ["Active Life", "Climbing", "Arts & Entertainment", "Bed & Breakfast", "Hotels & Travel"], "city": "Karlsruhe", "review_count": 8, "name": "The Rock Kletterzentrum Karlsruhe", "neighborhoods": [], "longitude": 8.36151, "state": "BW", "stars": 5.0, "latitude": 49.0071, "attributes": {"Parking": {"garage": false, "validated": false, "street": false, "lot": false, "valet": false}, "Wheelchair Accessible": false, "Price Range": 3}, "type": "business"}
{"business_id": "byFsjYzzttWh6DLptWx_fg", "full_address": "Lorenzstr. 19\n76135 Karlsruhe", "hours": {"Sunday": {"close": "18:00", "open": "11:00"}, "Friday": {"close": "18:00", "open": "10:00"}, "Wednesday": {"close": "18:00", "open": "10:00"}, "Thursday": {"close": "18:00", "open": "10:00"}, "Saturday": {"close": "18:00", "open": "11:00"}}, "open": true, "categories": ["Museums", "Arts & Entertainment"], "city": "Karlsruhe", "review_count": 27, "name": "ZkM | Zentrum f\u00fcr Kunst und Medientechnologie", "neighborhoods": [], "longitude": 8.3831, "state": "BW", "stars": 4.5, "latitude": 49.0018, "attributes": {"Price Range": 2, "Parking": {"garage": true, "street": false, "validated": false, "lot": false, "valet": false}, "By Appointment Only": false, "Accepts Credit Cards": true, "Good for Kids": true, "Wheelchair Accessible": true}, "type": "business"}
{"business_id": "hgGC4Y8TsJRuBTGUn08RBw", "full_address": "Pfannkuchstr. 14\n76185 Karlsruhe", "hours": {}, "open": true, "categories": ["Music Venues", "Arts & Entertainment", "Nightlife", "Dance Clubs"], "city": "Karlsruhe", "review_count": 5, "name": "Nachtwerk Musikclub", "neighborhoods": [], "longitude": 8.34813, "state": "BW", "stars": 4.5, "latitude": 49.0106, "attributes": {"Alcohol": "beer_and_wine", "Attire": "formal", "Parking": {"garage": false, "validated": false, "street": false, "lot": false, "valet": false}, "Smoking": "outdoor", "Good For Groups": true, "Price Range": 2}, "type": "business"}
{"business_id": "ZZPfV62S73wqtWhQxiBALg", "full_address": "Pforzheimer Str. 68\n76275 Ettlingen", "hours": {}, "open": true, "categories": ["Arts & Entertainment", "Cultural Center"], "city": "Ettlingen", "review_count": 3, "name": "Buhlsche M\u00fchle", "neighborhoods": [], "longitude": 8.41873, "state": "BW", "stars": 4.0, "latitude": 48.93814, "attributes": {"Wheelchair Accessible": true, "Parking": {"garage": false, "validated": false, "street": false, "lot": false, "valet": false}}, "type": "business"}
{"business_id": "fuO8q9apAj88q9RHx3yecQ", "full_address": "Karlsruhe, Baden-W\u00fcrttemberg", "hours": {}, "open": true, "categories": ["Arts & Entertainment", "Stadiums & Arenas"], "city": "Karlsruhe", "review_count": 3, "name": "Wildpark Stadion", "neighborhoods": [], "longitude": 8.41312408447266, "state": "BW", "stars": 3.0, "latitude": 49.020056196875, "attributes": {"Good for Kids": true}, "type": "business"}
{"business_id": "XlytpM7Y7EIMrqy3gK2xjg", "full_address": "Schlossbezirk 10\n76131 Karlsruhe", "hours": {}, "open": true, "categories": ["Castles", "Museums", "Arts & Entertainment"], "city": "Karlsruhe", "review_count": 5, "name": "Schloss Karlsruhe", "neighborhoods": [], "longitude": 8.404352, "state": "BW", "stars": 4.5, "latitude": 49.013532, "attributes": {"Good for Kids": true, "Price Range": 1}, "type": "business"}
{"business_id": "E6xrU8gCZxRlL60nGnf86w", "full_address": "Bahnhofplatz 1a\n76137 Karlsruhe", "hours": {}, "open": true, "categories": ["Arts & Entertainment", "General Festivals", "Festivals"], "city": "Karlsruhe", "review_count": 7, "name": "Bierb\u00f6rse", "neighborhoods": [], "longitude": 8.40099795225087, "state": "BW", "stars": 4.0, "latitude": 48.9935726631097, "attributes": {"Accepts Credit Cards": false, "Good for Kids": false, "Price Range": 2}, "type": "business"}
{"business_id": "agkUtfCYDPnLmxcFL54r5w", "full_address": "Gablonzer Str. 11\n76185 Karlsruhe", "hours": {"Tuesday": {"close": "23:00", "open": "19:00"}, "Saturday": {"close": "01:00", "open": "21:00"}}, "open": true, "categories": ["Arts & Entertainment", "Arcades"], "city": "Karlsruhe", "review_count": 17, "name": "RetroGames e.V.", "neighborhoods": [], "longitude": 8.3530988, "state": "BW", "stars": 5.0, "latitude": 49.0239835, "attributes": {"Price Range": 1, "Alcohol": "beer_and_wine", "Coat Check": true, "Happy Hour": false, "Outdoor Seating": false, "Parking": {"garage": false, "street": true, "validated": false, "lot": false, "valet": false}, "Ages Allowed": "18plus", "Smoking": "no", "Accepts Credit Cards": false, "Good for Kids": true, "Good For Groups": true, "Wheelchair Accessible": false}, "type": "business"}
{"business_id": "22yGKqF09XSoZ49A9E209g", "full_address": "G\u00fcnther-Klotz-Anlage\n76135 Karlsruhe", "hours": {"Sunday": {"close": "02:00", "open": "09:00"}, "Friday": {"close": "02:00", "open": "18:00"}, "Saturday": {"close": "02:00", "open": "09:00"}}, "open": true, "categories": ["Arts & Entertainment", "General Festivals", "Festivals"], "city": "Karlsruhe", "review_count": 12, "name": "Das Fest", "neighborhoods": [], "longitude": 8.3820167, "state": "BW", "stars": 5.0, "latitude": 48.9908752, "attributes": {"Good for Kids": true, "Parking": {"garage": false, "validated": false, "street": false, "lot": false, "valet": false}, "Wheelchair Accessible": false, "Price Range": 1}, "type": "business"}
{"business_id": "yKA1moKJGHg_XNHmEfmigQ", "full_address": "76133 Karlsruhe", "hours": {}, "open": true, "categories": ["Arts & Entertainment", "Festivals", "Christmas Markets"], "city": "Karlsruhe", "review_count": 12, "name": "Weihnachtsmarkt am Marktplatz", "neighborhoods": [], "longitude": 8.393843, "state": "BW", "stars": 3.0, "latitude": 49.0067498, "attributes": {"Wheelchair Accessible": false, "Good for Kids": true, "Parking": {"garage": true, "validated": false, "street": false, "lot": false, "valet": false}}, "type": "business"}
{"business_id": "ntjg79DoncBIViCa2_ES7w", "full_address": "Scheibenhardt 1\n76135 Karlsruhe", "hours": {}, "open": true, "categories": ["Arts & Entertainment"], "city": "Karlsruhe", "review_count": 3, "name": "Golfclub Hofgut Scheibenhardt e.V.", "neighborhoods": [], "longitude": 8.37226, "state": "BW", "stars": 4.5, "latitude": 48.97557, "attributes": {}, "type": "business"}
{"business_id": "sVcfcjQ3X5dAMQyndIm35w", "full_address": "Pfinztalstra\u00dfe 9\n76227 Karlsruhe", "hours": {}, "open": true, "categories": ["Arts & Entertainment", "Festivals"], "city": "Karlsruhe", "review_count": 6, "name": "Mittelalterlicher Weihnachtsmarkt", "neighborhoods": [], "longitude": 8.47371, "state": "BW", "stars": 4.5, "latitude": 48.99888, "attributes": {}, "type": "business"}
{"business_id": "6S-7J-16S4hMEFSFfJpZBQ", "full_address": "Schlachthausstr\nam Schloss Gottesaue\n76131 Karlsruhe", "hours": {}, "open": true, "categories": ["Arts & Entertainment", "Cinema"], "city": "Karlsruhe", "review_count": 4, "name": "OpenAir Kino-N\u00e4chte", "neighborhoods": [], "longitude": 8.4258554, "state": "BW", "stars": 4.5, "latitude": 49.0037318, "attributes": {"Price Range": 2}, "type": "business"}
{"business_id": "yGgSNX8uJ6cKJQzLfmIjIQ", "full_address": "Karlstr. 10\n76133 Karlsruhe", "hours": {}, "open": true, "categories": ["Arts & Entertainment", "Cinema"], "city": "Karlsruhe", "review_count": 4, "name": "Das Kino Kinemathek Karlsruhe e.V. Kasse", "neighborhoods": [], "longitude": 8.39512, "state": "BW", "stars": 4.5, "latitude": 49.0109, "attributes": {"Price Range": 2}, "type": "business"}
{"business_id": "dCbLF_ttaqLxUcdW0n0S8g", "full_address": "Beim Schloss\n76275 Ettlingen", "hours": {}, "open": true, "categories": ["Arts & Entertainment", "Festivals", "Christmas Markets"], "city": "Ettlingen", "review_count": 3, "name": "Ettlinger Weihnachtsmarkt", "neighborhoods": [], "longitude": 8.36877, "state": "BW", "stars": 3.5, "latitude": 49.0299, "attributes": {"Good for Kids": true}, "type": "business"}
{"business_id": "iKFaOwdFxiWutQPaUUNmng", "full_address": "Alter Schlachthof 19\n76131 Karlsruhe", "hours": {}, "open": true, "categories": ["Music Venues", "Arts & Entertainment", "Nightlife", "Dance Clubs"], "city": "Karlsruhe", "review_count": 5, "name": "Substage", "neighborhoods": [], "longitude": 8.42974772838168, "state": "BW", "stars": 4.5, "latitude": 49.0052667602489, "attributes": {"Alcohol": "beer_and_wine", "Good For Dancing": true, "Music": {"dj": false, "background_music": false, "karaoke": false, "live": true, "video": false, "jukebox": false}, "Outdoor Seating": false, "Attire": "casual", "Has TV": false, "Good for Kids": false, "Good For Groups": true, "Price Range": 2}, "type": "business"}
{"business_id": "QKSTvcCbYHtCKST2AQ9W4Q", "full_address": "Weiherhof  13\n76227 Karlsruhe", "hours": {}, "open": true, "categories": ["Active Life", "Arts & Entertainment", "Swimming Pools"], "city": "Karlsruhe", "review_count": 4, "name": "Weiherhofbad", "neighborhoods": [], "longitude": 8.47243, "state": "BW", "stars": 4.0, "latitude": 48.9976, "attributes": {"Parking": {"garage": false, "validated": false, "street": false, "lot": false, "valet": false}}, "type": "business"}
{"business_id": "ZWBakQIVSnqIvigLt14p1w", "full_address": "Durlacher Allee 64\n76131 Karlsruhe", "hours": {"Monday": {"close": "00:00", "open": "11:30"}, "Tuesday": {"close": "00:00", "open": "11:30"}, "Friday": {"close": "00:00", "open": "11:30"}, "Wednesday": {"close": "00:00", "open": "11:30"}, "Thursday": {"close": "00:00", "open": "11:30"}, "Sunday": {"close": "16:00", "open": "10:00"}, "Saturday": {"close": "00:00", "open": "17:00"}}, "open": true, "categories": ["Jazz & Blues", "Arts & Entertainment", "Bistros", "Nightlife", "Restaurants"], "city": "Karlsruhe", "review_count": 14, "name": "Im Schlachthof", "neighborhoods": [], "longitude": 8.43102, "state": "BW", "stars": 4.0, "latitude": 49.0061, "attributes": {"Take-out": false, "Wi-Fi": "no", "Good For": {"dessert": false, "latenight": false, "lunch": false, "dinner": false, "breakfast": false, "brunch": false}, "Good For Dancing": false, "Noise Level": "average", "Takes Reservations": true, "Smoking": "no", "Delivery": false, "Dogs Allowed": false, "Parking": {"garage": false, "validated": false, "street": false, "lot": false, "valet": false}, "Music": {"dj": false, "background_music": false, "karaoke": false, "live": true, "video": false, "jukebox": false}, "Outdoor Seating": true, "Attire": "casual", "Alcohol": "full_bar", "Waiter Service": true, "Accepts Credit Cards": false, "Good for Kids": true, "Good For Groups": true, "Price Range": 2}, "type": "business"}
{"business_id": "OFD83GJxZwmVCEwWjJmwsQ", "full_address": "Adenauerring\n76131 Karlsruhe", "hours": {}, "open": true, "categories": ["Active Life", "Arts & Entertainment", "Soccer", "Stadiums & Arenas"], "city": "Karlsruhe", "review_count": 13, "name": "Wildparkstadion", "neighborhoods": [], "longitude": 8.41312, "state": "BW", "stars": 3.0, "latitude": 49.0201, "attributes": {"Good for Kids": true, "Parking": {"garage": false, "validated": false, "street": false, "lot": false, "valet": false}, "Wheelchair Accessible": true, "Price Range": 2}, "type": "business"}
{"business_id": "1vObhKVuXQF7YX5R6qxwVA", "full_address": "Kriegsstrasse 276\n76135 Karlsruhe", "hours": {}, "open": true, "categories": ["Bars", "German", "Arts & Entertainment", "Pubs", "Nightlife", "Social Clubs", "Restaurants"], "city": "Karlsruhe", "review_count": 8, "name": "Rote Taube", "neighborhoods": [], "longitude": 8.3721617, "state": "BW", "stars": 4.5, "latitude": 49.0057518, "attributes": {"Coat Check": false, "Take-out": false, "Alcohol": "full_bar", "Good For Dancing": true, "Noise Level": "average", "Takes Reservations": true, "Smoking": "no", "Delivery": true, "Dogs Allowed": false, "Happy Hour": false, "Parking": {"garage": false, "street": false, "validated": false, "lot": false, "valet": false}, "Music": {"dj": true}, "Outdoor Seating": true, "Attire": "casual", "Waiter Service": true, "Accepts Credit Cards": false, "Good for Kids": true, "Good For Groups": true, "Caters": true, "Price Range": 2}, "type": "business"}
{"business_id": "wheuLBEzZQ-my4gNt7aPUg", "full_address": "Kaiserpassage 6\n76133 Karlsruhe", "hours": {}, "open": true, "categories": ["Arts & Entertainment", "Cinema"], "city": "Karlsruhe", "review_count": 5, "name": "Die Kurbel", "neighborhoods": [], "longitude": 8.3973248, "state": "BW", "stars": 4.0, "latitude": 49.0102619, "attributes": {"Price Range": 2, "Alcohol": "beer_and_wine", "Coat Check": false, "Happy Hour": false, "Outdoor Seating": false, "Parking": {"garage": false, "validated": false, "street": false, "lot": false, "valet": false}, "Smoking": "outdoor", "Accepts Credit Cards": false, "Good for Kids": false, "Wheelchair Accessible": true}, "type": "business"}
{"business_id": "V_covJrJEmKoj8qTE-sfgw", "full_address": "Kaiserstr. 152-154\n76133 Karlsruhe", "hours": {}, "open": true, "categories": ["Arts & Entertainment", "Cinema"], "city": "Karlsruhe", "review_count": 5, "name": "Universum-City", "neighborhoods": [], "longitude": 8.39424, "state": "BW", "stars": 4.0, "latitude": 49.0101, "attributes": {"Good for Kids": true, "Price Range": 2}, "type": "business"}
{"business_id": "7VVJwBvw0NG-LCKZ_EuCoA", "full_address": "Hans-Thoma-Str. 2-6\n76133 Karlsruhe", "hours": {}, "open": true, "categories": ["Museums", "Arts & Entertainment"], "city": "Karlsruhe", "review_count": 8, "name": "Staatliche Kunsthalle Karlsruhe", "neighborhoods": [], "longitude": 8.4002493, "state": "BW", "stars": 5.0, "latitude": 49.0115823, "attributes": {"Good for Kids": true, "Parking": {"garage": false, "validated": false, "street": false, "lot": false, "valet": false}}, "type": "business"}
{"business_id": "XIikFKubRRURUqQKNs29AQ", "full_address": "Marienstr. 16\n76137 Karlsruhe", "hours": {}, "open": true, "categories": ["Arts & Entertainment", "Cinema"], "city": "Karlsruhe", "review_count": 59, "name": "Schauburg Kino", "neighborhoods": [], "longitude": 8.4077757, "state": "BW", "stars": 4.5, "latitude": 49.0031885, "attributes": {"Coat Check": false, "Alcohol": "beer_and_wine", "Attire": "casual", "Happy Hour": true, "Wheelchair Accessible": true, "Outdoor Seating": false, "Parking": {"garage": false, "validated": false, "street": false, "lot": false, "valet": false}, "Smoking": "no", "Accepts Credit Cards": false, "Good for Kids": true, "Good For Groups": true, "Price Range": 1}, "type": "business"}
{"business_id": "I_Xw9RZ01FB_7MetXIlrfw", "full_address": "Erbprinzenstra\u00dfe  13\n73133 Karlsruhe", "hours": {}, "open": true, "categories": ["Museums", "Arts & Entertainment"], "city": "Karlsruhe", "review_count": 6, "name": "Staatliches Museum f\u00fcr Naturkunde", "neighborhoods": [], "longitude": 8.4007324, "state": "BW", "stars": 4.5, "latitude": 49.0078044, "attributes": {"Wheelchair Accessible": true, "Parking": {"garage": false, "validated": false, "street": false, "lot": false, "valet": false}}, "type": "business"}
{"business_id": "BSi3InD9nxAfeKRlxwK7pQ", "full_address": "Schlachthausstr. 1\n76131 Karlsruhe", "hours": {}, "open": true, "categories": ["Arts & Entertainment", "Performing Arts", "Cultural Center"], "city": "Karlsruhe", "review_count": 6, "name": "Tollhaus", "neighborhoods": [], "longitude": 8.42482, "state": "BW", "stars": 4.5, "latitude": 49.0038, "attributes": {"Good for Kids": true, "Parking": {"garage": false, "validated": false, "street": false, "lot": false, "valet": false}, "Wheelchair Accessible": true, "Price Range": 2}, "type": "business"}
{"business_id": "qrGmLp2qyvlVYLuGzn0W7Q", "full_address": "Kaiserallee 11\n76133 Karlsruhe", "hours": {}, "open": true, "categories": ["Arts & Entertainment", "Performing Arts", "Nightlife", "Active Life", "Kids Activities", "Comedy Clubs"], "city": "Karlsruhe", "review_count": 9, "name": "marotte Figurentheater", "neighborhoods": [], "longitude": 8.3847, "state": "BW", "stars": 5.0, "latitude": 49.0091, "attributes": {"Price Range": 2, "Alcohol": "beer_and_wine", "Coat Check": true, "Happy Hour": false, "Outdoor Seating": false, "Parking": {"garage": false, "validated": false, "street": false, "lot": false, "valet": false}, "Smoking": "outdoor", "Accepts Credit Cards": false, "Wheelchair Accessible": false}, "type": "business"}
{"business_id": "HE5iuNFpQ1uKs1KuzLgQow", "full_address": "Schlo\u00dfbezirk 10\nSchloss\n76131 Karlsruhe", "hours": {}, "open": true, "categories": ["Museums", "Arts & Entertainment"], "city": "Karlsruhe", "review_count": 6, "name": "Badisches Landesmuseum", "neighborhoods": [], "longitude": 8.4043185, "state": "BW", "stars": 5.0, "latitude": 49.0134235, "attributes": {"Wheelchair Accessible": true, "Good for Kids": true, "Price Range": 4}, "type": "business"}
{"business_id": "-czvRRDB6tTlo6HUzBTMwg", "full_address": "Ahaweg 6\n76131 Karlsruhe", "hours": {}, "open": true, "categories": ["Museums", "Arts & Entertainment", "Shopping", "Home Services", "Home & Garden", "Painters", "Home Decor"], "city": "Karlsruhe", "review_count": 4, "name": "Staatliche Majolika Manufaktur Karlsruhe", "neighborhoods": [], "longitude": 8.4023623, "state": "BW", "stars": 3.5, "latitude": 49.0177377, "attributes": {"Parking": {"garage": false, "street": false, "validated": false, "lot": false, "valet": false}, "Accepts Credit Cards": true, "Good for Kids": false, "Price Range": 4}, "type": "business"}
{"business_id": "dbXe_WkVbbTuAbbz3G8Vtw", "full_address": "Baumeisterstr. 11\n76137 Karlsruhe", "hours": {}, "open": true, "categories": ["Arts & Entertainment", "Performing Arts"], "city": "Karlsruhe", "review_count": 11, "name": "Badisches Staatstheater", "neighborhoods": [], "longitude": 8.40699, "state": "BW", "stars": 3.5, "latitude": 49.0041, "attributes": {"Good for Kids": true, "Parking": {"garage": false, "validated": false, "street": false, "lot": false, "valet": false}, "Wheelchair Accessible": true, "Good For Groups": true, "Price Range": 3}, "type": "business"}
{"business_id": "nb5J-28w8naR38vg6fbdmA", "full_address": "Hirschstra\u00dfe 18\n76133 Karlsruhe", "hours": {"Monday": {"close": "03:00", "open": "19:00"}, "Friday": {"close": "05:00", "open": "19:00"}, "Wednesday": {"close": "03:00", "open": "19:00"}, "Thursday": {"close": "03:00", "open": "19:00"}, "Sunday": {"close": "03:00", "open": "19:00"}, "Saturday": {"close": "05:00", "open": "19:00"}}, "open": true, "categories": ["Arts & Entertainment", "Nightlife", "Music Venues"], "city": "Karlsruhe", "review_count": 4, "name": "Radio Oriente", "neighborhoods": [], "longitude": 8.3917067, "state": "BW", "stars": 3.0, "latitude": 49.0092996, "attributes": {"Price Range": 2}, "type": "business"}
{"business_id": "vgAl99QbSRg48FFBRk1gKg", "full_address": "Herrenstr. 30/32\n76133 Karlsruhe", "hours": {}, "open": true, "categories": ["Arts & Entertainment", "Performing Arts"], "city": "Karlsruhe", "review_count": 7, "name": "Kammertheater", "neighborhoods": [], "longitude": 8.393843, "state": "BW", "stars": 4.5, "latitude": 49.0067498, "attributes": {"Wheelchair Accessible": false, "Price Range": 2}, "type": "business"}
{"business_id": "mDGpCtjxl79YtwtyFEO5fg", "full_address": "Amthausstra\u00dfe  17-19\n76227 Karlsruhe", "hours": {}, "open": true, "categories": ["Arts & Entertainment", "Performing Arts"], "city": "Karlsruhe", "review_count": 6, "name": "Kabarett in der Orgelfabrik, die Spiegelfechter e.V.", "neighborhoods": [], "longitude": 8.4713051, "state": "BW", "stars": 4.5, "latitude": 48.9979356, "attributes": {"Good for Kids": false, "Price Range": 1}, "type": "business"}
{"business_id": "lNforL0COH6J5hnF08l_1w", "full_address": "Brauerstr. 40\n76135 Karlsruhe", "hours": {}, "open": true, "categories": ["Arts & Entertainment", "Cinema"], "city": "Karlsruhe", "review_count": 66, "name": "Filmpalast am ZKM", "neighborhoods": [], "longitude": 8.38557, "state": "BW", "stars": 3.5, "latitude": 49.00038, "attributes": {"Take-out": true, "Good For": {"dessert": false, "latenight": false, "lunch": false, "dinner": false, "breakfast": false, "brunch": false}, "Takes Reservations": true, "Parking": {"garage": false, "validated": false, "street": false, "lot": false, "valet": false}, "Wheelchair Accessible": true, "Outdoor Seating": true, "Attire": "casual", "Alcohol": "beer_and_wine", "Smoking": "no", "Accepts Credit Cards": true, "Good for Kids": true, "Good For Groups": true, "Price Range": 3}, "type": "business"}
{"business_id": "qaV3YBqrm9MVkXJuCPafaw", "full_address": "Ettlinger Str. 6\nHaupteingang am Hauptbahnhof, Bahnhofplatz\n76137 Karlsruhe", "hours": {}, "open": true, "categories": ["Arts & Entertainment", "Botanical Gardens"], "city": "Karlsruhe", "review_count": 32, "name": "Zoo Karlsruhe", "neighborhoods": [], "longitude": 8.4031862, "state": "BW", "stars": 4.0, "latitude": 48.9989894, "attributes": {"Good for Kids": true, "Price Range": 2}, "type": "business"}
{"business_id": "9hws9grDsZHAnhWEl_RICA", "full_address": "Ziegelstr. 1\n76185 Karlsruhe", "hours": {}, "open": true, "categories": ["Active Life", "Climbing", "Arts & Entertainment", "Bed & Breakfast", "Hotels & Travel"], "city": "Karlsruhe", "review_count": 8, "name": "The Rock Kletterzentrum Karlsruhe", "neighborhoods": [], "longitude": 8.36151, "state": "BW", "stars": 5.0, "latitude": 49.0071, "attributes": {"Parking": {"garage": false, "validated": false, "street": false, "lot": false, "valet": false}, "Wheelchair Accessible": false, "Price Range": 3}, "type": "business"}
{"business_id": "byFsjYzzttWh6DLptWx_fg", "full_address": "Lorenzstr. 19\n76135 Karlsruhe", "hours": {"Sunday": {"close": "18:00", "open": "11:00"}, "Friday": {"close": "18:00", "open": "10:00"}, "Wednesday": {"close": "18:00", "open": "10:00"}, "Thursday": {"close": "18:00", "open": "10:00"}, "Saturday": {"close": "18:00", "open": "11:00"}}, "open": true, "categories": ["Museums", "Arts & Entertainment"], "city": "Karlsruhe", "review_count": 27, "name": "ZkM | Zentrum f\u00fcr Kunst und Medientechnologie", "neighborhoods": [], "longitude": 8.3831, "state": "BW", "stars": 4.5, "latitude": 49.0018, "attributes": {"Price Range": 2, "Parking": {"garage": true, "street": false, "validated": false, "lot": false, "valet": false}, "By Appointment Only": false, "Accepts Credit Cards": true, "Good for Kids": true, "Wheelchair Accessible": true}, "type": "business"}
{"business_id": "hgGC4Y8TsJRuBTGUn08RBw", "full_address": "Pfannkuchstr. 14\n76185 Karlsruhe", "hours": {}, "open": true, "categories": ["Music Venues", "Arts & Entertainment", "Nightlife", "Dance Clubs"], "city": "Karlsruhe", "review_count": 5, "name": "Nachtwerk Musikclub", "neighborhoods": [], "longitude": 8.34813, "state": "BW", "stars": 4.5, "latitude": 49.0106, "attributes": {"Alcohol": "beer_and_wine", "Attire": "formal", "Parking": {"garage": false, "validated": false, "street": false, "lot": false, "valet": false}, "Smoking": "outdoor", "Good For Groups": true, "Price Range": 2}, "type": "business"}
{"business_id": "ZZPfV62S73wqtWhQxiBALg", "full_address": "Pforzheimer Str. 68\n76275 Ettlingen", "hours": {}, "open": true, "categories": ["Arts & Entertainment", "Cultural Center"], "city": "Ettlingen", "review_count": 3, "name": "Buhlsche M\u00fchle", "neighborhoods": [], "longitude": 8.41873, "state": "BW", "stars": 4.0, "latitude": 48.93814, "attributes": {"Wheelchair Accessible": true, "Parking": {"garage": false, "validated": false, "street": false, "lot": false, "valet": false}}, "type": "business"}
{"business_id": "fuO8q9apAj88q9RHx3yecQ", "full_address": "Karlsruhe, Baden-W\u00fcrttemberg", "hours": {}, "open": true, "categories": ["Arts & Entertainment", "Stadiums & Arenas"], "city": "Karlsruhe", "review_count": 3, "name": "Wildpark Stadion", "neighborhoods": [], "longitude": 8.41312408447266, "state": "BW", "stars": 3.0, "latitude": 49.020056196875, "attributes": {"Good for Kids": true}, "type": "business"}
{"business_id": "XlytpM7Y7EIMrqy3gK2xjg", "full_address": "Schlossbezirk 10\n76131 Karlsruhe", "hours": {}, "open": true, "categories": ["Castles", "Museums", "Arts & Entertainment"], "city": "Karlsruhe", "review_count": 5, "name": "Schloss Karlsruhe", "neighborhoods": [], "longitude": 8.404352, "state": "BW", "stars": 4.5, "latitude": 49.013532, "attributes": {"Good for Kids": true, "Price Range": 1}, "type": "business"}
{"business_id": "E6xrU8gCZxRlL60nGnf86w", "full_address": "Bahnhofplatz 1a\n76137 Karlsruhe", "hours": {}, "open": true, "categories": ["Arts & Entertainment", "General Festivals", "Festivals"], "city": "Karlsruhe", "review_count": 7, "name": "Bierb\u00f6rse", "neighborhoods": [], "longitude": 8.40099795225087, "state": "BW", "stars": 4.0, "latitude": 48.9935726631097, "attributes": {"Accepts Credit Cards": false, "Good for Kids": false, "Price Range": 2}, "type": "business"}
{"business_id": "agkUtfCYDPnLmxcFL54r5w", "full_address": "Gablonzer Str. 11\n76185 Karlsruhe", "hours": {"Tuesday": {"close": "23:00", "open": "19:00"}, "Saturday": {"close": "01:00", "open": "21:00"}}, "open": true, "categories": ["Arts & Entertainment", "Arcades"], "city": "Karlsruhe", "review_count": 17, "name": "RetroGames e.V.", "neighborhoods": [], "longitude": 8.3530988, "state": "BW", "stars": 5.0, "latitude": 49.0239835, "attributes": {"Price Range": 1, "Alcohol": "beer_and_wine", "Coat Check": true, "Happy Hour": false, "Outdoor Seating": false, "Parking": {"garage": false, "street": true, "validated": false, "lot": false, "valet": false}, "Ages Allowed": "18plus", "Smoking": "no", "Accepts Credit Cards": false, "Good for Kids": true, "Good For Groups": true, "Wheelchair Accessible": false}, "type": "business"}
{"business_id": "22yGKqF09XSoZ49A9E209g", "full_address": "G\u00fcnther-Klotz-Anlage\n76135 Karlsruhe", "hours": {"Sunday": {"close": "02:00", "open": "09:00"}, "Friday": {"close": "02:00", "open": "18:00"}, "Saturday": {"close": "02:00", "open": "09:00"}}, "open": true, "categories": ["Arts & Entertainment", "General Festivals", "Festivals"], "city": "Karlsruhe", "review_count": 12, "name": "Das Fest", "neighborhoods": [], "longitude": 8.3820167, "state": "BW", "stars": 5.0, "latitude": 48.9908752, "attributes": {"Good for Kids": true, "Parking": {"garage": false, "validated": false, "street": false, "lot": false, "valet": false}, "Wheelchair Accessible": false, "Price Range": 1}, "type": "business"}
{"business_id": "yKA1moKJGHg_XNHmEfmigQ", "full_address": "76133 Karlsruhe", "hours": {}, "open": true, "categories": ["Arts & Entertainment", "Festivals", "Christmas Markets"], "city": "Karlsruhe", "review_count": 12, "name": "Weihnachtsmarkt am Marktplatz", "neighborhoods": [], "longitude": 8.393843, "state": "BW", "stars": 3.0, "latitude": 49.0067498, "attributes": {"Wheelchair Accessible": false, "Good for Kids": true, "Parking": {"garage": true, "validated": false, "street": false, "lot": false, "valet": false}}, "type": "business"}
{"business_id": "ntjg79DoncBIViCa2_ES7w", "full_address": "Scheibenhardt 1\n76135 Karlsruhe", "hours": {}, "open": true, "categories": ["Arts & Entertainment"], "city": "Karlsruhe", "review_count": 3, "name": "Golfclub Hofgut Scheibenhardt e.V.", "neighborhoods": [], "longitude": 8.37226, "state": "BW", "stars": 4.5, "latitude": 48.97557, "attributes": {}, "type": "business"}
{"business_id": "sVcfcjQ3X5dAMQyndIm35w", "full_address": "Pfinztalstra\u00dfe 9\n76227 Karlsruhe", "hours": {}, "open": true, "categories": ["Arts & Entertainment", "Festivals"], "city": "Karlsruhe", "review_count": 6, "name": "Mittelalterlicher Weihnachtsmarkt", "neighborhoods": [], "longitude": 8.47371, "state": "BW", "stars": 4.5, "latitude": 48.99888, "attributes": {}, "type": "business"}
{"business_id": "6S-7J-16S4hMEFSFfJpZBQ", "full_address": "Schlachthausstr\nam Schloss Gottesaue\n76131 Karlsruhe", "hours": {}, "open": true, "categories": ["Arts & Entertainment", "Cinema"], "city": "Karlsruhe", "review_count": 4, "name": "OpenAir Kino-N\u00e4chte", "neighborhoods": [], "longitude": 8.4258554, "state": "BW", "stars": 4.5, "latitude": 49.0037318, "attributes": {"Price Range": 2}, "type": "business"}
{"business_id": "yGgSNX8uJ6cKJQzLfmIjIQ", "full_address": "Karlstr. 10\n76133 Karlsruhe", "hours": {}, "open": true, "categories": ["Arts & Entertainment", "Cinema"], "city": "Karlsruhe", "review_count": 4, "name": "Das Kino Kinemathek Karlsruhe e.V. Kasse", "neighborhoods": [], "longitude": 8.39512, "state": "BW", "stars": 4.5, "latitude": 49.0109, "attributes": {"Price Range": 2}, "type": "business"}
{"business_id": "dCbLF_ttaqLxUcdW0n0S8g", "full_address": "Beim Schloss\n76275 Ettlingen", "hours": {}, "open": true, "categories": ["Arts & Entertainment", "Festivals", "Christmas Markets"], "city": "Ettlingen", "review_count": 3, "name": "Ettlinger Weihnachtsmarkt", "neighborhoods": [], "longitude": 8.36877, "state": "BW", "stars": 3.5, "latitude": 49.0299, "attributes": {"Good for Kids": true}, "type": "business"}
{"business_id": "iKFaOwdFxiWutQPaUUNmng", "full_address": "Alter Schlachthof 19\n76131 Karlsruhe", "hours": {}, "open": true, "categories": ["Music Venues", "Arts & Entertainment", "Nightlife", "Dance Clubs"], "city": "Karlsruhe", "review_count": 5, "name": "Substage", "neighborhoods": [], "longitude": 8.42974772838168, "state": "BW", "stars": 4.5, "latitude": 49.0052667602489, "attributes": {"Alcohol": "beer_and_wine", "Good For Dancing": true, "Music": {"dj": false, "background_music": false, "karaoke": false, "live": true, "video": false, "jukebox": false}, "Outdoor Seating": false, "Attire": "casual", "Has TV": false, "Good for Kids": false, "Good For Groups": true, "Price Range": 2}, "type": "business"}
{"business_id": "QKSTvcCbYHtCKST2AQ9W4Q", "full_address": "Weiherhof  13\n76227 Karlsruhe", "hours": {}, "open": true, "categories": ["Active Life", "Arts & Entertainment", "Swimming Pools"], "city": "Karlsruhe", "review_count": 4, "name": "Weiherhofbad", "neighborhoods": [], "longitude": 8.47243, "state": "BW", "stars": 4.0, "latitude": 48.9976, "attributes": {"Parking": {"garage": false, "validated": false, "street": false, "lot": false, "valet": false}}, "type": "business"}
{"business_id": "ZWBakQIVSnqIvigLt14p1w", "full_address": "Durlacher Allee 64\n76131 Karlsruhe", "hours": {"Monday": {"close": "00:00", "open": "11:30"}, "Tuesday": {"close": "00:00", "open": "11:30"}, "Friday": {"close": "00:00", "open": "11:30"}, "Wednesday": {"close": "00:00", "open": "11:30"}, "Thursday": {"close": "00:00", "open": "11:30"}, "Sunday": {"close": "16:00", "open": "10:00"}, "Saturday": {"close": "00:00", "open": "17:00"}}, "open": true, "categories": ["Jazz & Blues", "Arts & Entertainment", "Bistros", "Nightlife", "Restaurants"], "city": "Karlsruhe", "review_count": 14, "name": "Im Schlachthof", "neighborhoods": [], "longitude": 8.43102, "state": "BW", "stars": 4.0, "latitude": 49.0061, "attributes": {"Take-out": false, "Wi-Fi": "no", "Good For": {"dessert": false, "latenight": false, "lunch": false, "dinner": false, "breakfast": false, "brunch": false}, "Good For Dancing": false, "Noise Level": "average", "Takes Reservations": true, "Smoking": "no", "Delivery": false, "Dogs Allowed": false, "Parking": {"garage": false, "validated": false, "street": false, "lot": false, "valet": false}, "Music": {"dj": false, "background_music": false, "karaoke": false, "live": true, "video": false, "jukebox": false}, "Outdoor Seating": true, "Attire": "casual", "Alcohol": "full_bar", "Waiter Service": true, "Accepts Credit Cards": false, "Good for Kids": true, "Good For Groups": true, "Price Range": 2}, "type": "business"}
{"business_id": "OFD83GJxZwmVCEwWjJmwsQ", "full_address": "Adenauerring\n76131 Karlsruhe", "hours": {}, "open": true, "categories": ["Active Life", "Arts & Entertainment", "Soccer", "Stadiums & Arenas"], "city": "Karlsruhe", "review_count": 13, "name": "Wildparkstadion", "neighborhoods": [], "longitude": 8.41312, "state": "BW", "stars": 3.0, "latitude": 49.0201, "attributes": {"Good for Kids": true, "Parking": {"garage": false, "validated": false, "street": false, "lot": false, "valet": false}, "Wheelchair Accessible": true, "Price Range": 2}, "type": "business"}
