{"business_id": "195hVRlAgcgMNNt8Ttdu8g", "full_address": "Erbprinzenstra\u00dfe 15\n76133 Karlsruhe", "hours": {}, "open": true, "categories": ["Libraries", "Public Services & Government", "Mass Media"], "city": "Karlsruhe", "review_count": 5, "name": "Badische Landesbibliothek", "neighborhoods": [], "longitude": 8.3994451, "state": "BW", "stars": 5.0, "latitude": 49.0081042, "attributes": {"Price Range": 1}, "type": "business"}
{"business_id": "q-Pc4j3mIzCfD-3eOs71jg", "full_address": "Edgar-Heller-Str. 19\n76227 Karlsruhe", "hours": {}, "open": true, "categories": ["Fitness & Instruction", "Police Departments", "Martial Arts", "Active Life", "Public Services & Government", "Sports Clubs"], "city": "Karlsruhe", "review_count": 3, "name": "Polizeisportverein Karlsruhe e.V.", "neighborhoods": [], "longitude": 8.43041, "state": "BW", "stars": 5.0, "latitude": 48.9947, "attributes": {"Good For Dancing": false, "Noise Level": "quiet", "Coat Check": false, "Music": {"dj": false}, "Outdoor Seating": true, "Parking": {"garage": false, "street": false, "validated": false, "lot": false, "valet": false}, "Ambience": {"romantic": false, "intimate": false, "classy": false, "hipster": false, "divey": false, "touristy": false, "trendy": false, "upscale": false, "casual": false}, "Has TV": true, "Accepts Credit Cards": false, "Good for Kids": true, "Good For Groups": true, "Price Range": 1}, "type": "business"}
{"business_id": "hMcEVZFUn_DOnvLkN9ztwQ", "full_address": "Herrenstr. 45a\n76133 Karlsruhe", "hours": {}, "open": true, "categories": ["Courthouses", "Public Services & Government"], "city": "Karlsruhe", "review_count": 4, "name": "Bundesgerichtshof", "neighborhoods": [], "longitude": 8.39668, "state": "BW", "stars": 4.5, "latitude": 49.0072, "attributes": {"Parking": {"garage": false, "validated": false, "street": false, "lot": false, "valet": false}, "Accepts Credit Cards": false, "Wheelchair Accessible": true, "Price Range": 1}, "type": "business"}
{"business_id": "QRTW1rfw1KKjsSHbboCaJQ", "full_address": "Richard-Wagner-Str. 27\n76275 Ettlingen", "hours": {}, "open": true, "categories": ["Bakeries", "Grocery", "Shopping", "Food", "Post Offices", "Butcher", "Public Services & Government"], "city": "Ettlingen", "review_count": 5, "name": "CAP-Markt", "neighborhoods": [], "longitude": 8.36592, "state": "BW", "stars": 4.5, "latitude": 48.9246, "attributes": {"Price Range": 3}, "type": "business"}
{"business_id": "8btINBSesNjN9uZuUrJ09A", "full_address": "St\u00e4ndehausstr. 2\n76133 Karlsruhe", "hours": {"Tuesday": {"close": "18:30", "open": "10:00"}, "Friday": {"close": "18:30", "open": "10:00"}, "Wednesday": {"close": "18:30", "open": "10:00"}, "Thursday": {"close": "18:30", "open": "10:00"}, "Saturday": {"close": "14:00", "open": "10:00"}}, "open": true, "categories": ["Libraries", "Public Services & Government"], "city": "Karlsruhe", "review_count": 7, "name": "Stadtbibliothek Karlsruhe", "neighborhoods": [], "longitude": 8.3999258, "state": "BW", "stars": 4.5, "latitude": 49.0088319, "attributes": {"Price Range": 1}, "type": "business"}
{"business_id": "KrxtCW45J_5zfxbrrQK_VQ", "full_address": "Marktplatz\n76133 Karlsruhe", "hours": {}, "open": true, "categories": ["Active Life", "Landmarks & Historical Buildings", "Public Services & Government", "Public Plazas"], "city": "Karlsruhe", "review_count": 5, "name": "Marktplatz Karlsruhe", "neighborhoods": [], "longitude": 8.4040367603302, "state": "BW", "stars": 3.5, "latitude": 49.0094308313443, "attributes": {"Good for Kids": false}, "type": "business"}
{"business_id": "dozJSOv07AbrTDYWDKqE_g", "full_address": "Erbprinzenstr.\n76133 Karlsruhe", "hours": {}, "open": true, "categories": ["Churches", "Landmarks & Historical Buildings", "Public Services & Government", "Religious Organizations"], "city": "Karlsruhe", "review_count": 3, "name": "Katholische Stadtkirche St. Stephan", "neighborhoods": [], "longitude": 8.3987204, "state": "BW", "stars": 4.5, "latitude": 49.0084322, "attributes": {}, "type": "business"}
{"business_id": "2L7zKmpJ20jFaH4oJ3zZxw", "full_address": "Stra\u00dfe am Forum 2\n76131 Karlsruhe", "hours": {}, "open": true, "categories": ["Libraries", "Public Services & Government"], "city": "Karlsruhe", "review_count": 7, "name": "KIT-Bibliothek", "neighborhoods": [], "longitude": 8.4161444, "state": "BW", "stars": 4.5, "latitude": 49.012177, "attributes": {}, "type": "business"}
{"business_id": "eHrMM9fBLZAtGrU7yCNm-g", "full_address": "76131 Karlsruhe", "hours": {}, "open": true, "categories": ["Landmarks & Historical Buildings", "Public Services & Government"], "city": "Karlsruhe", "review_count": 4, "name": "Durlacher Tor", "neighborhoods": [], "longitude": 8.41772, "state": "BW", "stars": 3.0, "latitude": 49.0091, "attributes": {}, "type": "business"}
{"business_id": "Ey6Keed9-Sn-9t9PsBT2dQ", "full_address": "Werderplatz\n76137 Karlsruhe", "hours": {}, "open": true, "categories": ["Landmarks & Historical Buildings", "Public Services & Government"], "city": "Karlsruhe", "review_count": 11, "name": "Werderplatz", "neighborhoods": [], "longitude": 8.40807, "state": "BW", "stars": 4.0, "latitude": 49.0015, "attributes": {"Good for Kids": false, "Price Range": 1}, "type": "business"}
{"business_id": "iQpshLrII8DHUm5zJId0fQ", "full_address": "Waldstra\u00dfe 61\n76133 Karlsruhe", "hours": {}, "open": true, "categories": ["Landmarks & Historical Buildings", "Public Services & Government"], "city": "Karlsruhe", "review_count": 14, "name": "Ludwigsplatz", "neighborhoods": [], "longitude": 8.395907, "state": "BW", "stars": 4.5, "latitude": 49.0088115, "attributes": {}, "type": "business"}
{"business_id": "HvVAa7W0h7sRom6rYPB_Gw", "full_address": "76227 Karlsruhe", "hours": {}, "open": true, "categories": ["Landmarks & Historical Buildings", "Public Services & Government"], "city": "Karlsruhe", "review_count": 7, "name": "Turmberg", "neighborhoods": [], "longitude": 8.4743368, "state": "BW", "stars": 4.5, "latitude": 48.9881413, "attributes": {}, "type": "business"}
{"business_id": "195hVRlAgcgMNNt8Ttdu8g", "full_address": "Erbprinzenstra\u00dfe 15\n76133 Karlsruhe", "hours": {}, "open": true, "categories": ["Libraries", "Public Services & Government", "Mass Media"], "city": "Karlsruhe", "review_count": 5, "name": "Badische Landesbibliothek", "neighborhoods": [], "longitude": 8.3994451, "state": "BW", "stars": 5.0, "latitude": 49.0081042, "attributes": {"Price Range": 1}, "type": "business"}
{"business_id": "q-Pc4j3mIzCfD-3eOs71jg", "full_address": "Edgar-Heller-Str. 19\n76227 Karlsruhe", "hours": {}, "open": true, "categories": ["Fitness & Instruction", "Police Departments", "Martial Arts", "Active Life", "Public Services & Government", "Sports Clubs"], "city": "Karlsruhe", "review_count": 3, "name": "Polizeisportverein Karlsruhe e.V.", "neighborhoods": [], "longitude": 8.43041, "state": "BW", "stars": 5.0, "latitude": 48.9947, "attributes": {"Good For Dancing": false, "Noise Level": "quiet", "Coat Check": false, "Music": {"dj": false}, "Outdoor Seating": true, "Parking": {"garage": false, "street": false, "validated": false, "lot": false, "valet": false}, "Ambience": {"romantic": false, "intimate": false, "classy": false, "hipster": false, "divey": false, "touristy": false, "trendy": false, "upscale": false, "casual": false}, "Has TV": true, "Accepts Credit Cards": false, "Good for Kids": true, "Good For Groups": true, "Price Range": 1}, "type": "business"}
{"business_id": "hMcEVZFUn_DOnvLkN9ztwQ", "full_address": "Herrenstr. 45a\n76133 Karlsruhe", "hours": {}, "open": true, "categories": ["Courthouses", "Public Services & Government"], "city": "Karlsruhe", "review_count": 4, "name": "Bundesgerichtshof", "neighborhoods": [], "longitude": 8.39668, "state": "BW", "stars": 4.5, "latitude": 49.0072, "attributes": {"Parking": {"garage": false, "validated": false, "street": false, "lot": false, "valet": false}, "Accepts Credit Cards": false, "Wheelchair Accessible": true, "Price Range": 1}, "type": "business"}
{"business_id": "QRTW1rfw1KKjsSHbboCaJQ", "full_address": "Richard-Wagner-Str. 27\n76275 Ettlingen", "hours": {}, "open": true, "categories": ["Bakeries", "Grocery", "Shopping", "Food", "Post Offices", "Butcher", "Public Services & Government"], "city": "Ettlingen", "review_count": 5, "name": "CAP-Markt", "neighborhoods": [], "longitude": 8.36592, "state": "BW", "stars": 4.5, "latitude": 48.9246, "attributes": {"Price Range": 3}, "type": "business"}
{"business_id": "8btINBSesNjN9uZuUrJ09A", "full_address": "St\u00e4ndehausstr. 2\n76133 Karlsruhe", "hours": {"Tuesday": {"close": "18:30", "open": "10:00"}, "Friday": {"close": "18:30", "open": "10:00"}, "Wednesday": {"close": "18:30", "open": "10:00"}, "Thursday": {"close": "18:30", "open": "10:00"}, "Saturday": {"close": "14:00", "open": "10:00"}}, "open": true, "categories": ["Libraries", "Public Services & Government"], "city": "Karlsruhe", "review_count": 7, "name": "Stadtbibliothek Karlsruhe", "neighborhoods": [], "longitude": 8.3999258, "state": "BW", "stars": 4.5, "latitude": 49.0088319, "attributes": {"Price Range": 1}, "type": "business"}
{"business_id": "KrxtCW45J_5zfxbrrQK_VQ", "full_address": "Marktplatz\n76133 Karlsruhe", "hours": {}, "open": true, "categories": ["Active Life", "Landmarks & Historical Buildings", "Public Services & Government", "Public Plazas"], "city": "Karlsruhe", "review_count": 5, "name": "Marktplatz Karlsruhe", "neighborhoods": [], "longitude": 8.4040367603302, "state": "BW", "stars": 3.5, "latitude": 49.0094308313443, "attributes": {"Good for Kids": false}, "type": "business"}
{"business_id": "dozJSOv07AbrTDYWDKqE_g", "full_address": "Erbprinzenstr.\n76133 Karlsruhe", "hours": {}, "open": true, "categories": ["Churches", "Landmarks & Historical Buildings", "Public Services & Government", "Religious Organizations"], "city": "Karlsruhe", "review_count": 3, "name": "Katholische Stadtkirche St. Stephan", "neighborhoods": [], "longitude": 8.3987204, "state": "BW", "stars": 4.5, "latitude": 49.0084322, "attributes": {}, "type": "business"}
{"business_id": "2L7zKmpJ20jFaH4oJ3zZxw", "full_address": "Stra\u00dfe am Forum 2\n76131 Karlsruhe", "hours": {}, "open": true, "categories": ["Libraries", "Public Services & Government"], "city": "Karlsruhe", "review_count": 7, "name": "KIT-Bibliothek", "neighborhoods": [], "longitude": 8.4161444, "state": "BW", "stars": 4.5, "latitude": 49.012177, "attributes": {}, "type": "business"}
{"business_id": "eHrMM9fBLZAtGrU7yCNm-g", "full_address": "76131 Karlsruhe", "hours": {}, "open": true, "categories": ["Landmarks & Historical Buildings", "Public Services & Government"], "city": "Karlsruhe", "review_count": 4, "name": "Durlacher Tor", "neighborhoods": [], "longitude": 8.41772, "state": "BW", "stars": 3.0, "latitude": 49.0091, "attributes": {}, "type": "business"}
{"business_id": "Ey6Keed9-Sn-9t9PsBT2dQ", "full_address": "Werderplatz\n76137 Karlsruhe", "hours": {}, "open": true, "categories": ["Landmarks & Historical Buildings", "Public Services & Government"], "city": "Karlsruhe", "review_count": 11, "name": "Werderplatz", "neighborhoods": [], "longitude": 8.40807, "state": "BW", "stars": 4.0, "latitude": 49.0015, "attributes": {"Good for Kids": false, "Price Range": 1}, "type": "business"}
{"business_id": "iQpshLrII8DHUm5zJId0fQ", "full_address": "Waldstra\u00dfe 61\n76133 Karlsruhe", "hours": {}, "open": true, "categories": ["Landmarks & Historical Buildings", "Public Services & Government"], "city": "Karlsruhe", "review_count": 14, "name": "Ludwigsplatz", "neighborhoods": [], "longitude": 8.395907, "state": "BW", "stars": 4.5, "latitude": 49.0088115, "attributes": {}, "type": "business"}
{"business_id": "HvVAa7W0h7sRom6rYPB_Gw", "full_address": "76227 Karlsruhe", "hours": {}, "open": true, "categories": ["Landmarks & Historical Buildings", "Public Services & Government"], "city": "Karlsruhe", "review_count": 7, "name": "Turmberg", "neighborhoods": [], "longitude": 8.4743368, "state": "BW", "stars": 4.5, "latitude": 48.9881413, "attributes": {}, "type": "business"}
{"business_id": "195hVRlAgcgMNNt8Ttdu8g", "full_address": "Erbprinzenstra\u00dfe 15\n76133 Karlsruhe", "hours": {}, "open": true, "categories": ["Libraries", "Public Services & Government", "Mass Media"], "city": "Karlsruhe", "review_count": 5, "name": "Badische Landesbibliothek", "neighborhoods": [], "longitude": 8.3994451, "state": "BW", "stars": 5.0, "latitude": 49.0081042, "attributes": {"Price Range": 1}, "type": "business"}
{"business_id": "q-Pc4j3mIzCfD-3eOs71jg", "full_address": "Edgar-Heller-Str. 19\n76227 Karlsruhe", "hours": {}, "open": true, "categories": ["Fitness & Instruction", "Police Departments", "Martial Arts", "Active Life", "Public Services & Government", "Sports Clubs"], "city": "Karlsruhe", "review_count": 3, "name": "Polizeisportverein Karlsruhe e.V.", "neighborhoods": [], "longitude": 8.43041, "state": "BW", "stars": 5.0, "latitude": 48.9947, "attributes": {"Good For Dancing": false, "Noise Level": "quiet", "Coat Check": false, "Music": {"dj": false}, "Outdoor Seating": true, "Parking": {"garage": false, "street": false, "validated": false, "lot": false, "valet": false}, "Ambience": {"romantic": false, "intimate": false, "classy": false, "hipster": false, "divey": false, "touristy": false, "trendy": false, "upscale": false, "casual": false}, "Has TV": true, "Accepts Credit Cards": false, "Good for Kids": true, "Good For Groups": true, "Price Range": 1}, "type": "business"}
{"business_id": "hMcEVZFUn_DOnvLkN9ztwQ", "full_address": "Herrenstr. 45a\n76133 Karlsruhe", "hours": {}, "open": true, "categories": ["Courthouses", "Public Services & Government"], "city": "Karlsruhe", "review_count": 4, "name": "Bundesgerichtshof", "neighborhoods": [], "longitude": 8.39668, "state": "BW", "stars": 4.5, "latitude": 49.0072, "attributes": {"Parking": {"garage": false, "validated": false, "street": false, "lot": false, "valet": false}, "Accepts Credit Cards": false, "Wheelchair Accessible": true, "Price Range": 1}, "type": "business"}
{"business_id": "QRTW1rfw1KKjsSHbboCaJQ", "full_address": "Richard-Wagner-Str. 27\n76275 Ettlingen", "hours": {}, "open": true, "categories": ["Bakeries", "Grocery", "Shopping", "Food", "Post Offices", "Butcher", "Public Services & Government"], "city": "Ettlingen", "review_count": 5, "name": "CAP-Markt", "neighborhoods": [], "longitude": 8.36592, "state": "BW", "stars": 4.5, "latitude": 48.9246, "attributes": {"Price Range": 3}, "type": "business"}
{"business_id": "8btINBSesNjN9uZuUrJ09A", "full_address": "St\u00e4ndehausstr. 2\n76133 Karlsruhe", "hours": {"Tuesday": {"close": "18:30", "open": "10:00"}, "Friday": {"close": "18:30", "open": "10:00"}, "Wednesday": {"close": "18:30", "open": "10:00"}, "Thursday": {"close": "18:30", "open": "10:00"}, "Saturday": {"close": "14:00", "open": "10:00"}}, "open": true, "categories": ["Libraries", "Public Services & Government"], "city": "Karlsruhe", "review_count": 7, "name": "Stadtbibliothek Karlsruhe", "neighborhoods": [], "longitude": 8.3999258, "state": "BW", "stars": 4.5, "latitude": 49.0088319, "attributes": {"Price Range": 1}, "type": "business"}
{"business_id": "KrxtCW45J_5zfxbrrQK_VQ", "full_address": "Marktplatz\n76133 Karlsruhe", "hours": {}, "open": true, "categories": ["Active Life", "Landmarks & Historical Buildings", "Public Services & Government", "Public Plazas"], "city": "Karlsruhe", "review_count": 5, "name": "Marktplatz Karlsruhe", "neighborhoods": [], "longitude": 8.4040367603302, "state": "BW", "stars": 3.5, "latitude": 49.0094308313443, "attributes": {"Good for Kids": false}, "type": "business"}
{"business_id": "dozJSOv07AbrTDYWDKqE_g", "full_address": "Erbprinzenstr.\n76133 Karlsruhe", "hours": {}, "open": true, "categories": ["Churches", "Landmarks & Historical Buildings", "Public Services & Government", "Religious Organizations"], "city": "Karlsruhe", "review_count": 3, "name": "Katholische Stadtkirche St. Stephan", "neighborhoods": [], "longitude": 8.3987204, "state": "BW", "stars": 4.5, "latitude": 49.0084322, "attributes": {}, "type": "business"}
{"business_id": "2L7zKmpJ20jFaH4oJ3zZxw", "full_address": "Stra\u00dfe am Forum 2\n76131 Karlsruhe", "hours": {}, "open": true, "categories": ["Libraries", "Public Services & Government"], "city": "Karlsruhe", "review_count": 7, "name": "KIT-Bibliothek", "neighborhoods": [], "longitude": 8.4161444, "state": "BW", "stars": 4.5, "latitude": 49.012177, "attributes": {}, "type": "business"}
{"business_id": "eHrMM9fBLZAtGrU7yCNm-g", "full_address": "76131 Karlsruhe", "hours": {}, "open": true, "categories": ["Landmarks & Historical Buildings", "Public Services & Government"], "city": "Karlsruhe", "review_count": 4, "name": "Durlacher Tor", "neighborhoods": [], "longitude": 8.41772, "state": "BW", "stars": 3.0, "latitude": 49.0091, "attributes": {}, "type": "business"}
{"business_id": "Ey6Keed9-Sn-9t9PsBT2dQ", "full_address": "Werderplatz\n76137 Karlsruhe", "hours": {}, "open": true, "categories": ["Landmarks & Historical Buildings", "Public Services & Government"], "city": "Karlsruhe", "review_count": 11, "name": "Werderplatz", "neighborhoods": [], "longitude": 8.40807, "state": "BW", "stars": 4.0, "latitude": 49.0015, "attributes": {"Good for Kids": false, "Price Range": 1}, "type": "business"}
{"business_id": "iQpshLrII8DHUm5zJId0fQ", "full_address": "Waldstra\u00dfe 61\n76133 Karlsruhe", "hours": {}, "open": true, "categories": ["Landmarks & Historical Buildings", "Public Services & Government"], "city": "Karlsruhe", "review_count": 14, "name": "Ludwigsplatz", "neighborhoods": [], "longitude": 8.395907, "state": "BW", "stars": 4.5, "latitude": 49.0088115, "attributes": {}, "type": "business"}
{"business_id": "HvVAa7W0h7sRom6rYPB_Gw", "full_address": "76227 Karlsruhe", "hours": {}, "open": true, "categories": ["Landmarks & Historical Buildings", "Public Services & Government"], "city": "Karlsruhe", "review_count": 7, "name": "Turmberg", "neighborhoods": [], "longitude": 8.4743368, "state": "BW", "stars": 4.5, "latitude": 48.9881413, "attributes": {}, "type": "business"}
{"business_id": "195hVRlAgcgMNNt8Ttdu8g", "full_address": "Erbprinzenstra\u00dfe 15\n76133 Karlsruhe", "hours": {}, "open": true, "categories": ["Libraries", "Public Services & Government", "Mass Media"], "city": "Karlsruhe", "review_count": 5, "name": "Badische Landesbibliothek", "neighborhoods": [], "longitude": 8.3994451, "state": "BW", "stars": 5.0, "latitude": 49.0081042, "attributes": {"Price Range": 1}, "type": "business"}
{"business_id": "q-Pc4j3mIzCfD-3eOs71jg", "full_address": "Edgar-Heller-Str. 19\n76227 Karlsruhe", "hours": {}, "open": true, "categories": ["Fitness & Instruction", "Police Departments", "Martial Arts", "Active Life", "Public Services & Government", "Sports Clubs"], "city": "Karlsruhe", "review_count": 3, "name": "Polizeisportverein Karlsruhe e.V.", "neighborhoods": [], "longitude": 8.43041, "state": "BW", "stars": 5.0, "latitude": 48.9947, "attributes": {"Good For Dancing": false, "Noise Level": "quiet", "Coat Check": false, "Music": {"dj": false}, "Outdoor Seating": true, "Parking": {"garage": false, "street": false, "validated": false, "lot": false, "valet": false}, "Ambience": {"romantic": false, "intimate": false, "classy": false, "hipster": false, "divey": false, "touristy": false, "trendy": false, "upscale": false, "casual": false}, "Has TV": true, "Accepts Credit Cards": false, "Good for Kids": true, "Good For Groups": true, "Price Range": 1}, "type": "business"}
{"business_id": "hMcEVZFUn_DOnvLkN9ztwQ", "full_address": "Herrenstr. 45a\n76133 Karlsruhe", "hours": {}, "open": true, "categories": ["Courthouses", "Public Services & Government"], "city": "Karlsruhe", "review_count": 4, "name": "Bundesgerichtshof", "neighborhoods": [], "longitude": 8.39668, "state": "BW", "stars": 4.5, "latitude": 49.0072, "attributes": {"Parking": {"garage": false, "validated": false, "street": false, "lot": false, "valet": false}, "Accepts Credit Cards": false, "Wheelchair Accessible": true, "Price Range": 1}, "type": "business"}
{"business_id": "QRTW1rfw1KKjsSHbboCaJQ", "full_address": "Richard-Wagner-Str. 27\n76275 Ettlingen", "hours": {}, "open": true, "categories": ["Bakeries", "Grocery", "Shopping", "Food", "Post Offices", "Butcher", "Public Services & Government"], "city": "Ettlingen", "review_count": 5, "name": "CAP-Markt", "neighborhoods": [], "longitude": 8.36592, "state": "BW", "stars": 4.5, "latitude": 48.9246, "attributes": {"Price Range": 3}, "type": "business"}
{"business_id": "8btINBSesNjN9uZuUrJ09A", "full_address": "St\u00e4ndehausstr. 2\n76133 Karlsruhe", "hours": {"Tuesday": {"close": "18:30", "open": "10:00"}, "Friday": {"close": "18:30", "open": "10:00"}, "Wednesday": {"close": "18:30", "open": "10:00"}, "Thursday": {"close": "18:30", "open": "10:00"}, "Saturday": {"close": "14:00", "open": "10:00"}}, "open": true, "categories": ["Libraries", "Public Services & Government"], "city": "Karlsruhe", "review_count": 7, "name": "Stadtbibliothek Karlsruhe", "neighborhoods": [], "longitude": 8.3999258, "state": "BW", "stars": 4.5, "latitude": 49.0088319, "attributes": {"Price Range": 1}, "type": "business"}
{"business_id": "KrxtCW45J_5zfxbrrQK_VQ", "full_address": "Marktplatz\n76133 Karlsruhe", "hours": {}, "open": true, "categories": ["Active Life", "Landmarks & Historical Buildings", "Public Services & Government", "Public Plazas"], "city": "Karlsruhe", "review_count": 5, "name": "Marktplatz Karlsruhe", "neighborhoods": [], "longitude": 8.4040367603302, "state": "BW", "stars": 3.5, "latitude": 49.0094308313443, "attributes": {"Good for Kids": false}, "type": "business"}
{"business_id": "dozJSOv07AbrTDYWDKqE_g", "full_address": "Erbprinzenstr.\n76133 Karlsruhe", "hours": {}, "open": true, "categories": ["Churches", "Landmarks & Historical Buildings", "Public Services & Government", "Religious Organizations"], "city": "Karlsruhe", "review_count": 3, "name": "Katholische Stadtkirche St. Stephan", "neighborhoods": [], "longitude": 8.3987204, "state": "BW", "stars": 4.5, "latitude": 49.0084322, "attributes": {}, "type": "business"}
{"business_id": "2L7zKmpJ20jFaH4oJ3zZxw", "full_address": "Stra\u00dfe am Forum 2\n76131 Karlsruhe", "hours": {}, "open": true, "categories": ["Libraries", "Public Services & Government"], "city": "Karlsruhe", "review_count": 7, "name": "KIT-Bibliothek", "neighborhoods": [], "longitude": 8.4161444, "state": "BW", "stars": 4.5, "latitude": 49.012177, "attributes": {}, "type": "business"}
{"business_id": "eHrMM9fBLZAtGrU7yCNm-g", "full_address": "76131 Karlsruhe", "hours": {}, "open": true, "categories": ["Landmarks & Historical Buildings", "Public Services & Government"], "city": "Karlsruhe", "review_count": 4, "name": "Durlacher Tor", "neighborhoods": [], "longitude": 8.41772, "state": "BW", "stars": 3.0, "latitude": 49.0091, "attributes": {}, "type": "business"}
{"business_id": "Ey6Keed9-Sn-9t9PsBT2dQ", "full_address": "Werderplatz\n76137 Karlsruhe", "hours": {}, "open": true, "categories": ["Landmarks & Historical Buildings", "Public Services & Government"], "city": "Karlsruhe", "review_count": 11, "name": "Werderplatz", "neighborhoods": [], "longitude": 8.40807, "state": "BW", "stars": 4.0, "latitude": 49.0015, "attributes": {"Good for Kids": false, "Price Range": 1}, "type": "business"}
{"business_id": "iQpshLrII8DHUm5zJId0fQ", "full_address": "Waldstra\u00dfe 61\n76133 Karlsruhe", "hours": {}, "open": true, "categories": ["Landmarks & Historical Buildings", "Public Services & Government"], "city": "Karlsruhe", "review_count": 14, "name": "Ludwigsplatz", "neighborhoods": [], "longitude": 8.395907, "state": "BW", "stars": 4.5, "latitude": 49.0088115, "attributes": {}, "type": "business"}
{"business_id": "HvVAa7W0h7sRom6rYPB_Gw", "full_address": "76227 Karlsruhe", "hours": {}, "open": true, "categories": ["Landmarks & Historical Buildings", "Public Services & Government"], "city": "Karlsruhe", "review_count": 7, "name": "Turmberg", "neighborhoods": [], "longitude": 8.4743368, "state": "BW", "stars": 4.5, "latitude": 48.9881413, "attributes": {}, "type": "business"}
{"business_id": "195hVRlAgcgMNNt8Ttdu8g", "full_address": "Erbprinzenstra\u00dfe 15\n76133 Karlsruhe", "hours": {}, "open": true, "categories": ["Libraries", "Public Services & Government", "Mass Media"], "city": "Karlsruhe", "review_count": 5, "name": "Badische Landesbibliothek", "neighborhoods": [], "longitude": 8.3994451, "state": "BW", "stars": 5.0, "latitude": 49.0081042, "attributes": {"Price Range": 1}, "type": "business"}
{"business_id": "q-Pc4j3mIzCfD-3eOs71jg", "full_address": "Edgar-Heller-Str. 19\n76227 Karlsruhe", "hours": {}, "open": true, "categories": ["Fitness & Instruction", "Police Departments", "Martial Arts", "Active Life", "Public Services & Government", "Sports Clubs"], "city": "Karlsruhe", "review_count": 3, "name": "Polizeisportverein Karlsruhe e.V.", "neighborhoods": [], "longitude": 8.43041, "state": "BW", "stars": 5.0, "latitude": 48.9947, "attributes": {"Good For Dancing": false, "Noise Level": "quiet", "Coat Check": false, "Music": {"dj": false}, "Outdoor Seating": true, "Parking": {"garage": false, "street": false, "validated": false, "lot": false, "valet": false}, "Ambience": {"romantic": false, "intimate": false, "classy": false, "hipster": false, "divey": false, "touristy": false, "trendy": false, "upscale": false, "casual": false}, "Has TV": true, "Accepts Credit Cards": false, "Good for Kids": true, "Good For Groups": true, "Price Range": 1}, "type": "business"}
{"business_id": "hMcEVZFUn_DOnvLkN9ztwQ", "full_address": "Herrenstr. 45a\n76133 Karlsruhe", "hours": {}, "open": true, "categories": ["Courthouses", "Public Services & Government"], "city": "Karlsruhe", "review_count": 4, "name": "Bundesgerichtshof", "neighborhoods": [], "longitude": 8.39668, "state": "BW", "stars": 4.5, "latitude": 49.0072, "attributes": {"Parking": {"garage": false, "validated": false, "street": false, "lot": false, "valet": false}, "Accepts Credit Cards": false, "Wheelchair Accessible": true, "Price Range": 1}, "type": "business"}
{"business_id": "QRTW1rfw1KKjsSHbboCaJQ", "full_address": "Richard-Wagner-Str. 27\n76275 Ettlingen", "hours": {}, "open": true, "categories": ["Bakeries", "Grocery", "Shopping", "Food", "Post Offices", "Butcher", "Public Services & Government"], "city": "Ettlingen", "review_count": 5, "name": "CAP-Markt", "neighborhoods": [], "longitude": 8.36592, "state": "BW", "stars": 4.5, "latitude": 48.9246, "attributes": {"Price Range": 3}, "type": "business"}
{"business_id": "8btINBSesNjN9uZuUrJ09A", "full_address": "St\u00e4ndehausstr. 2\n76133 Karlsruhe", "hours": {"Tuesday": {"close": "18:30", "open": "10:00"}, "Friday": {"close": "18:30", "open": "10:00"}, "Wednesday": {"close": "18:30", "open": "10:00"}, "Thursday": {"close": "18:30", "open": "10:00"}, "Saturday": {"close": "14:00", "open": "10:00"}}, "open": true, "categories": ["Libraries", "Public Services & Government"], "city": "Karlsruhe", "review_count": 7, "name": "Stadtbibliothek Karlsruhe", "neighborhoods": [], "longitude": 8.3999258, "state": "BW", "stars": 4.5, "latitude": 49.0088319, "attributes": {"Price Range": 1}, "type": "business"}
{"business_id": "KrxtCW45J_5zfxbrrQK_VQ", "full_address": "Marktplatz\n76133 Karlsruhe", "hours": {}, "open": true, "categories": ["Active Life", "Landmarks & Historical Buildings", "Public Services & Government", "Public Plazas"], "city": "Karlsruhe", "review_count": 5, "name": "Marktplatz Karlsruhe", "neighborhoods": [], "longitude": 8.4040367603302, "state": "BW", "stars": 3.5, "latitude": 49.0094308313443, "attributes": {"Good for Kids": false}, "type": "business"}
{"business_id": "dozJSOv07AbrTDYWDKqE_g", "full_address": "Erbprinzenstr.\n76133 Karlsruhe", "hours": {}, "open": true, "categories": ["Churches", "Landmarks & Historical Buildings", "Public Services & Government", "Religious Organizations"], "city": "Karlsruhe", "review_count": 3, "name": "Katholische Stadtkirche St. Stephan", "neighborhoods": [], "longitude": 8.3987204, "state": "BW", "stars": 4.5, "latitude": 49.0084322, "attributes": {}, "type": "business"}
{"business_id": "2L7zKmpJ20jFaH4oJ3zZxw", "full_address": "Stra\u00dfe am Forum 2\n76131 Karlsruhe", "hours": {}, "open": true, "categories": ["Libraries", "Public Services & Government"], "city": "Karlsruhe", "review_count": 7, "name": "KIT-Bibliothek", "neighborhoods": [], "longitude": 8.4161444, "state": "BW", "stars": 4.5, "latitude": 49.012177, "attributes": {}, "type": "business"}
{"business_id": "eHrMM9fBLZAtGrU7yCNm-g", "full_address": "76131 Karlsruhe", "hours": {}, "open": true, "categories": ["Landmarks & Historical Buildings", "Public Services & Government"], "city": "Karlsruhe", "review_count": 4, "name": "Durlacher Tor", "neighborhoods": [], "longitude": 8.41772, "state": "BW", "stars": 3.0, "latitude": 49.0091, "attributes": {}, "type": "business"}
{"business_id": "Ey6Keed9-Sn-9t9PsBT2dQ", "full_address": "Werderplatz\n76137 Karlsruhe", "hours": {}, "open": true, "categories": ["Landmarks & Historical Buildings", "Public Services & Government"], "city": "Karlsruhe", "review_count": 11, "name": "Werderplatz", "neighborhoods": [], "longitude": 8.40807, "state": "BW", "stars": 4.0, "latitude": 49.0015, "attributes": {"Good for Kids": false, "Price Range": 1}, "type": "business"}
{"business_id": "iQpshLrII8DHUm5zJId0fQ", "full_address": "Waldstra\u00dfe 61\n76133 Karlsruhe", "hours": {}, "open": true, "categories": ["Landmarks & Historical Buildings", "Public Services & Government"], "city": "Karlsruhe", "review_count": 14, "name": "Ludwigsplatz", "neighborhoods": [], "longitude": 8.395907, "state": "BW", "stars": 4.5, "latitude": 49.0088115, "attributes": {}, "type": "business"}
{"business_id": "HvVAa7W0h7sRom6rYPB_Gw", "full_address": "76227 Karlsruhe", "hours": {}, "open": true, "categories": ["Landmarks & Historical Buildings", "Public Services & Government"], "city": "Karlsruhe", "review_count": 7, "name": "Turmberg", "neighborhoods": [], "longitude": 8.4743368, "state": "BW", "stars": 4.5, "latitude": 48.9881413, "attributes": {}, "type": "business"}
{"business_id": "195hVRlAgcgMNNt8Ttdu8g", "full_address": "Erbprinzenstra\u00dfe 15\n76133 Karlsruhe", "hours": {}, "open": true, "categories": ["Libraries", "Public Services & Government", "Mass Media"], "city": "Karlsruhe", "review_count": 5, "name": "Badische Landesbibliothek", "neighborhoods": [], "longitude": 8.3994451, "state": "BW", "stars": 5.0, "latitude": 49.0081042, "attributes": {"Price Range": 1}, "type": "business"}
{"business_id": "q-Pc4j3mIzCfD-3eOs71jg", "full_address": "Edgar-Heller-Str. 19\n76227 Karlsruhe", "hours": {}, "open": true, "categories": ["Fitness & Instruction", "Police Departments", "Martial Arts", "Active Life", "Public Services & Government", "Sports Clubs"], "city": "Karlsruhe", "review_count": 3, "name": "Polizeisportverein Karlsruhe e.V.", "neighborhoods": [], "longitude": 8.43041, "state": "BW", "stars": 5.0, "latitude": 48.9947, "attributes": {"Good For Dancing": false, "Noise Level": "quiet", "Coat Check": false, "Music": {"dj": false}, "Outdoor Seating": true, "Parking": {"garage": false, "street": false, "validated": false, "lot": false, "valet": false}, "Ambience": {"romantic": false, "intimate": false, "classy": false, "hipster": false, "divey": false, "touristy": false, "trendy": false, "upscale": false, "casual": false}, "Has TV": true, "Accepts Credit Cards": false, "Good for Kids": true, "Good For Groups": true, "Price Range": 1}, "type": "business"}
{"business_id": "hMcEVZFUn_DOnvLkN9ztwQ", "full_address": "Herrenstr. 45a\n76133 Karlsruhe", "hours": {}, "open": true, "categories": ["Courthouses", "Public Services & Government"], "city": "Karlsruhe", "review_count": 4, "name": "Bundesgerichtshof", "neighborhoods": [], "longitude": 8.39668, "state": "BW", "stars": 4.5, "latitude": 49.0072, "attributes": {"Parking": {"garage": false, "validated": false, "street": false, "lot": false, "valet": false}, "Accepts Credit Cards": false, "Wheelchair Accessible": true, "Price Range": 1}, "type": "business"}
{"business_id": "QRTW1rfw1KKjsSHbboCaJQ", "full_address": "Richard-Wagner-Str. 27\n76275 Ettlingen", "hours": {}, "open": true, "categories": ["Bakeries", "Grocery", "Shopping", "Food", "Post Offices", "Butcher", "Public Services & Government"], "city": "Ettlingen", "review_count": 5, "name": "CAP-Markt", "neighborhoods": [], "longitude": 8.36592, "state": "BW", "stars": 4.5, "latitude": 48.9246, "attributes": {"Price Range": 3}, "type": "business"}
{"business_id": "8btINBSesNjN9uZuUrJ09A", "full_address": "St\u00e4ndehausstr. 2\n76133 Karlsruhe", "hours": {"Tuesday": {"close": "18:30", "open": "10:00"}, "Friday": {"close": "18:30", "open": "10:00"}, "Wednesday": {"close": "18:30", "open": "10:00"}, "Thursday": {"close": "18:30", "open": "10:00"}, "Saturday": {"close": "14:00", "open": "10:00"}}, "open": true, "categories": ["Libraries", "Public Services & Government"], "city": "Karlsruhe", "review_count": 7, "name": "Stadtbibliothek Karlsruhe", "neighborhoods": [], "longitude": 8.3999258, "state": "BW", "stars": 4.5, "latitude": 49.0088319, "attributes": {"Price Range": 1}, "type": "business"}
{"business_id": "KrxtCW45J_5zfxbrrQK_VQ", "full_address": "Marktplatz\n76133 Karlsruhe", "hours": {}, "open": true, "categories": ["Active Life", "Landmarks & Historical Buildings", "Public Services & Government", "Public Plazas"], "city": "Karlsruhe", "review_count": 5, "name": "Marktplatz Karlsruhe", "neighborhoods": [], "longitude": 8.4040367603302, "state": "BW", "stars": 3.5, "latitude": 49.0094308313443, "attributes": {"Good for Kids": false}, "type": "business"}
{"business_id": "dozJSOv07AbrTDYWDKqE_g", "full_address": "Erbprinzenstr.\n76133 Karlsruhe", "hours": {}, "open": true, "categories": ["Churches", "Landmarks & Historical Buildings", "Public Services & Government", "Religious Organizations"], "city": "Karlsruhe", "review_count": 3, "name": "Katholische Stadtkirche St. Stephan", "neighborhoods": [], "longitude": 8.3987204, "state": "BW", "stars": 4.5, "latitude": 49.0084322, "attributes": {}, "type": "business"}
{"business_id": "2L7zKmpJ20jFaH4oJ3zZxw", "full_address": "Stra\u00dfe am Forum 2\n76131 Karlsruhe", "hours": {}, "open": true, "categories": ["Libraries", "Public Services & Government"], "city": "Karlsruhe", "review_count": 7, "name": "KIT-Bibliothek", "neighborhoods": [], "longitude": 8.4161444, "state": "BW", "stars": 4.5, "latitude": 49.012177, "attributes": {}, "type": "business"}
{"business_id": "eHrMM9fBLZAtGrU7yCNm-g", "full_address": "76131 Karlsruhe", "hours": {}, "open": true, "categories": ["Landmarks & Historical Buildings", "Public Services & Government"], "city": "Karlsruhe", "review_count": 4, "name": "Durlacher Tor", "neighborhoods": [], "longitude": 8.41772, "state": "BW", "stars": 3.0, "latitude": 49.0091, "attributes": {}, "type": "business"}
{"business_id": "Ey6Keed9-Sn-9t9PsBT2dQ", "full_address": "Werderplatz\n76137 Karlsruhe", "hours": {}, "open": true, "categories": ["Landmarks & Historical Buildings", "Public Services & Government"], "city": "Karlsruhe", "review_count": 11, "name": "Werderplatz", "neighborhoods": [], "longitude": 8.40807, "state": "BW", "stars": 4.0, "latitude": 49.0015, "attributes": {"Good for Kids": false, "Price Range": 1}, "type": "business"}
{"business_id": "iQpshLrII8DHUm5zJId0fQ", "full_address": "Waldstra\u00dfe 61\n76133 Karlsruhe", "hours": {}, "open": true, "categories": ["Landmarks & Historical Buildings", "Public Services & Government"], "city": "Karlsruhe", "review_count": 14, "name": "Ludwigsplatz", "neighborhoods": [], "longitude": 8.395907, "state": "BW", "stars": 4.5, "latitude": 49.0088115, "attributes": {}, "type": "business"}
{"business_id": "HvVAa7W0h7sRom6rYPB_Gw", "full_address": "76227 Karlsruhe", "hours": {}, "open": true, "categories": ["Landmarks & Historical Buildings", "Public Services & Government"], "city": "Karlsruhe", "review_count": 7, "name": "Turmberg", "neighborhoods": [], "longitude": 8.4743368, "state": "BW", "stars": 4.5, "latitude": 48.9881413, "attributes": {}, "type": "business"}
