{"business_id": "nb5J-28w8naR38vg6fbdmA", "full_address": "Hirschstra\u00dfe 18\n76133 Karlsruhe", "hours": {"Monday": {"close": "03:00", "open": "19:00"}, "Friday": {"close": "05:00", "open": "19:00"}, "Wednesday": {"close": "03:00", "open": "19:00"}, "Thursday": {"close": "03:00", "open": "19:00"}, "Sunday": {"close": "03:00", "open": "19:00"}, "Saturday": {"close": "05:00", "open": "19:00"}}, "open": true, "categories": ["Arts & Entertainment", "Nightlife", "Music Venues"], "city": "Karlsruhe", "review_count": 4, "name": "Radio Oriente", "neighborhoods": [], "longitude": 8.3917067, "state": "BW", "stars": 3.0, "latitude": 49.0092996, "attributes": {"Price Range": 2}, "type": "business"}
{"business_id": "hgGC4Y8TsJRuBTGUn08RBw", "full_address": "Pfannkuchstr. 14\n76185 Karlsruhe", "hours": {}, "open": true, "categories": ["Music Venues", "Arts & Entertainment", "Nightlife", "Dance Clubs"], "city": "Karlsruhe", "review_count": 5, "name": "Nachtwerk Musikclub", "neighborhoods": [], "longitude": 8.34813, "state": "BW", "stars": 4.5, "latitude": 49.0106, "attributes": {"Alcohol": "beer_and_wine", "Attire": "formal", "Parking": {"garage": false, "validated": false, "street": false, "lot": false, "valet": false}, "Smoking": "outdoor", "Good For Groups": true, "Price Range": 2}, "type": "business"}
{"business_id": "iKFaOwdFxiWutQPaUUNmng", "full_address": "Alter Schlachthof 19\n76131 Karlsruhe", "hours": {}, "open": true, "categories": ["Music Venues", "Arts & Entertainment", "Nightlife", "Dance Clubs"], "city": "Karlsruhe", "review_count": 5, "name": "Substage", "neighborhoods": [], "longitude": 8.42974772838168, "state": "BW", "stars": 4.5, "latitude": 49.0052667602489, "attributes": {"Alcohol": "beer_and_wine", "Good For Dancing": true, "Music": {"dj": false, "background_music": false, "karaoke": false, "live": true, "video": false, "jukebox": false}, "Outdoor Seating": false, "Attire": "casual", "Has TV": false, "Good for Kids": false, "Good For Groups": true, "Price Range": 2}, "type": "business"}
{"business_id": "nb5J-28w8naR38vg6fbdmA", "full_address": "Hirschstra\u00dfe 18\n76133 Karlsruhe", "hours": {"Monday": {"close": "03:00", "open": "19:00"}, "Friday": {"close": "05:00", "open": "19:00"}, "Wednesday": {"close": "03:00", "open": "19:00"}, "Thursday": {"close": "03:00", "open": "19:00"}, "Sunday": {"close": "03:00", "open": "19:00"}, "Saturday": {"close": "05:00", "open": "19:00"}}, "open": true, "categories": ["Arts & Entertainment", "Nightlife", "Music Venues"], "city": "Karlsruhe", "review_count": 4, "name": "Radio Oriente", "neighborhoods": [], "longitude": 8.3917067, "state": "BW", "stars": 3.0, "latitude": 49.0092996, "attributes": {"Price Range": 2}, "type": "business"}
{"business_id": "hgGC4Y8TsJRuBTGUn08RBw", "full_address": "Pfannkuchstr. 14\n76185 Karlsruhe", "hours": {}, "open": true, "categories": ["Music Venues", "Arts & Entertainment", "Nightlife", "Dance Clubs"], "city": "Karlsruhe", "review_count": 5, "name": "Nachtwerk Musikclub", "neighborhoods": [], "longitude": 8.34813, "state": "BW", "stars": 4.5, "latitude": 49.0106, "attributes": {"Alcohol": "beer_and_wine", "Attire": "formal", "Parking": {"garage": false, "validated": false, "street": false, "lot": false, "valet": false}, "Smoking": "outdoor", "Good For Groups": true, "Price Range": 2}, "type": "business"}
{"business_id": "iKFaOwdFxiWutQPaUUNmng", "full_address": "Alter Schlachthof 19\n76131 Karlsruhe", "hours": {}, "open": true, "categories": ["Music Venues", "Arts & Entertainment", "Nightlife", "Dance Clubs"], "city": "Karlsruhe", "review_count": 5, "name": "Substage", "neighborhoods": [], "longitude": 8.42974772838168, "state": "BW", "stars": 4.5, "latitude": 49.0052667602489, "attributes": {"Alcohol": "beer_and_wine", "Good For Dancing": true, "Music": {"dj": false, "background_music": false, "karaoke": false, "live": true, "video": false, "jukebox": false}, "Outdoor Seating": false, "Attire": "casual", "Has TV": false, "Good for Kids": false, "Good For Groups": true, "Price Range": 2}, "type": "business"}
{"business_id": "nb5J-28w8naR38vg6fbdmA", "full_address": "Hirschstra\u00dfe 18\n76133 Karlsruhe", "hours": {"Monday": {"close": "03:00", "open": "19:00"}, "Friday": {"close": "05:00", "open": "19:00"}, "Wednesday": {"close": "03:00", "open": "19:00"}, "Thursday": {"close": "03:00", "open": "19:00"}, "Sunday": {"close": "03:00", "open": "19:00"}, "Saturday": {"close": "05:00", "open": "19:00"}}, "open": true, "categories": ["Arts & Entertainment", "Nightlife", "Music Venues"], "city": "Karlsruhe", "review_count": 4, "name": "Radio Oriente", "neighborhoods": [], "longitude": 8.3917067, "state": "BW", "stars": 3.0, "latitude": 49.0092996, "attributes": {"Price Range": 2}, "type": "business"}
{"business_id": "hgGC4Y8TsJRuBTGUn08RBw", "full_address": "Pfannkuchstr. 14\n76185 Karlsruhe", "hours": {}, "open": true, "categories": ["Music Venues", "Arts & Entertainment", "Nightlife", "Dance Clubs"], "city": "Karlsruhe", "review_count": 5, "name": "Nachtwerk Musikclub", "neighborhoods": [], "longitude": 8.34813, "state": "BW", "stars": 4.5, "latitude": 49.0106, "attributes": {"Alcohol": "beer_and_wine", "Attire": "formal", "Parking": {"garage": false, "validated": false, "street": false, "lot": false, "valet": false}, "Smoking": "outdoor", "Good For Groups": true, "Price Range": 2}, "type": "business"}
{"business_id": "iKFaOwdFxiWutQPaUUNmng", "full_address": "Alter Schlachthof 19\n76131 Karlsruhe", "hours": {}, "open": true, "categories": ["Music Venues", "Arts & Entertainment", "Nightlife", "Dance Clubs"], "city": "Karlsruhe", "review_count": 5, "name": "Substage", "neighborhoods": [], "longitude": 8.42974772838168, "state": "BW", "stars": 4.5, "latitude": 49.0052667602489, "attributes": {"Alcohol": "beer_and_wine", "Good For Dancing": true, "Music": {"dj": false, "background_music": false, "karaoke": false, "live": true, "video": false, "jukebox": false}, "Outdoor Seating": false, "Attire": "casual", "Has TV": false, "Good for Kids": false, "Good For Groups": true, "Price Range": 2}, "type": "business"}
{"business_id": "nb5J-28w8naR38vg6fbdmA", "full_address": "Hirschstra\u00dfe 18\n76133 Karlsruhe", "hours": {"Monday": {"close": "03:00", "open": "19:00"}, "Friday": {"close": "05:00", "open": "19:00"}, "Wednesday": {"close": "03:00", "open": "19:00"}, "Thursday": {"close": "03:00", "open": "19:00"}, "Sunday": {"close": "03:00", "open": "19:00"}, "Saturday": {"close": "05:00", "open": "19:00"}}, "open": true, "categories": ["Arts & Entertainment", "Nightlife", "Music Venues"], "city": "Karlsruhe", "review_count": 4, "name": "Radio Oriente", "neighborhoods": [], "longitude": 8.3917067, "state": "BW", "stars": 3.0, "latitude": 49.0092996, "attributes": {"Price Range": 2}, "type": "business"}
{"business_id": "hgGC4Y8TsJRuBTGUn08RBw", "full_address": "Pfannkuchstr. 14\n76185 Karlsruhe", "hours": {}, "open": true, "categories": ["Music Venues", "Arts & Entertainment", "Nightlife", "Dance Clubs"], "city": "Karlsruhe", "review_count": 5, "name": "Nachtwerk Musikclub", "neighborhoods": [], "longitude": 8.34813, "state": "BW", "stars": 4.5, "latitude": 49.0106, "attributes": {"Alcohol": "beer_and_wine", "Attire": "formal", "Parking": {"garage": false, "validated": false, "street": false, "lot": false, "valet": false}, "Smoking": "outdoor", "Good For Groups": true, "Price Range": 2}, "type": "business"}
{"business_id": "iKFaOwdFxiWutQPaUUNmng", "full_address": "Alter Schlachthof 19\n76131 Karlsruhe", "hours": {}, "open": true, "categories": ["Music Venues", "Arts & Entertainment", "Nightlife", "Dance Clubs"], "city": "Karlsruhe", "review_count": 5, "name": "Substage", "neighborhoods": [], "longitude": 8.42974772838168, "state": "BW", "stars": 4.5, "latitude": 49.0052667602489, "attributes": {"Alcohol": "beer_and_wine", "Good For Dancing": true, "Music": {"dj": false, "background_music": false, "karaoke": false, "live": true, "video": false, "jukebox": false}, "Outdoor Seating": false, "Attire": "casual", "Has TV": false, "Good for Kids": false, "Good For Groups": true, "Price Range": 2}, "type": "business"}
{"business_id": "nb5J-28w8naR38vg6fbdmA", "full_address": "Hirschstra\u00dfe 18\n76133 Karlsruhe", "hours": {"Monday": {"close": "03:00", "open": "19:00"}, "Friday": {"close": "05:00", "open": "19:00"}, "Wednesday": {"close": "03:00", "open": "19:00"}, "Thursday": {"close": "03:00", "open": "19:00"}, "Sunday": {"close": "03:00", "open": "19:00"}, "Saturday": {"close": "05:00", "open": "19:00"}}, "open": true, "categories": ["Arts & Entertainment", "Nightlife", "Music Venues"], "city": "Karlsruhe", "review_count": 4, "name": "Radio Oriente", "neighborhoods": [], "longitude": 8.3917067, "state": "BW", "stars": 3.0, "latitude": 49.0092996, "attributes": {"Price Range": 2}, "type": "business"}
{"business_id": "hgGC4Y8TsJRuBTGUn08RBw", "full_address": "Pfannkuchstr. 14\n76185 Karlsruhe", "hours": {}, "open": true, "categories": ["Music Venues", "Arts & Entertainment", "Nightlife", "Dance Clubs"], "city": "Karlsruhe", "review_count": 5, "name": "Nachtwerk Musikclub", "neighborhoods": [], "longitude": 8.34813, "state": "BW", "stars": 4.5, "latitude": 49.0106, "attributes": {"Alcohol": "beer_and_wine", "Attire": "formal", "Parking": {"garage": false, "validated": false, "street": false, "lot": false, "valet": false}, "Smoking": "outdoor", "Good For Groups": true, "Price Range": 2}, "type": "business"}
{"business_id": "iKFaOwdFxiWutQPaUUNmng", "full_address": "Alter Schlachthof 19\n76131 Karlsruhe", "hours": {}, "open": true, "categories": ["Music Venues", "Arts & Entertainment", "Nightlife", "Dance Clubs"], "city": "Karlsruhe", "review_count": 5, "name": "Substage", "neighborhoods": [], "longitude": 8.42974772838168, "state": "BW", "stars": 4.5, "latitude": 49.0052667602489, "attributes": {"Alcohol": "beer_and_wine", "Good For Dancing": true, "Music": {"dj": false, "background_music": false, "karaoke": false, "live": true, "video": false, "jukebox": false}, "Outdoor Seating": false, "Attire": "casual", "Has TV": false, "Good for Kids": false, "Good For Groups": true, "Price Range": 2}, "type": "business"}
{"business_id": "nb5J-28w8naR38vg6fbdmA", "full_address": "Hirschstra\u00dfe 18\n76133 Karlsruhe", "hours": {"Monday": {"close": "03:00", "open": "19:00"}, "Friday": {"close": "05:00", "open": "19:00"}, "Wednesday": {"close": "03:00", "open": "19:00"}, "Thursday": {"close": "03:00", "open": "19:00"}, "Sunday": {"close": "03:00", "open": "19:00"}, "Saturday": {"close": "05:00", "open": "19:00"}}, "open": true, "categories": ["Arts & Entertainment", "Nightlife", "Music Venues"], "city": "Karlsruhe", "review_count": 4, "name": "Radio Oriente", "neighborhoods": [], "longitude": 8.3917067, "state": "BW", "stars": 3.0, "latitude": 49.0092996, "attributes": {"Price Range": 2}, "type": "business"}
{"business_id": "hgGC4Y8TsJRuBTGUn08RBw", "full_address": "Pfannkuchstr. 14\n76185 Karlsruhe", "hours": {}, "open": true, "categories": ["Music Venues", "Arts & Entertainment", "Nightlife", "Dance Clubs"], "city": "Karlsruhe", "review_count": 5, "name": "Nachtwerk Musikclub", "neighborhoods": [], "longitude": 8.34813, "state": "BW", "stars": 4.5, "latitude": 49.0106, "attributes": {"Alcohol": "beer_and_wine", "Attire": "formal", "Parking": {"garage": false, "validated": false, "street": false, "lot": false, "valet": false}, "Smoking": "outdoor", "Good For Groups": true, "Price Range": 2}, "type": "business"}
{"business_id": "iKFaOwdFxiWutQPaUUNmng", "full_address": "Alter Schlachthof 19\n76131 Karlsruhe", "hours": {}, "open": true, "categories": ["Music Venues", "Arts & Entertainment", "Nightlife", "Dance Clubs"], "city": "Karlsruhe", "review_count": 5, "name": "Substage", "neighborhoods": [], "longitude": 8.42974772838168, "state": "BW", "stars": 4.5, "latitude": 49.0052667602489, "attributes": {"Alcohol": "beer_and_wine", "Good For Dancing": true, "Music": {"dj": false, "background_music": false, "karaoke": false, "live": true, "video": false, "jukebox": false}, "Outdoor Seating": false, "Attire": "casual", "Has TV": false, "Good for Kids": false, "Good For Groups": true, "Price Range": 2}, "type": "business"}
