{"business_id": "VP_gLCwB9tfiatdz2m0zPA", "full_address": "Haid-und-Neustr. 9\n76131 Karlsruhe", "hours": {}, "open": true, "categories": ["Colleges & Universities", "Education"], "city": "Karlsruhe", "review_count": 3, "name": "Max Rubner-Institut", "neighborhoods": [], "longitude": 8.42662, "state": "BW", "stars": 4.5, "latitude": 49.01416, "attributes": {}, "type": "business"}
{"business_id": "AaTTeaibNRevU2o_JbiYOg", "full_address": "Schnetzlerstrasse 2\n76137 Karlsruhe", "hours": {}, "open": true, "categories": ["Colleges & Universities", "Education"], "city": "Karlsruhe", "review_count": 3, "name": "me-di-kom Privatinstitut f\u00fcr medizinische und psychologische Bil", "neighborhoods": [], "longitude": 8.39918, "state": "BW", "stars": 5.0, "latitude": 48.99595, "attributes": {}, "type": "business"}
{"business_id": "VP_gLCwB9tfiatdz2m0zPA", "full_address": "Haid-und-Neustr. 9\n76131 Karlsruhe", "hours": {}, "open": true, "categories": ["Colleges & Universities", "Education"], "city": "Karlsruhe", "review_count": 3, "name": "Max Rubner-Institut", "neighborhoods": [], "longitude": 8.42662, "state": "BW", "stars": 4.5, "latitude": 49.01416, "attributes": {}, "type": "business"}
{"business_id": "AaTTeaibNRevU2o_JbiYOg", "full_address": "Schnetzlerstrasse 2\n76137 Karlsruhe", "hours": {}, "open": true, "categories": ["Colleges & Universities", "Education"], "city": "Karlsruhe", "review_count": 3, "name": "me-di-kom Privatinstitut f\u00fcr medizinische und psychologische Bil", "neighborhoods": [], "longitude": 8.39918, "state": "BW", "stars": 5.0, "latitude": 48.99595, "attributes": {}, "type": "business"}
{"business_id": "VP_gLCwB9tfiatdz2m0zPA", "full_address": "Haid-und-Neustr. 9\n76131 Karlsruhe", "hours": {}, "open": true, "categories": ["Colleges & Universities", "Education"], "city": "Karlsruhe", "review_count": 3, "name": "Max Rubner-Institut", "neighborhoods": [], "longitude": 8.42662, "state": "BW", "stars": 4.5, "latitude": 49.01416, "attributes": {}, "type": "business"}
{"business_id": "AaTTeaibNRevU2o_JbiYOg", "full_address": "Schnetzlerstrasse 2\n76137 Karlsruhe", "hours": {}, "open": true, "categories": ["Colleges & Universities", "Education"], "city": "Karlsruhe", "review_count": 3, "name": "me-di-kom Privatinstitut f\u00fcr medizinische und psychologische Bil", "neighborhoods": [], "longitude": 8.39918, "state": "BW", "stars": 5.0, "latitude": 48.99595, "attributes": {}, "type": "business"}
{"business_id": "VP_gLCwB9tfiatdz2m0zPA", "full_address": "Haid-und-Neustr. 9\n76131 Karlsruhe", "hours": {}, "open": true, "categories": ["Colleges & Universities", "Education"], "city": "Karlsruhe", "review_count": 3, "name": "Max Rubner-Institut", "neighborhoods": [], "longitude": 8.42662, "state": "BW", "stars": 4.5, "latitude": 49.01416, "attributes": {}, "type": "business"}
{"business_id": "AaTTeaibNRevU2o_JbiYOg", "full_address": "Schnetzlerstrasse 2\n76137 Karlsruhe", "hours": {}, "open": true, "categories": ["Colleges & Universities", "Education"], "city": "Karlsruhe", "review_count": 3, "name": "me-di-kom Privatinstitut f\u00fcr medizinische und psychologische Bil", "neighborhoods": [], "longitude": 8.39918, "state": "BW", "stars": 5.0, "latitude": 48.99595, "attributes": {}, "type": "business"}
{"business_id": "VP_gLCwB9tfiatdz2m0zPA", "full_address": "Haid-und-Neustr. 9\n76131 Karlsruhe", "hours": {}, "open": true, "categories": ["Colleges & Universities", "Education"], "city": "Karlsruhe", "review_count": 3, "name": "Max Rubner-Institut", "neighborhoods": [], "longitude": 8.42662, "state": "BW", "stars": 4.5, "latitude": 49.01416, "attributes": {}, "type": "business"}
{"business_id": "AaTTeaibNRevU2o_JbiYOg", "full_address": "Schnetzlerstrasse 2\n76137 Karlsruhe", "hours": {}, "open": true, "categories": ["Colleges & Universities", "Education"], "city": "Karlsruhe", "review_count": 3, "name": "me-di-kom Privatinstitut f\u00fcr medizinische und psychologische Bil", "neighborhoods": [], "longitude": 8.39918, "state": "BW", "stars": 5.0, "latitude": 48.99595, "attributes": {}, "type": "business"}
{"business_id": "VP_gLCwB9tfiatdz2m0zPA", "full_address": "Haid-und-Neustr. 9\n76131 Karlsruhe", "hours": {}, "open": true, "categories": ["Colleges & Universities", "Education"], "city": "Karlsruhe", "review_count": 3, "name": "Max Rubner-Institut", "neighborhoods": [], "longitude": 8.42662, "state": "BW", "stars": 4.5, "latitude": 49.01416, "attributes": {}, "type": "business"}
{"business_id": "AaTTeaibNRevU2o_JbiYOg", "full_address": "Schnetzlerstrasse 2\n76137 Karlsruhe", "hours": {}, "open": true, "categories": ["Colleges & Universities", "Education"], "city": "Karlsruhe", "review_count": 3, "name": "me-di-kom Privatinstitut f\u00fcr medizinische und psychologische Bil", "neighborhoods": [], "longitude": 8.39918, "state": "BW", "stars": 5.0, "latitude": 48.99595, "attributes": {}, "type": "business"}
