{"business_id": "E6xrU8gCZxRlL60nGnf86w", "full_address": "Bahnhofplatz 1a\n76137 Karlsruhe", "hours": {}, "open": true, "categories": ["Arts & Entertainment", "General Festivals", "Festivals"], "city": "Karlsruhe", "review_count": 7, "name": "Bierb\u00f6rse", "neighborhoods": [], "longitude": 8.40099795225087, "state": "BW", "stars": 4.0, "latitude": 48.9935726631097, "attributes": {"Accepts Credit Cards": false, "Good for Kids": false, "Price Range": 2}, "type": "business"}
{"business_id": "22yGKqF09XSoZ49A9E209g", "full_address": "G\u00fcnther-Klotz-Anlage\n76135 Karlsruhe", "hours": {"Sunday": {"close": "02:00", "open": "09:00"}, "Friday": {"close": "02:00", "open": "18:00"}, "Saturday": {"close": "02:00", "open": "09:00"}}, "open": true, "categories": ["Arts & Entertainment", "General Festivals", "Festivals"], "city": "Karlsruhe", "review_count": 12, "name": "Das Fest", "neighborhoods": [], "longitude": 8.3820167, "state": "BW", "stars": 5.0, "latitude": 48.9908752, "attributes": {"Good for Kids": true, "Parking": {"garage": false, "validated": false, "street": false, "lot": false, "valet": false}, "Wheelchair Accessible": false, "Price Range": 1}, "type": "business"}
{"business_id": "E6xrU8gCZxRlL60nGnf86w", "full_address": "Bahnhofplatz 1a\n76137 Karlsruhe", "hours": {}, "open": true, "categories": ["Arts & Entertainment", "General Festivals", "Festivals"], "city": "Karlsruhe", "review_count": 7, "name": "Bierb\u00f6rse", "neighborhoods": [], "longitude": 8.40099795225087, "state": "BW", "stars": 4.0, "latitude": 48.9935726631097, "attributes": {"Accepts Credit Cards": false, "Good for Kids": false, "Price Range": 2}, "type": "business"}
{"business_id": "22yGKqF09XSoZ49A9E209g", "full_address": "G\u00fcnther-Klotz-Anlage\n76135 Karlsruhe", "hours": {"Sunday": {"close": "02:00", "open": "09:00"}, "Friday": {"close": "02:00", "open": "18:00"}, "Saturday": {"close": "02:00", "open": "09:00"}}, "open": true, "categories": ["Arts & Entertainment", "General Festivals", "Festivals"], "city": "Karlsruhe", "review_count": 12, "name": "Das Fest", "neighborhoods": [], "longitude": 8.3820167, "state": "BW", "stars": 5.0, "latitude": 48.9908752, "attributes": {"Good for Kids": true, "Parking": {"garage": false, "validated": false, "street": false, "lot": false, "valet": false}, "Wheelchair Accessible": false, "Price Range": 1}, "type": "business"}
{"business_id": "E6xrU8gCZxRlL60nGnf86w", "full_address": "Bahnhofplatz 1a\n76137 Karlsruhe", "hours": {}, "open": true, "categories": ["Arts & Entertainment", "General Festivals", "Festivals"], "city": "Karlsruhe", "review_count": 7, "name": "Bierb\u00f6rse", "neighborhoods": [], "longitude": 8.40099795225087, "state": "BW", "stars": 4.0, "latitude": 48.9935726631097, "attributes": {"Accepts Credit Cards": false, "Good for Kids": false, "Price Range": 2}, "type": "business"}
{"business_id": "22yGKqF09XSoZ49A9E209g", "full_address": "G\u00fcnther-Klotz-Anlage\n76135 Karlsruhe", "hours": {"Sunday": {"close": "02:00", "open": "09:00"}, "Friday": {"close": "02:00", "open": "18:00"}, "Saturday": {"close": "02:00", "open": "09:00"}}, "open": true, "categories": ["Arts & Entertainment", "General Festivals", "Festivals"], "city": "Karlsruhe", "review_count": 12, "name": "Das Fest", "neighborhoods": [], "longitude": 8.3820167, "state": "BW", "stars": 5.0, "latitude": 48.9908752, "attributes": {"Good for Kids": true, "Parking": {"garage": false, "validated": false, "street": false, "lot": false, "valet": false}, "Wheelchair Accessible": false, "Price Range": 1}, "type": "business"}
{"business_id": "E6xrU8gCZxRlL60nGnf86w", "full_address": "Bahnhofplatz 1a\n76137 Karlsruhe", "hours": {}, "open": true, "categories": ["Arts & Entertainment", "General Festivals", "Festivals"], "city": "Karlsruhe", "review_count": 7, "name": "Bierb\u00f6rse", "neighborhoods": [], "longitude": 8.40099795225087, "state": "BW", "stars": 4.0, "latitude": 48.9935726631097, "attributes": {"Accepts Credit Cards": false, "Good for Kids": false, "Price Range": 2}, "type": "business"}
{"business_id": "22yGKqF09XSoZ49A9E209g", "full_address": "G\u00fcnther-Klotz-Anlage\n76135 Karlsruhe", "hours": {"Sunday": {"close": "02:00", "open": "09:00"}, "Friday": {"close": "02:00", "open": "18:00"}, "Saturday": {"close": "02:00", "open": "09:00"}}, "open": true, "categories": ["Arts & Entertainment", "General Festivals", "Festivals"], "city": "Karlsruhe", "review_count": 12, "name": "Das Fest", "neighborhoods": [], "longitude": 8.3820167, "state": "BW", "stars": 5.0, "latitude": 48.9908752, "attributes": {"Good for Kids": true, "Parking": {"garage": false, "validated": false, "street": false, "lot": false, "valet": false}, "Wheelchair Accessible": false, "Price Range": 1}, "type": "business"}
{"business_id": "E6xrU8gCZxRlL60nGnf86w", "full_address": "Bahnhofplatz 1a\n76137 Karlsruhe", "hours": {}, "open": true, "categories": ["Arts & Entertainment", "General Festivals", "Festivals"], "city": "Karlsruhe", "review_count": 7, "name": "Bierb\u00f6rse", "neighborhoods": [], "longitude": 8.40099795225087, "state": "BW", "stars": 4.0, "latitude": 48.9935726631097, "attributes": {"Accepts Credit Cards": false, "Good for Kids": false, "Price Range": 2}, "type": "business"}
{"business_id": "22yGKqF09XSoZ49A9E209g", "full_address": "G\u00fcnther-Klotz-Anlage\n76135 Karlsruhe", "hours": {"Sunday": {"close": "02:00", "open": "09:00"}, "Friday": {"close": "02:00", "open": "18:00"}, "Saturday": {"close": "02:00", "open": "09:00"}}, "open": true, "categories": ["Arts & Entertainment", "General Festivals", "Festivals"], "city": "Karlsruhe", "review_count": 12, "name": "Das Fest", "neighborhoods": [], "longitude": 8.3820167, "state": "BW", "stars": 5.0, "latitude": 48.9908752, "attributes": {"Good for Kids": true, "Parking": {"garage": false, "validated": false, "street": false, "lot": false, "valet": false}, "Wheelchair Accessible": false, "Price Range": 1}, "type": "business"}
{"business_id": "E6xrU8gCZxRlL60nGnf86w", "full_address": "Bahnhofplatz 1a\n76137 Karlsruhe", "hours": {}, "open": true, "categories": ["Arts & Entertainment", "General Festivals", "Festivals"], "city": "Karlsruhe", "review_count": 7, "name": "Bierb\u00f6rse", "neighborhoods": [], "longitude": 8.40099795225087, "state": "BW", "stars": 4.0, "latitude": 48.9935726631097, "attributes": {"Accepts Credit Cards": false, "Good for Kids": false, "Price Range": 2}, "type": "business"}
{"business_id": "22yGKqF09XSoZ49A9E209g", "full_address": "G\u00fcnther-Klotz-Anlage\n76135 Karlsruhe", "hours": {"Sunday": {"close": "02:00", "open": "09:00"}, "Friday": {"close": "02:00", "open": "18:00"}, "Saturday": {"close": "02:00", "open": "09:00"}}, "open": true, "categories": ["Arts & Entertainment", "General Festivals", "Festivals"], "city": "Karlsruhe", "review_count": 12, "name": "Das Fest", "neighborhoods": [], "longitude": 8.3820167, "state": "BW", "stars": 5.0, "latitude": 48.9908752, "attributes": {"Good for Kids": true, "Parking": {"garage": false, "validated": false, "street": false, "lot": false, "valet": false}, "Wheelchair Accessible": false, "Price Range": 1}, "type": "business"}
