{"business_id": "l1CzJq_lzQDioUDNfdr46A", "full_address": "Amalienstra\u00dfe 25a\n76133 Karlsruhe", "hours": {}, "open": true, "categories": ["Skin Care", "Nail Salons", "Beauty & Spas"], "city": "Karlsruhe", "review_count": 3, "name": "Kosmetik- und Nagelstudio Annette Dobert", "neighborhoods": [], "longitude": 8.3937505, "state": "BW", "stars": 4.5, "latitude": 49.008106, "attributes": {}, "type": "business"}
{"business_id": "l1CzJq_lzQDioUDNfdr46A", "full_address": "Amalienstra\u00dfe 25a\n76133 Karlsruhe", "hours": {}, "open": true, "categories": ["Skin Care", "Nail Salons", "Beauty & Spas"], "city": "Karlsruhe", "review_count": 3, "name": "Kosmetik- und Nagelstudio Annette Dobert", "neighborhoods": [], "longitude": 8.3937505, "state": "BW", "stars": 4.5, "latitude": 49.008106, "attributes": {}, "type": "business"}
{"business_id": "l1CzJq_lzQDioUDNfdr46A", "full_address": "Amalienstra\u00dfe 25a\n76133 Karlsruhe", "hours": {}, "open": true, "categories": ["Skin Care", "Nail Salons", "Beauty & Spas"], "city": "Karlsruhe", "review_count": 3, "name": "Kosmetik- und Nagelstudio Annette Dobert", "neighborhoods": [], "longitude": 8.3937505, "state": "BW", "stars": 4.5, "latitude": 49.008106, "attributes": {}, "type": "business"}
{"business_id": "l1CzJq_lzQDioUDNfdr46A", "full_address": "Amalienstra\u00dfe 25a\n76133 Karlsruhe", "hours": {}, "open": true, "categories": ["Skin Care", "Nail Salons", "Beauty & Spas"], "city": "Karlsruhe", "review_count": 3, "name": "Kosmetik- und Nagelstudio Annette Dobert", "neighborhoods": [], "longitude": 8.3937505, "state": "BW", "stars": 4.5, "latitude": 49.008106, "attributes": {}, "type": "business"}
{"business_id": "l1CzJq_lzQDioUDNfdr46A", "full_address": "Amalienstra\u00dfe 25a\n76133 Karlsruhe", "hours": {}, "open": true, "categories": ["Skin Care", "Nail Salons", "Beauty & Spas"], "city": "Karlsruhe", "review_count": 3, "name": "Kosmetik- und Nagelstudio Annette Dobert", "neighborhoods": [], "longitude": 8.3937505, "state": "BW", "stars": 4.5, "latitude": 49.008106, "attributes": {}, "type": "business"}
{"business_id": "l1CzJq_lzQDioUDNfdr46A", "full_address": "Amalienstra\u00dfe 25a\n76133 Karlsruhe", "hours": {}, "open": true, "categories": ["Skin Care", "Nail Salons", "Beauty & Spas"], "city": "Karlsruhe", "review_count": 3, "name": "Kosmetik- und Nagelstudio Annette Dobert", "neighborhoods": [], "longitude": 8.3937505, "state": "BW", "stars": 4.5, "latitude": 49.008106, "attributes": {}, "type": "business"}
