{"business_id": "4Khs0-ezl2mwtsW1NiNv0A", "full_address": "Unterweingartenfeld 4\n76135 Karlsruhe", "hours": {"Monday": {"close": "20:00", "open": "09:30"}, "Tuesday": {"close": "20:00", "open": "09:30"}, "Friday": {"close": "20:00", "open": "09:30"}, "Wednesday": {"close": "20:00", "open": "09:30"}, "Thursday": {"close": "20:00", "open": "09:30"}, "Saturday": {"close": "20:00", "open": "09:00"}}, "open": true, "categories": ["Electronics", "Computers", "Shopping", "Home & Garden", "Appliances"], "city": "Karlsruhe", "review_count": 3, "name": "Media Markt", "neighborhoods": [], "longitude": 8.37312, "state": "BW", "stars": 4.0, "latitude": 48.992, "attributes": {"Parking": {"garage": false, "validated": false, "street": false, "lot": false, "valet": false}, "Accepts Credit Cards": true, "Wheelchair Accessible": false, "Price Range": 2}, "type": "business"}
{"business_id": "eba6WF8cDN1TQ2_0rCkh4g", "full_address": "76131 Karlsruhe", "hours": {}, "open": true, "categories": ["Shopping", "Home & Garden", "Appliances"], "city": "Karlsruhe", "review_count": 4, "name": "Cafe Classico", "neighborhoods": [], "longitude": 8.4303821, "state": "BW", "stars": 4.5, "latitude": 49.0116951, "attributes": {"Parking": {"garage": false, "validated": false, "street": false, "lot": false, "valet": false}, "Accepts Credit Cards": false, "Price Range": 2}, "type": "business"}
{"business_id": "ujc_1tzKrEEPMv9oOSF3wA", "full_address": "Ettlinger Tor Platz 1\n76133 Karlsruhe", "hours": {"Monday": {"close": "20:00", "open": "10:00"}, "Tuesday": {"close": "20:00", "open": "10:00"}, "Friday": {"close": "20:00", "open": "10:00"}, "Wednesday": {"close": "20:00", "open": "10:00"}, "Thursday": {"close": "22:00", "open": "10:00"}, "Saturday": {"close": "20:00", "open": "10:00"}}, "open": true, "categories": ["Electronics", "Computers", "Shopping", "Home & Garden", "Appliances"], "city": "Karlsruhe", "review_count": 11, "name": "Media Markt", "neighborhoods": [], "longitude": 8.40251955605882, "state": "BW", "stars": 2.0, "latitude": 49.0060805453703, "attributes": {"Parking": {"garage": false, "validated": false, "street": false, "lot": false, "valet": false}, "Accepts Credit Cards": true, "Price Range": 4}, "type": "business"}
{"business_id": "4Khs0-ezl2mwtsW1NiNv0A", "full_address": "Unterweingartenfeld 4\n76135 Karlsruhe", "hours": {"Monday": {"close": "20:00", "open": "09:30"}, "Tuesday": {"close": "20:00", "open": "09:30"}, "Friday": {"close": "20:00", "open": "09:30"}, "Wednesday": {"close": "20:00", "open": "09:30"}, "Thursday": {"close": "20:00", "open": "09:30"}, "Saturday": {"close": "20:00", "open": "09:00"}}, "open": true, "categories": ["Electronics", "Computers", "Shopping", "Home & Garden", "Appliances"], "city": "Karlsruhe", "review_count": 3, "name": "Media Markt", "neighborhoods": [], "longitude": 8.37312, "state": "BW", "stars": 4.0, "latitude": 48.992, "attributes": {"Parking": {"garage": false, "validated": false, "street": false, "lot": false, "valet": false}, "Accepts Credit Cards": true, "Wheelchair Accessible": false, "Price Range": 2}, "type": "business"}
{"business_id": "eba6WF8cDN1TQ2_0rCkh4g", "full_address": "76131 Karlsruhe", "hours": {}, "open": true, "categories": ["Shopping", "Home & Garden", "Appliances"], "city": "Karlsruhe", "review_count": 4, "name": "Cafe Classico", "neighborhoods": [], "longitude": 8.4303821, "state": "BW", "stars": 4.5, "latitude": 49.0116951, "attributes": {"Parking": {"garage": false, "validated": false, "street": false, "lot": false, "valet": false}, "Accepts Credit Cards": false, "Price Range": 2}, "type": "business"}
{"business_id": "ujc_1tzKrEEPMv9oOSF3wA", "full_address": "Ettlinger Tor Platz 1\n76133 Karlsruhe", "hours": {"Monday": {"close": "20:00", "open": "10:00"}, "Tuesday": {"close": "20:00", "open": "10:00"}, "Friday": {"close": "20:00", "open": "10:00"}, "Wednesday": {"close": "20:00", "open": "10:00"}, "Thursday": {"close": "22:00", "open": "10:00"}, "Saturday": {"close": "20:00", "open": "10:00"}}, "open": true, "categories": ["Electronics", "Computers", "Shopping", "Home & Garden", "Appliances"], "city": "Karlsruhe", "review_count": 11, "name": "Media Markt", "neighborhoods": [], "longitude": 8.40251955605882, "state": "BW", "stars": 2.0, "latitude": 49.0060805453703, "attributes": {"Parking": {"garage": false, "validated": false, "street": false, "lot": false, "valet": false}, "Accepts Credit Cards": true, "Price Range": 4}, "type": "business"}
{"business_id": "4Khs0-ezl2mwtsW1NiNv0A", "full_address": "Unterweingartenfeld 4\n76135 Karlsruhe", "hours": {"Monday": {"close": "20:00", "open": "09:30"}, "Tuesday": {"close": "20:00", "open": "09:30"}, "Friday": {"close": "20:00", "open": "09:30"}, "Wednesday": {"close": "20:00", "open": "09:30"}, "Thursday": {"close": "20:00", "open": "09:30"}, "Saturday": {"close": "20:00", "open": "09:00"}}, "open": true, "categories": ["Electronics", "Computers", "Shopping", "Home & Garden", "Appliances"], "city": "Karlsruhe", "review_count": 3, "name": "Media Markt", "neighborhoods": [], "longitude": 8.37312, "state": "BW", "stars": 4.0, "latitude": 48.992, "attributes": {"Parking": {"garage": false, "validated": false, "street": false, "lot": false, "valet": false}, "Accepts Credit Cards": true, "Wheelchair Accessible": false, "Price Range": 2}, "type": "business"}
{"business_id": "eba6WF8cDN1TQ2_0rCkh4g", "full_address": "76131 Karlsruhe", "hours": {}, "open": true, "categories": ["Shopping", "Home & Garden", "Appliances"], "city": "Karlsruhe", "review_count": 4, "name": "Cafe Classico", "neighborhoods": [], "longitude": 8.4303821, "state": "BW", "stars": 4.5, "latitude": 49.0116951, "attributes": {"Parking": {"garage": false, "validated": false, "street": false, "lot": false, "valet": false}, "Accepts Credit Cards": false, "Price Range": 2}, "type": "business"}
{"business_id": "ujc_1tzKrEEPMv9oOSF3wA", "full_address": "Ettlinger Tor Platz 1\n76133 Karlsruhe", "hours": {"Monday": {"close": "20:00", "open": "10:00"}, "Tuesday": {"close": "20:00", "open": "10:00"}, "Friday": {"close": "20:00", "open": "10:00"}, "Wednesday": {"close": "20:00", "open": "10:00"}, "Thursday": {"close": "22:00", "open": "10:00"}, "Saturday": {"close": "20:00", "open": "10:00"}}, "open": true, "categories": ["Electronics", "Computers", "Shopping", "Home & Garden", "Appliances"], "city": "Karlsruhe", "review_count": 11, "name": "Media Markt", "neighborhoods": [], "longitude": 8.40251955605882, "state": "BW", "stars": 2.0, "latitude": 49.0060805453703, "attributes": {"Parking": {"garage": false, "validated": false, "street": false, "lot": false, "valet": false}, "Accepts Credit Cards": true, "Price Range": 4}, "type": "business"}
{"business_id": "4Khs0-ezl2mwtsW1NiNv0A", "full_address": "Unterweingartenfeld 4\n76135 Karlsruhe", "hours": {"Monday": {"close": "20:00", "open": "09:30"}, "Tuesday": {"close": "20:00", "open": "09:30"}, "Friday": {"close": "20:00", "open": "09:30"}, "Wednesday": {"close": "20:00", "open": "09:30"}, "Thursday": {"close": "20:00", "open": "09:30"}, "Saturday": {"close": "20:00", "open": "09:00"}}, "open": true, "categories": ["Electronics", "Computers", "Shopping", "Home & Garden", "Appliances"], "city": "Karlsruhe", "review_count": 3, "name": "Media Markt", "neighborhoods": [], "longitude": 8.37312, "state": "BW", "stars": 4.0, "latitude": 48.992, "attributes": {"Parking": {"garage": false, "validated": false, "street": false, "lot": false, "valet": false}, "Accepts Credit Cards": true, "Wheelchair Accessible": false, "Price Range": 2}, "type": "business"}
{"business_id": "eba6WF8cDN1TQ2_0rCkh4g", "full_address": "76131 Karlsruhe", "hours": {}, "open": true, "categories": ["Shopping", "Home & Garden", "Appliances"], "city": "Karlsruhe", "review_count": 4, "name": "Cafe Classico", "neighborhoods": [], "longitude": 8.4303821, "state": "BW", "stars": 4.5, "latitude": 49.0116951, "attributes": {"Parking": {"garage": false, "validated": false, "street": false, "lot": false, "valet": false}, "Accepts Credit Cards": false, "Price Range": 2}, "type": "business"}
{"business_id": "ujc_1tzKrEEPMv9oOSF3wA", "full_address": "Ettlinger Tor Platz 1\n76133 Karlsruhe", "hours": {"Monday": {"close": "20:00", "open": "10:00"}, "Tuesday": {"close": "20:00", "open": "10:00"}, "Friday": {"close": "20:00", "open": "10:00"}, "Wednesday": {"close": "20:00", "open": "10:00"}, "Thursday": {"close": "22:00", "open": "10:00"}, "Saturday": {"close": "20:00", "open": "10:00"}}, "open": true, "categories": ["Electronics", "Computers", "Shopping", "Home & Garden", "Appliances"], "city": "Karlsruhe", "review_count": 11, "name": "Media Markt", "neighborhoods": [], "longitude": 8.40251955605882, "state": "BW", "stars": 2.0, "latitude": 49.0060805453703, "attributes": {"Parking": {"garage": false, "validated": false, "street": false, "lot": false, "valet": false}, "Accepts Credit Cards": true, "Price Range": 4}, "type": "business"}
{"business_id": "4Khs0-ezl2mwtsW1NiNv0A", "full_address": "Unterweingartenfeld 4\n76135 Karlsruhe", "hours": {"Monday": {"close": "20:00", "open": "09:30"}, "Tuesday": {"close": "20:00", "open": "09:30"}, "Friday": {"close": "20:00", "open": "09:30"}, "Wednesday": {"close": "20:00", "open": "09:30"}, "Thursday": {"close": "20:00", "open": "09:30"}, "Saturday": {"close": "20:00", "open": "09:00"}}, "open": true, "categories": ["Electronics", "Computers", "Shopping", "Home & Garden", "Appliances"], "city": "Karlsruhe", "review_count": 3, "name": "Media Markt", "neighborhoods": [], "longitude": 8.37312, "state": "BW", "stars": 4.0, "latitude": 48.992, "attributes": {"Parking": {"garage": false, "validated": false, "street": false, "lot": false, "valet": false}, "Accepts Credit Cards": true, "Wheelchair Accessible": false, "Price Range": 2}, "type": "business"}
{"business_id": "eba6WF8cDN1TQ2_0rCkh4g", "full_address": "76131 Karlsruhe", "hours": {}, "open": true, "categories": ["Shopping", "Home & Garden", "Appliances"], "city": "Karlsruhe", "review_count": 4, "name": "Cafe Classico", "neighborhoods": [], "longitude": 8.4303821, "state": "BW", "stars": 4.5, "latitude": 49.0116951, "attributes": {"Parking": {"garage": false, "validated": false, "street": false, "lot": false, "valet": false}, "Accepts Credit Cards": false, "Price Range": 2}, "type": "business"}
{"business_id": "ujc_1tzKrEEPMv9oOSF3wA", "full_address": "Ettlinger Tor Platz 1\n76133 Karlsruhe", "hours": {"Monday": {"close": "20:00", "open": "10:00"}, "Tuesday": {"close": "20:00", "open": "10:00"}, "Friday": {"close": "20:00", "open": "10:00"}, "Wednesday": {"close": "20:00", "open": "10:00"}, "Thursday": {"close": "22:00", "open": "10:00"}, "Saturday": {"close": "20:00", "open": "10:00"}}, "open": true, "categories": ["Electronics", "Computers", "Shopping", "Home & Garden", "Appliances"], "city": "Karlsruhe", "review_count": 11, "name": "Media Markt", "neighborhoods": [], "longitude": 8.40251955605882, "state": "BW", "stars": 2.0, "latitude": 49.0060805453703, "attributes": {"Parking": {"garage": false, "validated": false, "street": false, "lot": false, "valet": false}, "Accepts Credit Cards": true, "Price Range": 4}, "type": "business"}
{"business_id": "4Khs0-ezl2mwtsW1NiNv0A", "full_address": "Unterweingartenfeld 4\n76135 Karlsruhe", "hours": {"Monday": {"close": "20:00", "open": "09:30"}, "Tuesday": {"close": "20:00", "open": "09:30"}, "Friday": {"close": "20:00", "open": "09:30"}, "Wednesday": {"close": "20:00", "open": "09:30"}, "Thursday": {"close": "20:00", "open": "09:30"}, "Saturday": {"close": "20:00", "open": "09:00"}}, "open": true, "categories": ["Electronics", "Computers", "Shopping", "Home & Garden", "Appliances"], "city": "Karlsruhe", "review_count": 3, "name": "Media Markt", "neighborhoods": [], "longitude": 8.37312, "state": "BW", "stars": 4.0, "latitude": 48.992, "attributes": {"Parking": {"garage": false, "validated": false, "street": false, "lot": false, "valet": false}, "Accepts Credit Cards": true, "Wheelchair Accessible": false, "Price Range": 2}, "type": "business"}
{"business_id": "eba6WF8cDN1TQ2_0rCkh4g", "full_address": "76131 Karlsruhe", "hours": {}, "open": true, "categories": ["Shopping", "Home & Garden", "Appliances"], "city": "Karlsruhe", "review_count": 4, "name": "Cafe Classico", "neighborhoods": [], "longitude": 8.4303821, "state": "BW", "stars": 4.5, "latitude": 49.0116951, "attributes": {"Parking": {"garage": false, "validated": false, "street": false, "lot": false, "valet": false}, "Accepts Credit Cards": false, "Price Range": 2}, "type": "business"}
{"business_id": "ujc_1tzKrEEPMv9oOSF3wA", "full_address": "Ettlinger Tor Platz 1\n76133 Karlsruhe", "hours": {"Monday": {"close": "20:00", "open": "10:00"}, "Tuesday": {"close": "20:00", "open": "10:00"}, "Friday": {"close": "20:00", "open": "10:00"}, "Wednesday": {"close": "20:00", "open": "10:00"}, "Thursday": {"close": "22:00", "open": "10:00"}, "Saturday": {"close": "20:00", "open": "10:00"}}, "open": true, "categories": ["Electronics", "Computers", "Shopping", "Home & Garden", "Appliances"], "city": "Karlsruhe", "review_count": 11, "name": "Media Markt", "neighborhoods": [], "longitude": 8.40251955605882, "state": "BW", "stars": 2.0, "latitude": 49.0060805453703, "attributes": {"Parking": {"garage": false, "validated": false, "street": false, "lot": false, "valet": false}, "Accepts Credit Cards": true, "Price Range": 4}, "type": "business"}
