{"business_id": "ll6IEuZo2hLh4PoAHjc6cA", "full_address": "Karlstr. 3-5\n76133 Karlsruhe", "hours": {"Monday": {"close": "19:00", "open": "11:00"}, "Tuesday": {"close": "19:00", "open": "11:00"}, "Friday": {"close": "19:00", "open": "11:00"}, "Wednesday": {"close": "19:00", "open": "11:00"}, "Thursday": {"close": "19:00", "open": "11:00"}, "Saturday": {"close": "19:00", "open": "11:00"}}, "open": true, "categories": ["Women's Clothing", "Fashion", "Shopping"], "city": "Karlsruhe", "review_count": 5, "name": "Kult-Industries", "neighborhoods": [], "longitude": 8.3953935, "state": "BW", "stars": 4.0, "latitude": 49.0116172, "attributes": {"Parking": {"garage": false, "validated": false, "street": false, "lot": false, "valet": false}, "Accepts Credit Cards": true, "Wheelchair Accessible": true, "Price Range": 3}, "type": "business"}
{"business_id": "UhT3MBAwJKEBXUxui8ggrg", "full_address": "Ettlinger-Tor-Platz  1\nim Ece\n76133 Karlsruhe", "hours": {}, "open": true, "categories": ["Women's Clothing", "Fashion", "Shopping"], "city": "Karlsruhe", "review_count": 3, "name": "Noa Noa", "neighborhoods": [], "longitude": 8.40278, "state": "BW", "stars": 2.5, "latitude": 49.006, "attributes": {"Price Range": 4}, "type": "business"}
{"business_id": "ll6IEuZo2hLh4PoAHjc6cA", "full_address": "Karlstr. 3-5\n76133 Karlsruhe", "hours": {"Monday": {"close": "19:00", "open": "11:00"}, "Tuesday": {"close": "19:00", "open": "11:00"}, "Friday": {"close": "19:00", "open": "11:00"}, "Wednesday": {"close": "19:00", "open": "11:00"}, "Thursday": {"close": "19:00", "open": "11:00"}, "Saturday": {"close": "19:00", "open": "11:00"}}, "open": true, "categories": ["Women's Clothing", "Fashion", "Shopping"], "city": "Karlsruhe", "review_count": 5, "name": "Kult-Industries", "neighborhoods": [], "longitude": 8.3953935, "state": "BW", "stars": 4.0, "latitude": 49.0116172, "attributes": {"Parking": {"garage": false, "validated": false, "street": false, "lot": false, "valet": false}, "Accepts Credit Cards": true, "Wheelchair Accessible": true, "Price Range": 3}, "type": "business"}
{"business_id": "UhT3MBAwJKEBXUxui8ggrg", "full_address": "Ettlinger-Tor-Platz  1\nim Ece\n76133 Karlsruhe", "hours": {}, "open": true, "categories": ["Women's Clothing", "Fashion", "Shopping"], "city": "Karlsruhe", "review_count": 3, "name": "Noa Noa", "neighborhoods": [], "longitude": 8.40278, "state": "BW", "stars": 2.5, "latitude": 49.006, "attributes": {"Price Range": 4}, "type": "business"}
{"business_id": "ll6IEuZo2hLh4PoAHjc6cA", "full_address": "Karlstr. 3-5\n76133 Karlsruhe", "hours": {"Monday": {"close": "19:00", "open": "11:00"}, "Tuesday": {"close": "19:00", "open": "11:00"}, "Friday": {"close": "19:00", "open": "11:00"}, "Wednesday": {"close": "19:00", "open": "11:00"}, "Thursday": {"close": "19:00", "open": "11:00"}, "Saturday": {"close": "19:00", "open": "11:00"}}, "open": true, "categories": ["Women's Clothing", "Fashion", "Shopping"], "city": "Karlsruhe", "review_count": 5, "name": "Kult-Industries", "neighborhoods": [], "longitude": 8.3953935, "state": "BW", "stars": 4.0, "latitude": 49.0116172, "attributes": {"Parking": {"garage": false, "validated": false, "street": false, "lot": false, "valet": false}, "Accepts Credit Cards": true, "Wheelchair Accessible": true, "Price Range": 3}, "type": "business"}
{"business_id": "UhT3MBAwJKEBXUxui8ggrg", "full_address": "Ettlinger-Tor-Platz  1\nim Ece\n76133 Karlsruhe", "hours": {}, "open": true, "categories": ["Women's Clothing", "Fashion", "Shopping"], "city": "Karlsruhe", "review_count": 3, "name": "Noa Noa", "neighborhoods": [], "longitude": 8.40278, "state": "BW", "stars": 2.5, "latitude": 49.006, "attributes": {"Price Range": 4}, "type": "business"}
{"business_id": "ll6IEuZo2hLh4PoAHjc6cA", "full_address": "Karlstr. 3-5\n76133 Karlsruhe", "hours": {"Monday": {"close": "19:00", "open": "11:00"}, "Tuesday": {"close": "19:00", "open": "11:00"}, "Friday": {"close": "19:00", "open": "11:00"}, "Wednesday": {"close": "19:00", "open": "11:00"}, "Thursday": {"close": "19:00", "open": "11:00"}, "Saturday": {"close": "19:00", "open": "11:00"}}, "open": true, "categories": ["Women's Clothing", "Fashion", "Shopping"], "city": "Karlsruhe", "review_count": 5, "name": "Kult-Industries", "neighborhoods": [], "longitude": 8.3953935, "state": "BW", "stars": 4.0, "latitude": 49.0116172, "attributes": {"Parking": {"garage": false, "validated": false, "street": false, "lot": false, "valet": false}, "Accepts Credit Cards": true, "Wheelchair Accessible": true, "Price Range": 3}, "type": "business"}
{"business_id": "UhT3MBAwJKEBXUxui8ggrg", "full_address": "Ettlinger-Tor-Platz  1\nim Ece\n76133 Karlsruhe", "hours": {}, "open": true, "categories": ["Women's Clothing", "Fashion", "Shopping"], "city": "Karlsruhe", "review_count": 3, "name": "Noa Noa", "neighborhoods": [], "longitude": 8.40278, "state": "BW", "stars": 2.5, "latitude": 49.006, "attributes": {"Price Range": 4}, "type": "business"}
{"business_id": "ll6IEuZo2hLh4PoAHjc6cA", "full_address": "Karlstr. 3-5\n76133 Karlsruhe", "hours": {"Monday": {"close": "19:00", "open": "11:00"}, "Tuesday": {"close": "19:00", "open": "11:00"}, "Friday": {"close": "19:00", "open": "11:00"}, "Wednesday": {"close": "19:00", "open": "11:00"}, "Thursday": {"close": "19:00", "open": "11:00"}, "Saturday": {"close": "19:00", "open": "11:00"}}, "open": true, "categories": ["Women's Clothing", "Fashion", "Shopping"], "city": "Karlsruhe", "review_count": 5, "name": "Kult-Industries", "neighborhoods": [], "longitude": 8.3953935, "state": "BW", "stars": 4.0, "latitude": 49.0116172, "attributes": {"Parking": {"garage": false, "validated": false, "street": false, "lot": false, "valet": false}, "Accepts Credit Cards": true, "Wheelchair Accessible": true, "Price Range": 3}, "type": "business"}
{"business_id": "UhT3MBAwJKEBXUxui8ggrg", "full_address": "Ettlinger-Tor-Platz  1\nim Ece\n76133 Karlsruhe", "hours": {}, "open": true, "categories": ["Women's Clothing", "Fashion", "Shopping"], "city": "Karlsruhe", "review_count": 3, "name": "Noa Noa", "neighborhoods": [], "longitude": 8.40278, "state": "BW", "stars": 2.5, "latitude": 49.006, "attributes": {"Price Range": 4}, "type": "business"}
{"business_id": "ll6IEuZo2hLh4PoAHjc6cA", "full_address": "Karlstr. 3-5\n76133 Karlsruhe", "hours": {"Monday": {"close": "19:00", "open": "11:00"}, "Tuesday": {"close": "19:00", "open": "11:00"}, "Friday": {"close": "19:00", "open": "11:00"}, "Wednesday": {"close": "19:00", "open": "11:00"}, "Thursday": {"close": "19:00", "open": "11:00"}, "Saturday": {"close": "19:00", "open": "11:00"}}, "open": true, "categories": ["Women's Clothing", "Fashion", "Shopping"], "city": "Karlsruhe", "review_count": 5, "name": "Kult-Industries", "neighborhoods": [], "longitude": 8.3953935, "state": "BW", "stars": 4.0, "latitude": 49.0116172, "attributes": {"Parking": {"garage": false, "validated": false, "street": false, "lot": false, "valet": false}, "Accepts Credit Cards": true, "Wheelchair Accessible": true, "Price Range": 3}, "type": "business"}
{"business_id": "UhT3MBAwJKEBXUxui8ggrg", "full_address": "Ettlinger-Tor-Platz  1\nim Ece\n76133 Karlsruhe", "hours": {}, "open": true, "categories": ["Women's Clothing", "Fashion", "Shopping"], "city": "Karlsruhe", "review_count": 3, "name": "Noa Noa", "neighborhoods": [], "longitude": 8.40278, "state": "BW", "stars": 2.5, "latitude": 49.006, "attributes": {"Price Range": 4}, "type": "business"}
