{"business_id": "A7Zrif-apG0Lt6ml1bXSsg", "full_address": "Eggensteiner Stra\u00dfe 52\n76297 Stutensee", "hours": {}, "open": true, "categories": ["Children's Clothing", "Fashion", "Shopping", "Mattresses", "Home & Garden", "Furniture Stores"], "city": "Stutensee", "review_count": 4, "name": "Naturversand Kirschke", "neighborhoods": [], "longitude": 8.4665991, "state": "BW", "stars": 3.5, "latitude": 49.0655226, "attributes": {}, "type": "business"}
{"business_id": "A7Zrif-apG0Lt6ml1bXSsg", "full_address": "Eggensteiner Stra\u00dfe 52\n76297 Stutensee", "hours": {}, "open": true, "categories": ["Children's Clothing", "Fashion", "Shopping", "Mattresses", "Home & Garden", "Furniture Stores"], "city": "Stutensee", "review_count": 4, "name": "Naturversand Kirschke", "neighborhoods": [], "longitude": 8.4665991, "state": "BW", "stars": 3.5, "latitude": 49.0655226, "attributes": {}, "type": "business"}
{"business_id": "A7Zrif-apG0Lt6ml1bXSsg", "full_address": "Eggensteiner Stra\u00dfe 52\n76297 Stutensee", "hours": {}, "open": true, "categories": ["Children's Clothing", "Fashion", "Shopping", "Mattresses", "Home & Garden", "Furniture Stores"], "city": "Stutensee", "review_count": 4, "name": "Naturversand Kirschke", "neighborhoods": [], "longitude": 8.4665991, "state": "BW", "stars": 3.5, "latitude": 49.0655226, "attributes": {}, "type": "business"}
{"business_id": "A7Zrif-apG0Lt6ml1bXSsg", "full_address": "Eggensteiner Stra\u00dfe 52\n76297 Stutensee", "hours": {}, "open": true, "categories": ["Children's Clothing", "Fashion", "Shopping", "Mattresses", "Home & Garden", "Furniture Stores"], "city": "Stutensee", "review_count": 4, "name": "Naturversand Kirschke", "neighborhoods": [], "longitude": 8.4665991, "state": "BW", "stars": 3.5, "latitude": 49.0655226, "attributes": {}, "type": "business"}
{"business_id": "A7Zrif-apG0Lt6ml1bXSsg", "full_address": "Eggensteiner Stra\u00dfe 52\n76297 Stutensee", "hours": {}, "open": true, "categories": ["Children's Clothing", "Fashion", "Shopping", "Mattresses", "Home & Garden", "Furniture Stores"], "city": "Stutensee", "review_count": 4, "name": "Naturversand Kirschke", "neighborhoods": [], "longitude": 8.4665991, "state": "BW", "stars": 3.5, "latitude": 49.0655226, "attributes": {}, "type": "business"}
{"business_id": "A7Zrif-apG0Lt6ml1bXSsg", "full_address": "Eggensteiner Stra\u00dfe 52\n76297 Stutensee", "hours": {}, "open": true, "categories": ["Children's Clothing", "Fashion", "Shopping", "Mattresses", "Home & Garden", "Furniture Stores"], "city": "Stutensee", "review_count": 4, "name": "Naturversand Kirschke", "neighborhoods": [], "longitude": 8.4665991, "state": "BW", "stars": 3.5, "latitude": 49.0655226, "attributes": {}, "type": "business"}
