{"business_id": "5bxJ4vlqgYcY4YphULphsQ", "full_address": "Gerwigstr. 41\n76131 Karlsruhe", "hours": {}, "open": true, "categories": ["Food", "Specialty Food", "Meat Shops"], "city": "Karlsruhe", "review_count": 5, "name": "Heinz B\u00e4\u00dfler", "neighborhoods": [], "longitude": 8.42966, "state": "BW", "stars": 3.5, "latitude": 49.0086, "attributes": {"Parking": {"garage": false, "validated": false, "street": false, "lot": false, "valet": false}, "Wheelchair Accessible": false, "Price Range": 1}, "type": "business"}
{"business_id": "VEa1bofX2Lx1Tucw0zEg3Q", "full_address": "Klauprechtstr. 25\n76137 Karlsruhe", "hours": {"Tuesday": {"close": "18:30", "open": "15:00"}, "Friday": {"close": "18:30", "open": "15:00"}, "Wednesday": {"close": "18:30", "open": "15:00"}, "Thursday": {"close": "18:30", "open": "15:00"}, "Saturday": {"close": "12:30", "open": "07:30"}}, "open": true, "categories": ["Food", "Specialty Food", "Caterers", "Meat Shops", "Event Planning & Services"], "city": "Karlsruhe", "review_count": 13, "name": "Metzgerei Heiko Brath", "neighborhoods": [], "longitude": 8.39112, "state": "BW", "stars": 5.0, "latitude": 49.0009, "attributes": {"Accepts Credit Cards": false, "Price Range": 2}, "type": "business"}
{"business_id": "PFEdj4zy3rD0wbHeEVaCDw", "full_address": "Schillerstr. 35\nUngarische Spezialit\u00e4ten\n76135 Karlsruhe", "hours": {}, "open": true, "categories": ["Food", "Specialty Food", "Meat Shops"], "city": "Karlsruhe", "review_count": 4, "name": "Fleischerfachgesch\u00e4ft Konrad Floc", "neighborhoods": [], "longitude": 8.3831667, "state": "BW", "stars": 5.0, "latitude": 48.9922913, "attributes": {"Parking": {"garage": false, "validated": false, "street": false, "lot": false, "valet": false}, "Wheelchair Accessible": false, "Price Range": 1}, "type": "business"}
{"business_id": "Jlj-EGnDvkcEpS3k2AX9QQ", "full_address": "N\u00fcrnberger Str. 11\n76199 Karlsruhe", "hours": {}, "open": true, "categories": ["Food", "Specialty Food", "Meat Shops"], "city": "Karlsruhe", "review_count": 3, "name": "Sack Metzgerei", "neighborhoods": [], "longitude": 8.40076, "state": "BW", "stars": 4.5, "latitude": 48.9846, "attributes": {"Price Range": 3}, "type": "business"}
{"business_id": "JxsRmp1bIRA9YAJYYrvFqg", "full_address": "Erbprinzenstr. 23\n76133 Karlsruhe", "hours": {}, "open": true, "categories": ["Food", "Specialty Food", "Meat Shops"], "city": "Karlsruhe", "review_count": 6, "name": "Metzgerei F\u00e4chergrill Alfred Windt", "neighborhoods": [], "longitude": 8.39761, "state": "BW", "stars": 4.0, "latitude": 49.0087, "attributes": {}, "type": "business"}
{"business_id": "hZQU4GhAG2WrJmNAZ0_gxg", "full_address": "Nelkenstr. 31\n76135 Karlsruhe", "hours": {"Monday": {"close": "18:00", "open": "15:00"}, "Tuesday": {"close": "18:00", "open": "15:00"}, "Friday": {"close": "18:00", "open": "15:00"}, "Wednesday": {"close": "13:00", "open": "08:00"}, "Thursday": {"close": "18:00", "open": "15:00"}, "Saturday": {"close": "13:00", "open": "08:00"}}, "open": true, "categories": ["Food", "Specialty Food", "Meat Shops"], "city": "Karlsruhe", "review_count": 10, "name": "Zehnbauer", "neighborhoods": [], "longitude": 8.37607, "state": "BW", "stars": 4.0, "latitude": 49.0086, "attributes": {"Price Range": 4}, "type": "business"}
{"business_id": "gD8p1LEbAwxtIQM5vrGBYw", "full_address": "Marktplatz 6\n76356 Weingarten", "hours": {}, "open": true, "categories": ["Food", "Specialty Food", "Meat Shops"], "city": "Weingarten", "review_count": 3, "name": "Metzgerei Wolfgang Dittes", "neighborhoods": [], "longitude": 8.5317, "state": "BW", "stars": 3.5, "latitude": 49.0514, "attributes": {"Parking": {"garage": false, "validated": false, "street": false, "lot": false, "valet": false}, "Wheelchair Accessible": true, "Price Range": 4}, "type": "business"}
{"business_id": "jDX_bbjZ-4qHyKY8IE2vvQ", "full_address": "Pfinztalstr. 13\n76227 Karlsruhe", "hours": {}, "open": true, "categories": ["Food", "Specialty Food", "Meat Shops"], "city": "Karlsruhe", "review_count": 4, "name": "Metzgerei Sack", "neighborhoods": [], "longitude": 8.4727895, "state": "BW", "stars": 5.0, "latitude": 48.9991, "attributes": {"Parking": {"garage": false, "street": false, "validated": false, "lot": false, "valet": false}, "Price Range": 3}, "type": "business"}
{"business_id": "vuczGNr6J88hTboUQQSh_w", "full_address": "Ettlinger-Tor-Platz 1\nErdgeschoss im Ece\n76133 Karlsruhe", "hours": {}, "open": true, "categories": ["Food", "Specialty Food", "Meat Shops"], "city": "Karlsruhe", "review_count": 5, "name": "Knolli - Chicken & Chips", "neighborhoods": [], "longitude": 8.393843, "state": "BW", "stars": 2.0, "latitude": 49.0067498, "attributes": {"Parking": {"garage": false, "street": false, "validated": false, "lot": false, "valet": false}, "Accepts Credit Cards": false, "Price Range": 1}, "type": "business"}
{"business_id": "QX4eqLqfkmBVPGQana7Y4g", "full_address": "Am Rathausplatz 3\n76356 Weingarten", "hours": {}, "open": true, "categories": ["Food", "Specialty Food", "Caterers", "Meat Shops", "Event Planning & Services"], "city": "Weingarten", "review_count": 7, "name": "Metzgerei Kunzmann", "neighborhoods": [], "longitude": 8.53058, "state": "BW", "stars": 4.5, "latitude": 49.052, "attributes": {"Wheelchair Accessible": true, "Price Range": 4}, "type": "business"}
{"business_id": "5bxJ4vlqgYcY4YphULphsQ", "full_address": "Gerwigstr. 41\n76131 Karlsruhe", "hours": {}, "open": true, "categories": ["Food", "Specialty Food", "Meat Shops"], "city": "Karlsruhe", "review_count": 5, "name": "Heinz B\u00e4\u00dfler", "neighborhoods": [], "longitude": 8.42966, "state": "BW", "stars": 3.5, "latitude": 49.0086, "attributes": {"Parking": {"garage": false, "validated": false, "street": false, "lot": false, "valet": false}, "Wheelchair Accessible": false, "Price Range": 1}, "type": "business"}
{"business_id": "VEa1bofX2Lx1Tucw0zEg3Q", "full_address": "Klauprechtstr. 25\n76137 Karlsruhe", "hours": {"Tuesday": {"close": "18:30", "open": "15:00"}, "Friday": {"close": "18:30", "open": "15:00"}, "Wednesday": {"close": "18:30", "open": "15:00"}, "Thursday": {"close": "18:30", "open": "15:00"}, "Saturday": {"close": "12:30", "open": "07:30"}}, "open": true, "categories": ["Food", "Specialty Food", "Caterers", "Meat Shops", "Event Planning & Services"], "city": "Karlsruhe", "review_count": 13, "name": "Metzgerei Heiko Brath", "neighborhoods": [], "longitude": 8.39112, "state": "BW", "stars": 5.0, "latitude": 49.0009, "attributes": {"Accepts Credit Cards": false, "Price Range": 2}, "type": "business"}
{"business_id": "PFEdj4zy3rD0wbHeEVaCDw", "full_address": "Schillerstr. 35\nUngarische Spezialit\u00e4ten\n76135 Karlsruhe", "hours": {}, "open": true, "categories": ["Food", "Specialty Food", "Meat Shops"], "city": "Karlsruhe", "review_count": 4, "name": "Fleischerfachgesch\u00e4ft Konrad Floc", "neighborhoods": [], "longitude": 8.3831667, "state": "BW", "stars": 5.0, "latitude": 48.9922913, "attributes": {"Parking": {"garage": false, "validated": false, "street": false, "lot": false, "valet": false}, "Wheelchair Accessible": false, "Price Range": 1}, "type": "business"}
{"business_id": "Jlj-EGnDvkcEpS3k2AX9QQ", "full_address": "N\u00fcrnberger Str. 11\n76199 Karlsruhe", "hours": {}, "open": true, "categories": ["Food", "Specialty Food", "Meat Shops"], "city": "Karlsruhe", "review_count": 3, "name": "Sack Metzgerei", "neighborhoods": [], "longitude": 8.40076, "state": "BW", "stars": 4.5, "latitude": 48.9846, "attributes": {"Price Range": 3}, "type": "business"}
{"business_id": "JxsRmp1bIRA9YAJYYrvFqg", "full_address": "Erbprinzenstr. 23\n76133 Karlsruhe", "hours": {}, "open": true, "categories": ["Food", "Specialty Food", "Meat Shops"], "city": "Karlsruhe", "review_count": 6, "name": "Metzgerei F\u00e4chergrill Alfred Windt", "neighborhoods": [], "longitude": 8.39761, "state": "BW", "stars": 4.0, "latitude": 49.0087, "attributes": {}, "type": "business"}
{"business_id": "hZQU4GhAG2WrJmNAZ0_gxg", "full_address": "Nelkenstr. 31\n76135 Karlsruhe", "hours": {"Monday": {"close": "18:00", "open": "15:00"}, "Tuesday": {"close": "18:00", "open": "15:00"}, "Friday": {"close": "18:00", "open": "15:00"}, "Wednesday": {"close": "13:00", "open": "08:00"}, "Thursday": {"close": "18:00", "open": "15:00"}, "Saturday": {"close": "13:00", "open": "08:00"}}, "open": true, "categories": ["Food", "Specialty Food", "Meat Shops"], "city": "Karlsruhe", "review_count": 10, "name": "Zehnbauer", "neighborhoods": [], "longitude": 8.37607, "state": "BW", "stars": 4.0, "latitude": 49.0086, "attributes": {"Price Range": 4}, "type": "business"}
{"business_id": "gD8p1LEbAwxtIQM5vrGBYw", "full_address": "Marktplatz 6\n76356 Weingarten", "hours": {}, "open": true, "categories": ["Food", "Specialty Food", "Meat Shops"], "city": "Weingarten", "review_count": 3, "name": "Metzgerei Wolfgang Dittes", "neighborhoods": [], "longitude": 8.5317, "state": "BW", "stars": 3.5, "latitude": 49.0514, "attributes": {"Parking": {"garage": false, "validated": false, "street": false, "lot": false, "valet": false}, "Wheelchair Accessible": true, "Price Range": 4}, "type": "business"}
{"business_id": "jDX_bbjZ-4qHyKY8IE2vvQ", "full_address": "Pfinztalstr. 13\n76227 Karlsruhe", "hours": {}, "open": true, "categories": ["Food", "Specialty Food", "Meat Shops"], "city": "Karlsruhe", "review_count": 4, "name": "Metzgerei Sack", "neighborhoods": [], "longitude": 8.4727895, "state": "BW", "stars": 5.0, "latitude": 48.9991, "attributes": {"Parking": {"garage": false, "street": false, "validated": false, "lot": false, "valet": false}, "Price Range": 3}, "type": "business"}
{"business_id": "vuczGNr6J88hTboUQQSh_w", "full_address": "Ettlinger-Tor-Platz 1\nErdgeschoss im Ece\n76133 Karlsruhe", "hours": {}, "open": true, "categories": ["Food", "Specialty Food", "Meat Shops"], "city": "Karlsruhe", "review_count": 5, "name": "Knolli - Chicken & Chips", "neighborhoods": [], "longitude": 8.393843, "state": "BW", "stars": 2.0, "latitude": 49.0067498, "attributes": {"Parking": {"garage": false, "street": false, "validated": false, "lot": false, "valet": false}, "Accepts Credit Cards": false, "Price Range": 1}, "type": "business"}
{"business_id": "QX4eqLqfkmBVPGQana7Y4g", "full_address": "Am Rathausplatz 3\n76356 Weingarten", "hours": {}, "open": true, "categories": ["Food", "Specialty Food", "Caterers", "Meat Shops", "Event Planning & Services"], "city": "Weingarten", "review_count": 7, "name": "Metzgerei Kunzmann", "neighborhoods": [], "longitude": 8.53058, "state": "BW", "stars": 4.5, "latitude": 49.052, "attributes": {"Wheelchair Accessible": true, "Price Range": 4}, "type": "business"}
{"business_id": "5bxJ4vlqgYcY4YphULphsQ", "full_address": "Gerwigstr. 41\n76131 Karlsruhe", "hours": {}, "open": true, "categories": ["Food", "Specialty Food", "Meat Shops"], "city": "Karlsruhe", "review_count": 5, "name": "Heinz B\u00e4\u00dfler", "neighborhoods": [], "longitude": 8.42966, "state": "BW", "stars": 3.5, "latitude": 49.0086, "attributes": {"Parking": {"garage": false, "validated": false, "street": false, "lot": false, "valet": false}, "Wheelchair Accessible": false, "Price Range": 1}, "type": "business"}
{"business_id": "VEa1bofX2Lx1Tucw0zEg3Q", "full_address": "Klauprechtstr. 25\n76137 Karlsruhe", "hours": {"Tuesday": {"close": "18:30", "open": "15:00"}, "Friday": {"close": "18:30", "open": "15:00"}, "Wednesday": {"close": "18:30", "open": "15:00"}, "Thursday": {"close": "18:30", "open": "15:00"}, "Saturday": {"close": "12:30", "open": "07:30"}}, "open": true, "categories": ["Food", "Specialty Food", "Caterers", "Meat Shops", "Event Planning & Services"], "city": "Karlsruhe", "review_count": 13, "name": "Metzgerei Heiko Brath", "neighborhoods": [], "longitude": 8.39112, "state": "BW", "stars": 5.0, "latitude": 49.0009, "attributes": {"Accepts Credit Cards": false, "Price Range": 2}, "type": "business"}
{"business_id": "PFEdj4zy3rD0wbHeEVaCDw", "full_address": "Schillerstr. 35\nUngarische Spezialit\u00e4ten\n76135 Karlsruhe", "hours": {}, "open": true, "categories": ["Food", "Specialty Food", "Meat Shops"], "city": "Karlsruhe", "review_count": 4, "name": "Fleischerfachgesch\u00e4ft Konrad Floc", "neighborhoods": [], "longitude": 8.3831667, "state": "BW", "stars": 5.0, "latitude": 48.9922913, "attributes": {"Parking": {"garage": false, "validated": false, "street": false, "lot": false, "valet": false}, "Wheelchair Accessible": false, "Price Range": 1}, "type": "business"}
{"business_id": "Jlj-EGnDvkcEpS3k2AX9QQ", "full_address": "N\u00fcrnberger Str. 11\n76199 Karlsruhe", "hours": {}, "open": true, "categories": ["Food", "Specialty Food", "Meat Shops"], "city": "Karlsruhe", "review_count": 3, "name": "Sack Metzgerei", "neighborhoods": [], "longitude": 8.40076, "state": "BW", "stars": 4.5, "latitude": 48.9846, "attributes": {"Price Range": 3}, "type": "business"}
{"business_id": "JxsRmp1bIRA9YAJYYrvFqg", "full_address": "Erbprinzenstr. 23\n76133 Karlsruhe", "hours": {}, "open": true, "categories": ["Food", "Specialty Food", "Meat Shops"], "city": "Karlsruhe", "review_count": 6, "name": "Metzgerei F\u00e4chergrill Alfred Windt", "neighborhoods": [], "longitude": 8.39761, "state": "BW", "stars": 4.0, "latitude": 49.0087, "attributes": {}, "type": "business"}
{"business_id": "hZQU4GhAG2WrJmNAZ0_gxg", "full_address": "Nelkenstr. 31\n76135 Karlsruhe", "hours": {"Monday": {"close": "18:00", "open": "15:00"}, "Tuesday": {"close": "18:00", "open": "15:00"}, "Friday": {"close": "18:00", "open": "15:00"}, "Wednesday": {"close": "13:00", "open": "08:00"}, "Thursday": {"close": "18:00", "open": "15:00"}, "Saturday": {"close": "13:00", "open": "08:00"}}, "open": true, "categories": ["Food", "Specialty Food", "Meat Shops"], "city": "Karlsruhe", "review_count": 10, "name": "Zehnbauer", "neighborhoods": [], "longitude": 8.37607, "state": "BW", "stars": 4.0, "latitude": 49.0086, "attributes": {"Price Range": 4}, "type": "business"}
{"business_id": "gD8p1LEbAwxtIQM5vrGBYw", "full_address": "Marktplatz 6\n76356 Weingarten", "hours": {}, "open": true, "categories": ["Food", "Specialty Food", "Meat Shops"], "city": "Weingarten", "review_count": 3, "name": "Metzgerei Wolfgang Dittes", "neighborhoods": [], "longitude": 8.5317, "state": "BW", "stars": 3.5, "latitude": 49.0514, "attributes": {"Parking": {"garage": false, "validated": false, "street": false, "lot": false, "valet": false}, "Wheelchair Accessible": true, "Price Range": 4}, "type": "business"}
{"business_id": "jDX_bbjZ-4qHyKY8IE2vvQ", "full_address": "Pfinztalstr. 13\n76227 Karlsruhe", "hours": {}, "open": true, "categories": ["Food", "Specialty Food", "Meat Shops"], "city": "Karlsruhe", "review_count": 4, "name": "Metzgerei Sack", "neighborhoods": [], "longitude": 8.4727895, "state": "BW", "stars": 5.0, "latitude": 48.9991, "attributes": {"Parking": {"garage": false, "street": false, "validated": false, "lot": false, "valet": false}, "Price Range": 3}, "type": "business"}
{"business_id": "vuczGNr6J88hTboUQQSh_w", "full_address": "Ettlinger-Tor-Platz 1\nErdgeschoss im Ece\n76133 Karlsruhe", "hours": {}, "open": true, "categories": ["Food", "Specialty Food", "Meat Shops"], "city": "Karlsruhe", "review_count": 5, "name": "Knolli - Chicken & Chips", "neighborhoods": [], "longitude": 8.393843, "state": "BW", "stars": 2.0, "latitude": 49.0067498, "attributes": {"Parking": {"garage": false, "street": false, "validated": false, "lot": false, "valet": false}, "Accepts Credit Cards": false, "Price Range": 1}, "type": "business"}
{"business_id": "QX4eqLqfkmBVPGQana7Y4g", "full_address": "Am Rathausplatz 3\n76356 Weingarten", "hours": {}, "open": true, "categories": ["Food", "Specialty Food", "Caterers", "Meat Shops", "Event Planning & Services"], "city": "Weingarten", "review_count": 7, "name": "Metzgerei Kunzmann", "neighborhoods": [], "longitude": 8.53058, "state": "BW", "stars": 4.5, "latitude": 49.052, "attributes": {"Wheelchair Accessible": true, "Price Range": 4}, "type": "business"}
{"business_id": "5bxJ4vlqgYcY4YphULphsQ", "full_address": "Gerwigstr. 41\n76131 Karlsruhe", "hours": {}, "open": true, "categories": ["Food", "Specialty Food", "Meat Shops"], "city": "Karlsruhe", "review_count": 5, "name": "Heinz B\u00e4\u00dfler", "neighborhoods": [], "longitude": 8.42966, "state": "BW", "stars": 3.5, "latitude": 49.0086, "attributes": {"Parking": {"garage": false, "validated": false, "street": false, "lot": false, "valet": false}, "Wheelchair Accessible": false, "Price Range": 1}, "type": "business"}
{"business_id": "VEa1bofX2Lx1Tucw0zEg3Q", "full_address": "Klauprechtstr. 25\n76137 Karlsruhe", "hours": {"Tuesday": {"close": "18:30", "open": "15:00"}, "Friday": {"close": "18:30", "open": "15:00"}, "Wednesday": {"close": "18:30", "open": "15:00"}, "Thursday": {"close": "18:30", "open": "15:00"}, "Saturday": {"close": "12:30", "open": "07:30"}}, "open": true, "categories": ["Food", "Specialty Food", "Caterers", "Meat Shops", "Event Planning & Services"], "city": "Karlsruhe", "review_count": 13, "name": "Metzgerei Heiko Brath", "neighborhoods": [], "longitude": 8.39112, "state": "BW", "stars": 5.0, "latitude": 49.0009, "attributes": {"Accepts Credit Cards": false, "Price Range": 2}, "type": "business"}
{"business_id": "PFEdj4zy3rD0wbHeEVaCDw", "full_address": "Schillerstr. 35\nUngarische Spezialit\u00e4ten\n76135 Karlsruhe", "hours": {}, "open": true, "categories": ["Food", "Specialty Food", "Meat Shops"], "city": "Karlsruhe", "review_count": 4, "name": "Fleischerfachgesch\u00e4ft Konrad Floc", "neighborhoods": [], "longitude": 8.3831667, "state": "BW", "stars": 5.0, "latitude": 48.9922913, "attributes": {"Parking": {"garage": false, "validated": false, "street": false, "lot": false, "valet": false}, "Wheelchair Accessible": false, "Price Range": 1}, "type": "business"}
{"business_id": "Jlj-EGnDvkcEpS3k2AX9QQ", "full_address": "N\u00fcrnberger Str. 11\n76199 Karlsruhe", "hours": {}, "open": true, "categories": ["Food", "Specialty Food", "Meat Shops"], "city": "Karlsruhe", "review_count": 3, "name": "Sack Metzgerei", "neighborhoods": [], "longitude": 8.40076, "state": "BW", "stars": 4.5, "latitude": 48.9846, "attributes": {"Price Range": 3}, "type": "business"}
{"business_id": "JxsRmp1bIRA9YAJYYrvFqg", "full_address": "Erbprinzenstr. 23\n76133 Karlsruhe", "hours": {}, "open": true, "categories": ["Food", "Specialty Food", "Meat Shops"], "city": "Karlsruhe", "review_count": 6, "name": "Metzgerei F\u00e4chergrill Alfred Windt", "neighborhoods": [], "longitude": 8.39761, "state": "BW", "stars": 4.0, "latitude": 49.0087, "attributes": {}, "type": "business"}
{"business_id": "hZQU4GhAG2WrJmNAZ0_gxg", "full_address": "Nelkenstr. 31\n76135 Karlsruhe", "hours": {"Monday": {"close": "18:00", "open": "15:00"}, "Tuesday": {"close": "18:00", "open": "15:00"}, "Friday": {"close": "18:00", "open": "15:00"}, "Wednesday": {"close": "13:00", "open": "08:00"}, "Thursday": {"close": "18:00", "open": "15:00"}, "Saturday": {"close": "13:00", "open": "08:00"}}, "open": true, "categories": ["Food", "Specialty Food", "Meat Shops"], "city": "Karlsruhe", "review_count": 10, "name": "Zehnbauer", "neighborhoods": [], "longitude": 8.37607, "state": "BW", "stars": 4.0, "latitude": 49.0086, "attributes": {"Price Range": 4}, "type": "business"}
{"business_id": "gD8p1LEbAwxtIQM5vrGBYw", "full_address": "Marktplatz 6\n76356 Weingarten", "hours": {}, "open": true, "categories": ["Food", "Specialty Food", "Meat Shops"], "city": "Weingarten", "review_count": 3, "name": "Metzgerei Wolfgang Dittes", "neighborhoods": [], "longitude": 8.5317, "state": "BW", "stars": 3.5, "latitude": 49.0514, "attributes": {"Parking": {"garage": false, "validated": false, "street": false, "lot": false, "valet": false}, "Wheelchair Accessible": true, "Price Range": 4}, "type": "business"}
{"business_id": "jDX_bbjZ-4qHyKY8IE2vvQ", "full_address": "Pfinztalstr. 13\n76227 Karlsruhe", "hours": {}, "open": true, "categories": ["Food", "Specialty Food", "Meat Shops"], "city": "Karlsruhe", "review_count": 4, "name": "Metzgerei Sack", "neighborhoods": [], "longitude": 8.4727895, "state": "BW", "stars": 5.0, "latitude": 48.9991, "attributes": {"Parking": {"garage": false, "street": false, "validated": false, "lot": false, "valet": false}, "Price Range": 3}, "type": "business"}
{"business_id": "vuczGNr6J88hTboUQQSh_w", "full_address": "Ettlinger-Tor-Platz 1\nErdgeschoss im Ece\n76133 Karlsruhe", "hours": {}, "open": true, "categories": ["Food", "Specialty Food", "Meat Shops"], "city": "Karlsruhe", "review_count": 5, "name": "Knolli - Chicken & Chips", "neighborhoods": [], "longitude": 8.393843, "state": "BW", "stars": 2.0, "latitude": 49.0067498, "attributes": {"Parking": {"garage": false, "street": false, "validated": false, "lot": false, "valet": false}, "Accepts Credit Cards": false, "Price Range": 1}, "type": "business"}
{"business_id": "QX4eqLqfkmBVPGQana7Y4g", "full_address": "Am Rathausplatz 3\n76356 Weingarten", "hours": {}, "open": true, "categories": ["Food", "Specialty Food", "Caterers", "Meat Shops", "Event Planning & Services"], "city": "Weingarten", "review_count": 7, "name": "Metzgerei Kunzmann", "neighborhoods": [], "longitude": 8.53058, "state": "BW", "stars": 4.5, "latitude": 49.052, "attributes": {"Wheelchair Accessible": true, "Price Range": 4}, "type": "business"}
{"business_id": "5bxJ4vlqgYcY4YphULphsQ", "full_address": "Gerwigstr. 41\n76131 Karlsruhe", "hours": {}, "open": true, "categories": ["Food", "Specialty Food", "Meat Shops"], "city": "Karlsruhe", "review_count": 5, "name": "Heinz B\u00e4\u00dfler", "neighborhoods": [], "longitude": 8.42966, "state": "BW", "stars": 3.5, "latitude": 49.0086, "attributes": {"Parking": {"garage": false, "validated": false, "street": false, "lot": false, "valet": false}, "Wheelchair Accessible": false, "Price Range": 1}, "type": "business"}
{"business_id": "VEa1bofX2Lx1Tucw0zEg3Q", "full_address": "Klauprechtstr. 25\n76137 Karlsruhe", "hours": {"Tuesday": {"close": "18:30", "open": "15:00"}, "Friday": {"close": "18:30", "open": "15:00"}, "Wednesday": {"close": "18:30", "open": "15:00"}, "Thursday": {"close": "18:30", "open": "15:00"}, "Saturday": {"close": "12:30", "open": "07:30"}}, "open": true, "categories": ["Food", "Specialty Food", "Caterers", "Meat Shops", "Event Planning & Services"], "city": "Karlsruhe", "review_count": 13, "name": "Metzgerei Heiko Brath", "neighborhoods": [], "longitude": 8.39112, "state": "BW", "stars": 5.0, "latitude": 49.0009, "attributes": {"Accepts Credit Cards": false, "Price Range": 2}, "type": "business"}
{"business_id": "PFEdj4zy3rD0wbHeEVaCDw", "full_address": "Schillerstr. 35\nUngarische Spezialit\u00e4ten\n76135 Karlsruhe", "hours": {}, "open": true, "categories": ["Food", "Specialty Food", "Meat Shops"], "city": "Karlsruhe", "review_count": 4, "name": "Fleischerfachgesch\u00e4ft Konrad Floc", "neighborhoods": [], "longitude": 8.3831667, "state": "BW", "stars": 5.0, "latitude": 48.9922913, "attributes": {"Parking": {"garage": false, "validated": false, "street": false, "lot": false, "valet": false}, "Wheelchair Accessible": false, "Price Range": 1}, "type": "business"}
{"business_id": "Jlj-EGnDvkcEpS3k2AX9QQ", "full_address": "N\u00fcrnberger Str. 11\n76199 Karlsruhe", "hours": {}, "open": true, "categories": ["Food", "Specialty Food", "Meat Shops"], "city": "Karlsruhe", "review_count": 3, "name": "Sack Metzgerei", "neighborhoods": [], "longitude": 8.40076, "state": "BW", "stars": 4.5, "latitude": 48.9846, "attributes": {"Price Range": 3}, "type": "business"}
{"business_id": "JxsRmp1bIRA9YAJYYrvFqg", "full_address": "Erbprinzenstr. 23\n76133 Karlsruhe", "hours": {}, "open": true, "categories": ["Food", "Specialty Food", "Meat Shops"], "city": "Karlsruhe", "review_count": 6, "name": "Metzgerei F\u00e4chergrill Alfred Windt", "neighborhoods": [], "longitude": 8.39761, "state": "BW", "stars": 4.0, "latitude": 49.0087, "attributes": {}, "type": "business"}
{"business_id": "hZQU4GhAG2WrJmNAZ0_gxg", "full_address": "Nelkenstr. 31\n76135 Karlsruhe", "hours": {"Monday": {"close": "18:00", "open": "15:00"}, "Tuesday": {"close": "18:00", "open": "15:00"}, "Friday": {"close": "18:00", "open": "15:00"}, "Wednesday": {"close": "13:00", "open": "08:00"}, "Thursday": {"close": "18:00", "open": "15:00"}, "Saturday": {"close": "13:00", "open": "08:00"}}, "open": true, "categories": ["Food", "Specialty Food", "Meat Shops"], "city": "Karlsruhe", "review_count": 10, "name": "Zehnbauer", "neighborhoods": [], "longitude": 8.37607, "state": "BW", "stars": 4.0, "latitude": 49.0086, "attributes": {"Price Range": 4}, "type": "business"}
{"business_id": "gD8p1LEbAwxtIQM5vrGBYw", "full_address": "Marktplatz 6\n76356 Weingarten", "hours": {}, "open": true, "categories": ["Food", "Specialty Food", "Meat Shops"], "city": "Weingarten", "review_count": 3, "name": "Metzgerei Wolfgang Dittes", "neighborhoods": [], "longitude": 8.5317, "state": "BW", "stars": 3.5, "latitude": 49.0514, "attributes": {"Parking": {"garage": false, "validated": false, "street": false, "lot": false, "valet": false}, "Wheelchair Accessible": true, "Price Range": 4}, "type": "business"}
{"business_id": "jDX_bbjZ-4qHyKY8IE2vvQ", "full_address": "Pfinztalstr. 13\n76227 Karlsruhe", "hours": {}, "open": true, "categories": ["Food", "Specialty Food", "Meat Shops"], "city": "Karlsruhe", "review_count": 4, "name": "Metzgerei Sack", "neighborhoods": [], "longitude": 8.4727895, "state": "BW", "stars": 5.0, "latitude": 48.9991, "attributes": {"Parking": {"garage": false, "street": false, "validated": false, "lot": false, "valet": false}, "Price Range": 3}, "type": "business"}
{"business_id": "vuczGNr6J88hTboUQQSh_w", "full_address": "Ettlinger-Tor-Platz 1\nErdgeschoss im Ece\n76133 Karlsruhe", "hours": {}, "open": true, "categories": ["Food", "Specialty Food", "Meat Shops"], "city": "Karlsruhe", "review_count": 5, "name": "Knolli - Chicken & Chips", "neighborhoods": [], "longitude": 8.393843, "state": "BW", "stars": 2.0, "latitude": 49.0067498, "attributes": {"Parking": {"garage": false, "street": false, "validated": false, "lot": false, "valet": false}, "Accepts Credit Cards": false, "Price Range": 1}, "type": "business"}
{"business_id": "QX4eqLqfkmBVPGQana7Y4g", "full_address": "Am Rathausplatz 3\n76356 Weingarten", "hours": {}, "open": true, "categories": ["Food", "Specialty Food", "Caterers", "Meat Shops", "Event Planning & Services"], "city": "Weingarten", "review_count": 7, "name": "Metzgerei Kunzmann", "neighborhoods": [], "longitude": 8.53058, "state": "BW", "stars": 4.5, "latitude": 49.052, "attributes": {"Wheelchair Accessible": true, "Price Range": 4}, "type": "business"}
{"business_id": "5bxJ4vlqgYcY4YphULphsQ", "full_address": "Gerwigstr. 41\n76131 Karlsruhe", "hours": {}, "open": true, "categories": ["Food", "Specialty Food", "Meat Shops"], "city": "Karlsruhe", "review_count": 5, "name": "Heinz B\u00e4\u00dfler", "neighborhoods": [], "longitude": 8.42966, "state": "BW", "stars": 3.5, "latitude": 49.0086, "attributes": {"Parking": {"garage": false, "validated": false, "street": false, "lot": false, "valet": false}, "Wheelchair Accessible": false, "Price Range": 1}, "type": "business"}
{"business_id": "VEa1bofX2Lx1Tucw0zEg3Q", "full_address": "Klauprechtstr. 25\n76137 Karlsruhe", "hours": {"Tuesday": {"close": "18:30", "open": "15:00"}, "Friday": {"close": "18:30", "open": "15:00"}, "Wednesday": {"close": "18:30", "open": "15:00"}, "Thursday": {"close": "18:30", "open": "15:00"}, "Saturday": {"close": "12:30", "open": "07:30"}}, "open": true, "categories": ["Food", "Specialty Food", "Caterers", "Meat Shops", "Event Planning & Services"], "city": "Karlsruhe", "review_count": 13, "name": "Metzgerei Heiko Brath", "neighborhoods": [], "longitude": 8.39112, "state": "BW", "stars": 5.0, "latitude": 49.0009, "attributes": {"Accepts Credit Cards": false, "Price Range": 2}, "type": "business"}
{"business_id": "PFEdj4zy3rD0wbHeEVaCDw", "full_address": "Schillerstr. 35\nUngarische Spezialit\u00e4ten\n76135 Karlsruhe", "hours": {}, "open": true, "categories": ["Food", "Specialty Food", "Meat Shops"], "city": "Karlsruhe", "review_count": 4, "name": "Fleischerfachgesch\u00e4ft Konrad Floc", "neighborhoods": [], "longitude": 8.3831667, "state": "BW", "stars": 5.0, "latitude": 48.9922913, "attributes": {"Parking": {"garage": false, "validated": false, "street": false, "lot": false, "valet": false}, "Wheelchair Accessible": false, "Price Range": 1}, "type": "business"}
{"business_id": "Jlj-EGnDvkcEpS3k2AX9QQ", "full_address": "N\u00fcrnberger Str. 11\n76199 Karlsruhe", "hours": {}, "open": true, "categories": ["Food", "Specialty Food", "Meat Shops"], "city": "Karlsruhe", "review_count": 3, "name": "Sack Metzgerei", "neighborhoods": [], "longitude": 8.40076, "state": "BW", "stars": 4.5, "latitude": 48.9846, "attributes": {"Price Range": 3}, "type": "business"}
{"business_id": "JxsRmp1bIRA9YAJYYrvFqg", "full_address": "Erbprinzenstr. 23\n76133 Karlsruhe", "hours": {}, "open": true, "categories": ["Food", "Specialty Food", "Meat Shops"], "city": "Karlsruhe", "review_count": 6, "name": "Metzgerei F\u00e4chergrill Alfred Windt", "neighborhoods": [], "longitude": 8.39761, "state": "BW", "stars": 4.0, "latitude": 49.0087, "attributes": {}, "type": "business"}
{"business_id": "hZQU4GhAG2WrJmNAZ0_gxg", "full_address": "Nelkenstr. 31\n76135 Karlsruhe", "hours": {"Monday": {"close": "18:00", "open": "15:00"}, "Tuesday": {"close": "18:00", "open": "15:00"}, "Friday": {"close": "18:00", "open": "15:00"}, "Wednesday": {"close": "13:00", "open": "08:00"}, "Thursday": {"close": "18:00", "open": "15:00"}, "Saturday": {"close": "13:00", "open": "08:00"}}, "open": true, "categories": ["Food", "Specialty Food", "Meat Shops"], "city": "Karlsruhe", "review_count": 10, "name": "Zehnbauer", "neighborhoods": [], "longitude": 8.37607, "state": "BW", "stars": 4.0, "latitude": 49.0086, "attributes": {"Price Range": 4}, "type": "business"}
{"business_id": "gD8p1LEbAwxtIQM5vrGBYw", "full_address": "Marktplatz 6\n76356 Weingarten", "hours": {}, "open": true, "categories": ["Food", "Specialty Food", "Meat Shops"], "city": "Weingarten", "review_count": 3, "name": "Metzgerei Wolfgang Dittes", "neighborhoods": [], "longitude": 8.5317, "state": "BW", "stars": 3.5, "latitude": 49.0514, "attributes": {"Parking": {"garage": false, "validated": false, "street": false, "lot": false, "valet": false}, "Wheelchair Accessible": true, "Price Range": 4}, "type": "business"}
{"business_id": "jDX_bbjZ-4qHyKY8IE2vvQ", "full_address": "Pfinztalstr. 13\n76227 Karlsruhe", "hours": {}, "open": true, "categories": ["Food", "Specialty Food", "Meat Shops"], "city": "Karlsruhe", "review_count": 4, "name": "Metzgerei Sack", "neighborhoods": [], "longitude": 8.4727895, "state": "BW", "stars": 5.0, "latitude": 48.9991, "attributes": {"Parking": {"garage": false, "street": false, "validated": false, "lot": false, "valet": false}, "Price Range": 3}, "type": "business"}
{"business_id": "vuczGNr6J88hTboUQQSh_w", "full_address": "Ettlinger-Tor-Platz 1\nErdgeschoss im Ece\n76133 Karlsruhe", "hours": {}, "open": true, "categories": ["Food", "Specialty Food", "Meat Shops"], "city": "Karlsruhe", "review_count": 5, "name": "Knolli - Chicken & Chips", "neighborhoods": [], "longitude": 8.393843, "state": "BW", "stars": 2.0, "latitude": 49.0067498, "attributes": {"Parking": {"garage": false, "street": false, "validated": false, "lot": false, "valet": false}, "Accepts Credit Cards": false, "Price Range": 1}, "type": "business"}
{"business_id": "QX4eqLqfkmBVPGQana7Y4g", "full_address": "Am Rathausplatz 3\n76356 Weingarten", "hours": {}, "open": true, "categories": ["Food", "Specialty Food", "Caterers", "Meat Shops", "Event Planning & Services"], "city": "Weingarten", "review_count": 7, "name": "Metzgerei Kunzmann", "neighborhoods": [], "longitude": 8.53058, "state": "BW", "stars": 4.5, "latitude": 49.052, "attributes": {"Wheelchair Accessible": true, "Price Range": 4}, "type": "business"}
