{"business_id": "6dOjMBKFbK3bRju_n4Tmog", "full_address": "S\u00fcdendstr. 32\n76137 Karlsruhe", "hours": {}, "open": true, "categories": ["Hospitals", "Medical Centers", "Health & Medical"], "city": "Karlsruhe", "review_count": 3, "name": "St. Vincentius-Kliniken gAG Medizinische Klinik I", "neighborhoods": [], "longitude": 8.38875, "state": "BW", "stars": 2.5, "latitude": 48.9994, "attributes": {"By Appointment Only": false}, "type": "business"}
{"business_id": "6dOjMBKFbK3bRju_n4Tmog", "full_address": "S\u00fcdendstr. 32\n76137 Karlsruhe", "hours": {}, "open": true, "categories": ["Hospitals", "Medical Centers", "Health & Medical"], "city": "Karlsruhe", "review_count": 3, "name": "St. Vincentius-Kliniken gAG Medizinische Klinik I", "neighborhoods": [], "longitude": 8.38875, "state": "BW", "stars": 2.5, "latitude": 48.9994, "attributes": {"By Appointment Only": false}, "type": "business"}
{"business_id": "6dOjMBKFbK3bRju_n4Tmog", "full_address": "S\u00fcdendstr. 32\n76137 Karlsruhe", "hours": {}, "open": true, "categories": ["Hospitals", "Medical Centers", "Health & Medical"], "city": "Karlsruhe", "review_count": 3, "name": "St. Vincentius-Kliniken gAG Medizinische Klinik I", "neighborhoods": [], "longitude": 8.38875, "state": "BW", "stars": 2.5, "latitude": 48.9994, "attributes": {"By Appointment Only": false}, "type": "business"}
{"business_id": "6dOjMBKFbK3bRju_n4Tmog", "full_address": "S\u00fcdendstr. 32\n76137 Karlsruhe", "hours": {}, "open": true, "categories": ["Hospitals", "Medical Centers", "Health & Medical"], "city": "Karlsruhe", "review_count": 3, "name": "St. Vincentius-Kliniken gAG Medizinische Klinik I", "neighborhoods": [], "longitude": 8.38875, "state": "BW", "stars": 2.5, "latitude": 48.9994, "attributes": {"By Appointment Only": false}, "type": "business"}
{"business_id": "6dOjMBKFbK3bRju_n4Tmog", "full_address": "S\u00fcdendstr. 32\n76137 Karlsruhe", "hours": {}, "open": true, "categories": ["Hospitals", "Medical Centers", "Health & Medical"], "city": "Karlsruhe", "review_count": 3, "name": "St. Vincentius-Kliniken gAG Medizinische Klinik I", "neighborhoods": [], "longitude": 8.38875, "state": "BW", "stars": 2.5, "latitude": 48.9994, "attributes": {"By Appointment Only": false}, "type": "business"}
{"business_id": "6dOjMBKFbK3bRju_n4Tmog", "full_address": "S\u00fcdendstr. 32\n76137 Karlsruhe", "hours": {}, "open": true, "categories": ["Hospitals", "Medical Centers", "Health & Medical"], "city": "Karlsruhe", "review_count": 3, "name": "St. Vincentius-Kliniken gAG Medizinische Klinik I", "neighborhoods": [], "longitude": 8.38875, "state": "BW", "stars": 2.5, "latitude": 48.9994, "attributes": {"By Appointment Only": false}, "type": "business"}
