{"business_id": "JFxYTyGxtmxZSCQAfkcD1Q", "full_address": "Bahnhofplatz 1a\n76137 Karlsruhe", "hours": {}, "open": true, "categories": ["Train Stations", "Hotels & Travel"], "city": "Karlsruhe", "review_count": 23, "name": "Karlsruhe Hauptbahnhof", "neighborhoods": [], "longitude": 8.40147, "state": "BW", "stars": 3.5, "latitude": 48.99435, "attributes": {}, "type": "business"}
{"business_id": "JFxYTyGxtmxZSCQAfkcD1Q", "full_address": "Bahnhofplatz 1a\n76137 Karlsruhe", "hours": {}, "open": true, "categories": ["Train Stations", "Hotels & Travel"], "city": "Karlsruhe", "review_count": 23, "name": "Karlsruhe Hauptbahnhof", "neighborhoods": [], "longitude": 8.40147, "state": "BW", "stars": 3.5, "latitude": 48.99435, "attributes": {}, "type": "business"}
{"business_id": "JFxYTyGxtmxZSCQAfkcD1Q", "full_address": "Bahnhofplatz 1a\n76137 Karlsruhe", "hours": {}, "open": true, "categories": ["Train Stations", "Hotels & Travel"], "city": "Karlsruhe", "review_count": 23, "name": "Karlsruhe Hauptbahnhof", "neighborhoods": [], "longitude": 8.40147, "state": "BW", "stars": 3.5, "latitude": 48.99435, "attributes": {}, "type": "business"}
{"business_id": "JFxYTyGxtmxZSCQAfkcD1Q", "full_address": "Bahnhofplatz 1a\n76137 Karlsruhe", "hours": {}, "open": true, "categories": ["Train Stations", "Hotels & Travel"], "city": "Karlsruhe", "review_count": 23, "name": "Karlsruhe Hauptbahnhof", "neighborhoods": [], "longitude": 8.40147, "state": "BW", "stars": 3.5, "latitude": 48.99435, "attributes": {}, "type": "business"}
{"business_id": "JFxYTyGxtmxZSCQAfkcD1Q", "full_address": "Bahnhofplatz 1a\n76137 Karlsruhe", "hours": {}, "open": true, "categories": ["Train Stations", "Hotels & Travel"], "city": "Karlsruhe", "review_count": 23, "name": "Karlsruhe Hauptbahnhof", "neighborhoods": [], "longitude": 8.40147, "state": "BW", "stars": 3.5, "latitude": 48.99435, "attributes": {}, "type": "business"}
{"business_id": "JFxYTyGxtmxZSCQAfkcD1Q", "full_address": "Bahnhofplatz 1a\n76137 Karlsruhe", "hours": {}, "open": true, "categories": ["Train Stations", "Hotels & Travel"], "city": "Karlsruhe", "review_count": 23, "name": "Karlsruhe Hauptbahnhof", "neighborhoods": [], "longitude": 8.40147, "state": "BW", "stars": 3.5, "latitude": 48.99435, "attributes": {}, "type": "business"}
