{"business_id": "7KaHhijkGVTvCBZ1hlV9Bw", "full_address": "Kriegsstr. 140\n76133 Karlsruhe", "hours": {}, "open": true, "categories": ["Doctors", "Health & Medical", "Internal Medicine"], "city": "Karlsruhe", "review_count": 3, "name": "Internisten Endokrinologische Praxis Carlo Sebastian Varma Zink", "neighborhoods": [], "longitude": 8.39421, "state": "BW", "stars": 2.5, "latitude": 49.0057, "attributes": {"Parking": {"garage": false, "validated": false, "street": false, "lot": false, "valet": false}}, "type": "business"}
{"business_id": "7J75VLZKDJhCypKjUAcFXQ", "full_address": "Leopoldstr. 40\n76275 Ettlingen", "hours": {}, "open": true, "categories": ["Dermatologists", "Doctors", "Health & Medical", "Internal Medicine"], "city": "Ettlingen", "review_count": 3, "name": "Dr. med. Andreas Kist", "neighborhoods": [], "longitude": 8.40789, "state": "BW", "stars": 3.5, "latitude": 48.94011, "attributes": {"Wheelchair Accessible": true, "Parking": {"garage": false, "validated": false, "street": false, "lot": false, "valet": false}}, "type": "business"}
{"business_id": "7KaHhijkGVTvCBZ1hlV9Bw", "full_address": "Kriegsstr. 140\n76133 Karlsruhe", "hours": {}, "open": true, "categories": ["Doctors", "Health & Medical", "Internal Medicine"], "city": "Karlsruhe", "review_count": 3, "name": "Internisten Endokrinologische Praxis Carlo Sebastian Varma Zink", "neighborhoods": [], "longitude": 8.39421, "state": "BW", "stars": 2.5, "latitude": 49.0057, "attributes": {"Parking": {"garage": false, "validated": false, "street": false, "lot": false, "valet": false}}, "type": "business"}
{"business_id": "7J75VLZKDJhCypKjUAcFXQ", "full_address": "Leopoldstr. 40\n76275 Ettlingen", "hours": {}, "open": true, "categories": ["Dermatologists", "Doctors", "Health & Medical", "Internal Medicine"], "city": "Ettlingen", "review_count": 3, "name": "Dr. med. Andreas Kist", "neighborhoods": [], "longitude": 8.40789, "state": "BW", "stars": 3.5, "latitude": 48.94011, "attributes": {"Wheelchair Accessible": true, "Parking": {"garage": false, "validated": false, "street": false, "lot": false, "valet": false}}, "type": "business"}
{"business_id": "7KaHhijkGVTvCBZ1hlV9Bw", "full_address": "Kriegsstr. 140\n76133 Karlsruhe", "hours": {}, "open": true, "categories": ["Doctors", "Health & Medical", "Internal Medicine"], "city": "Karlsruhe", "review_count": 3, "name": "Internisten Endokrinologische Praxis Carlo Sebastian Varma Zink", "neighborhoods": [], "longitude": 8.39421, "state": "BW", "stars": 2.5, "latitude": 49.0057, "attributes": {"Parking": {"garage": false, "validated": false, "street": false, "lot": false, "valet": false}}, "type": "business"}
{"business_id": "7J75VLZKDJhCypKjUAcFXQ", "full_address": "Leopoldstr. 40\n76275 Ettlingen", "hours": {}, "open": true, "categories": ["Dermatologists", "Doctors", "Health & Medical", "Internal Medicine"], "city": "Ettlingen", "review_count": 3, "name": "Dr. med. Andreas Kist", "neighborhoods": [], "longitude": 8.40789, "state": "BW", "stars": 3.5, "latitude": 48.94011, "attributes": {"Wheelchair Accessible": true, "Parking": {"garage": false, "validated": false, "street": false, "lot": false, "valet": false}}, "type": "business"}
{"business_id": "7KaHhijkGVTvCBZ1hlV9Bw", "full_address": "Kriegsstr. 140\n76133 Karlsruhe", "hours": {}, "open": true, "categories": ["Doctors", "Health & Medical", "Internal Medicine"], "city": "Karlsruhe", "review_count": 3, "name": "Internisten Endokrinologische Praxis Carlo Sebastian Varma Zink", "neighborhoods": [], "longitude": 8.39421, "state": "BW", "stars": 2.5, "latitude": 49.0057, "attributes": {"Parking": {"garage": false, "validated": false, "street": false, "lot": false, "valet": false}}, "type": "business"}
{"business_id": "7J75VLZKDJhCypKjUAcFXQ", "full_address": "Leopoldstr. 40\n76275 Ettlingen", "hours": {}, "open": true, "categories": ["Dermatologists", "Doctors", "Health & Medical", "Internal Medicine"], "city": "Ettlingen", "review_count": 3, "name": "Dr. med. Andreas Kist", "neighborhoods": [], "longitude": 8.40789, "state": "BW", "stars": 3.5, "latitude": 48.94011, "attributes": {"Wheelchair Accessible": true, "Parking": {"garage": false, "validated": false, "street": false, "lot": false, "valet": false}}, "type": "business"}
{"business_id": "7KaHhijkGVTvCBZ1hlV9Bw", "full_address": "Kriegsstr. 140\n76133 Karlsruhe", "hours": {}, "open": true, "categories": ["Doctors", "Health & Medical", "Internal Medicine"], "city": "Karlsruhe", "review_count": 3, "name": "Internisten Endokrinologische Praxis Carlo Sebastian Varma Zink", "neighborhoods": [], "longitude": 8.39421, "state": "BW", "stars": 2.5, "latitude": 49.0057, "attributes": {"Parking": {"garage": false, "validated": false, "street": false, "lot": false, "valet": false}}, "type": "business"}
{"business_id": "7J75VLZKDJhCypKjUAcFXQ", "full_address": "Leopoldstr. 40\n76275 Ettlingen", "hours": {}, "open": true, "categories": ["Dermatologists", "Doctors", "Health & Medical", "Internal Medicine"], "city": "Ettlingen", "review_count": 3, "name": "Dr. med. Andreas Kist", "neighborhoods": [], "longitude": 8.40789, "state": "BW", "stars": 3.5, "latitude": 48.94011, "attributes": {"Wheelchair Accessible": true, "Parking": {"garage": false, "validated": false, "street": false, "lot": false, "valet": false}}, "type": "business"}
{"business_id": "7KaHhijkGVTvCBZ1hlV9Bw", "full_address": "Kriegsstr. 140\n76133 Karlsruhe", "hours": {}, "open": true, "categories": ["Doctors", "Health & Medical", "Internal Medicine"], "city": "Karlsruhe", "review_count": 3, "name": "Internisten Endokrinologische Praxis Carlo Sebastian Varma Zink", "neighborhoods": [], "longitude": 8.39421, "state": "BW", "stars": 2.5, "latitude": 49.0057, "attributes": {"Parking": {"garage": false, "validated": false, "street": false, "lot": false, "valet": false}}, "type": "business"}
{"business_id": "7J75VLZKDJhCypKjUAcFXQ", "full_address": "Leopoldstr. 40\n76275 Ettlingen", "hours": {}, "open": true, "categories": ["Dermatologists", "Doctors", "Health & Medical", "Internal Medicine"], "city": "Ettlingen", "review_count": 3, "name": "Dr. med. Andreas Kist", "neighborhoods": [], "longitude": 8.40789, "state": "BW", "stars": 3.5, "latitude": 48.94011, "attributes": {"Wheelchair Accessible": true, "Parking": {"garage": false, "validated": false, "street": false, "lot": false, "valet": false}}, "type": "business"}
