{"business_id": "KrxtCW45J_5zfxbrrQK_VQ", "full_address": "Marktplatz\n76133 Karlsruhe", "hours": {}, "open": true, "categories": ["Active Life", "Landmarks & Historical Buildings", "Public Services & Government", "Public Plazas"], "city": "Karlsruhe", "review_count": 5, "name": "Marktplatz Karlsruhe", "neighborhoods": [], "longitude": 8.4040367603302, "state": "BW", "stars": 3.5, "latitude": 49.0094308313443, "attributes": {"Good for Kids": false}, "type": "business"}
{"business_id": "dozJSOv07AbrTDYWDKqE_g", "full_address": "Erbprinzenstr.\n76133 Karlsruhe", "hours": {}, "open": true, "categories": ["Churches", "Landmarks & Historical Buildings", "Public Services & Government", "Religious Organizations"], "city": "Karlsruhe", "review_count": 3, "name": "Katholische Stadtkirche St. Stephan", "neighborhoods": [], "longitude": 8.3987204, "state": "BW", "stars": 4.5, "latitude": 49.0084322, "attributes": {}, "type": "business"}
{"business_id": "eHrMM9fBLZAtGrU7yCNm-g", "full_address": "76131 Karlsruhe", "hours": {}, "open": true, "categories": ["Landmarks & Historical Buildings", "Public Services & Government"], "city": "Karlsruhe", "review_count": 4, "name": "Durlacher Tor", "neighborhoods": [], "longitude": 8.41772, "state": "BW", "stars": 3.0, "latitude": 49.0091, "attributes": {}, "type": "business"}
{"business_id": "Ey6Keed9-Sn-9t9PsBT2dQ", "full_address": "Werderplatz\n76137 Karlsruhe", "hours": {}, "open": true, "categories": ["Landmarks & Historical Buildings", "Public Services & Government"], "city": "Karlsruhe", "review_count": 11, "name": "Werderplatz", "neighborhoods": [], "longitude": 8.40807, "state": "BW", "stars": 4.0, "latitude": 49.0015, "attributes": {"Good for Kids": false, "Price Range": 1}, "type": "business"}
{"business_id": "iQpshLrII8DHUm5zJId0fQ", "full_address": "Waldstra\u00dfe 61\n76133 Karlsruhe", "hours": {}, "open": true, "categories": ["Landmarks & Historical Buildings", "Public Services & Government"], "city": "Karlsruhe", "review_count": 14, "name": "Ludwigsplatz", "neighborhoods": [], "longitude": 8.395907, "state": "BW", "stars": 4.5, "latitude": 49.0088115, "attributes": {}, "type": "business"}
{"business_id": "HvVAa7W0h7sRom6rYPB_Gw", "full_address": "76227 Karlsruhe", "hours": {}, "open": true, "categories": ["Landmarks & Historical Buildings", "Public Services & Government"], "city": "Karlsruhe", "review_count": 7, "name": "Turmberg", "neighborhoods": [], "longitude": 8.4743368, "state": "BW", "stars": 4.5, "latitude": 48.9881413, "attributes": {}, "type": "business"}
{"business_id": "KrxtCW45J_5zfxbrrQK_VQ", "full_address": "Marktplatz\n76133 Karlsruhe", "hours": {}, "open": true, "categories": ["Active Life", "Landmarks & Historical Buildings", "Public Services & Government", "Public Plazas"], "city": "Karlsruhe", "review_count": 5, "name": "Marktplatz Karlsruhe", "neighborhoods": [], "longitude": 8.4040367603302, "state": "BW", "stars": 3.5, "latitude": 49.0094308313443, "attributes": {"Good for Kids": false}, "type": "business"}
{"business_id": "dozJSOv07AbrTDYWDKqE_g", "full_address": "Erbprinzenstr.\n76133 Karlsruhe", "hours": {}, "open": true, "categories": ["Churches", "Landmarks & Historical Buildings", "Public Services & Government", "Religious Organizations"], "city": "Karlsruhe", "review_count": 3, "name": "Katholische Stadtkirche St. Stephan", "neighborhoods": [], "longitude": 8.3987204, "state": "BW", "stars": 4.5, "latitude": 49.0084322, "attributes": {}, "type": "business"}
{"business_id": "eHrMM9fBLZAtGrU7yCNm-g", "full_address": "76131 Karlsruhe", "hours": {}, "open": true, "categories": ["Landmarks & Historical Buildings", "Public Services & Government"], "city": "Karlsruhe", "review_count": 4, "name": "Durlacher Tor", "neighborhoods": [], "longitude": 8.41772, "state": "BW", "stars": 3.0, "latitude": 49.0091, "attributes": {}, "type": "business"}
{"business_id": "Ey6Keed9-Sn-9t9PsBT2dQ", "full_address": "Werderplatz\n76137 Karlsruhe", "hours": {}, "open": true, "categories": ["Landmarks & Historical Buildings", "Public Services & Government"], "city": "Karlsruhe", "review_count": 11, "name": "Werderplatz", "neighborhoods": [], "longitude": 8.40807, "state": "BW", "stars": 4.0, "latitude": 49.0015, "attributes": {"Good for Kids": false, "Price Range": 1}, "type": "business"}
{"business_id": "iQpshLrII8DHUm5zJId0fQ", "full_address": "Waldstra\u00dfe 61\n76133 Karlsruhe", "hours": {}, "open": true, "categories": ["Landmarks & Historical Buildings", "Public Services & Government"], "city": "Karlsruhe", "review_count": 14, "name": "Ludwigsplatz", "neighborhoods": [], "longitude": 8.395907, "state": "BW", "stars": 4.5, "latitude": 49.0088115, "attributes": {}, "type": "business"}
{"business_id": "HvVAa7W0h7sRom6rYPB_Gw", "full_address": "76227 Karlsruhe", "hours": {}, "open": true, "categories": ["Landmarks & Historical Buildings", "Public Services & Government"], "city": "Karlsruhe", "review_count": 7, "name": "Turmberg", "neighborhoods": [], "longitude": 8.4743368, "state": "BW", "stars": 4.5, "latitude": 48.9881413, "attributes": {}, "type": "business"}
{"business_id": "KrxtCW45J_5zfxbrrQK_VQ", "full_address": "Marktplatz\n76133 Karlsruhe", "hours": {}, "open": true, "categories": ["Active Life", "Landmarks & Historical Buildings", "Public Services & Government", "Public Plazas"], "city": "Karlsruhe", "review_count": 5, "name": "Marktplatz Karlsruhe", "neighborhoods": [], "longitude": 8.4040367603302, "state": "BW", "stars": 3.5, "latitude": 49.0094308313443, "attributes": {"Good for Kids": false}, "type": "business"}
{"business_id": "dozJSOv07AbrTDYWDKqE_g", "full_address": "Erbprinzenstr.\n76133 Karlsruhe", "hours": {}, "open": true, "categories": ["Churches", "Landmarks & Historical Buildings", "Public Services & Government", "Religious Organizations"], "city": "Karlsruhe", "review_count": 3, "name": "Katholische Stadtkirche St. Stephan", "neighborhoods": [], "longitude": 8.3987204, "state": "BW", "stars": 4.5, "latitude": 49.0084322, "attributes": {}, "type": "business"}
{"business_id": "eHrMM9fBLZAtGrU7yCNm-g", "full_address": "76131 Karlsruhe", "hours": {}, "open": true, "categories": ["Landmarks & Historical Buildings", "Public Services & Government"], "city": "Karlsruhe", "review_count": 4, "name": "Durlacher Tor", "neighborhoods": [], "longitude": 8.41772, "state": "BW", "stars": 3.0, "latitude": 49.0091, "attributes": {}, "type": "business"}
{"business_id": "Ey6Keed9-Sn-9t9PsBT2dQ", "full_address": "Werderplatz\n76137 Karlsruhe", "hours": {}, "open": true, "categories": ["Landmarks & Historical Buildings", "Public Services & Government"], "city": "Karlsruhe", "review_count": 11, "name": "Werderplatz", "neighborhoods": [], "longitude": 8.40807, "state": "BW", "stars": 4.0, "latitude": 49.0015, "attributes": {"Good for Kids": false, "Price Range": 1}, "type": "business"}
{"business_id": "iQpshLrII8DHUm5zJId0fQ", "full_address": "Waldstra\u00dfe 61\n76133 Karlsruhe", "hours": {}, "open": true, "categories": ["Landmarks & Historical Buildings", "Public Services & Government"], "city": "Karlsruhe", "review_count": 14, "name": "Ludwigsplatz", "neighborhoods": [], "longitude": 8.395907, "state": "BW", "stars": 4.5, "latitude": 49.0088115, "attributes": {}, "type": "business"}
{"business_id": "HvVAa7W0h7sRom6rYPB_Gw", "full_address": "76227 Karlsruhe", "hours": {}, "open": true, "categories": ["Landmarks & Historical Buildings", "Public Services & Government"], "city": "Karlsruhe", "review_count": 7, "name": "Turmberg", "neighborhoods": [], "longitude": 8.4743368, "state": "BW", "stars": 4.5, "latitude": 48.9881413, "attributes": {}, "type": "business"}
{"business_id": "KrxtCW45J_5zfxbrrQK_VQ", "full_address": "Marktplatz\n76133 Karlsruhe", "hours": {}, "open": true, "categories": ["Active Life", "Landmarks & Historical Buildings", "Public Services & Government", "Public Plazas"], "city": "Karlsruhe", "review_count": 5, "name": "Marktplatz Karlsruhe", "neighborhoods": [], "longitude": 8.4040367603302, "state": "BW", "stars": 3.5, "latitude": 49.0094308313443, "attributes": {"Good for Kids": false}, "type": "business"}
{"business_id": "dozJSOv07AbrTDYWDKqE_g", "full_address": "Erbprinzenstr.\n76133 Karlsruhe", "hours": {}, "open": true, "categories": ["Churches", "Landmarks & Historical Buildings", "Public Services & Government", "Religious Organizations"], "city": "Karlsruhe", "review_count": 3, "name": "Katholische Stadtkirche St. Stephan", "neighborhoods": [], "longitude": 8.3987204, "state": "BW", "stars": 4.5, "latitude": 49.0084322, "attributes": {}, "type": "business"}
{"business_id": "eHrMM9fBLZAtGrU7yCNm-g", "full_address": "76131 Karlsruhe", "hours": {}, "open": true, "categories": ["Landmarks & Historical Buildings", "Public Services & Government"], "city": "Karlsruhe", "review_count": 4, "name": "Durlacher Tor", "neighborhoods": [], "longitude": 8.41772, "state": "BW", "stars": 3.0, "latitude": 49.0091, "attributes": {}, "type": "business"}
{"business_id": "Ey6Keed9-Sn-9t9PsBT2dQ", "full_address": "Werderplatz\n76137 Karlsruhe", "hours": {}, "open": true, "categories": ["Landmarks & Historical Buildings", "Public Services & Government"], "city": "Karlsruhe", "review_count": 11, "name": "Werderplatz", "neighborhoods": [], "longitude": 8.40807, "state": "BW", "stars": 4.0, "latitude": 49.0015, "attributes": {"Good for Kids": false, "Price Range": 1}, "type": "business"}
{"business_id": "iQpshLrII8DHUm5zJId0fQ", "full_address": "Waldstra\u00dfe 61\n76133 Karlsruhe", "hours": {}, "open": true, "categories": ["Landmarks & Historical Buildings", "Public Services & Government"], "city": "Karlsruhe", "review_count": 14, "name": "Ludwigsplatz", "neighborhoods": [], "longitude": 8.395907, "state": "BW", "stars": 4.5, "latitude": 49.0088115, "attributes": {}, "type": "business"}
{"business_id": "HvVAa7W0h7sRom6rYPB_Gw", "full_address": "76227 Karlsruhe", "hours": {}, "open": true, "categories": ["Landmarks & Historical Buildings", "Public Services & Government"], "city": "Karlsruhe", "review_count": 7, "name": "Turmberg", "neighborhoods": [], "longitude": 8.4743368, "state": "BW", "stars": 4.5, "latitude": 48.9881413, "attributes": {}, "type": "business"}
{"business_id": "KrxtCW45J_5zfxbrrQK_VQ", "full_address": "Marktplatz\n76133 Karlsruhe", "hours": {}, "open": true, "categories": ["Active Life", "Landmarks & Historical Buildings", "Public Services & Government", "Public Plazas"], "city": "Karlsruhe", "review_count": 5, "name": "Marktplatz Karlsruhe", "neighborhoods": [], "longitude": 8.4040367603302, "state": "BW", "stars": 3.5, "latitude": 49.0094308313443, "attributes": {"Good for Kids": false}, "type": "business"}
{"business_id": "dozJSOv07AbrTDYWDKqE_g", "full_address": "Erbprinzenstr.\n76133 Karlsruhe", "hours": {}, "open": true, "categories": ["Churches", "Landmarks & Historical Buildings", "Public Services & Government", "Religious Organizations"], "city": "Karlsruhe", "review_count": 3, "name": "Katholische Stadtkirche St. Stephan", "neighborhoods": [], "longitude": 8.3987204, "state": "BW", "stars": 4.5, "latitude": 49.0084322, "attributes": {}, "type": "business"}
{"business_id": "eHrMM9fBLZAtGrU7yCNm-g", "full_address": "76131 Karlsruhe", "hours": {}, "open": true, "categories": ["Landmarks & Historical Buildings", "Public Services & Government"], "city": "Karlsruhe", "review_count": 4, "name": "Durlacher Tor", "neighborhoods": [], "longitude": 8.41772, "state": "BW", "stars": 3.0, "latitude": 49.0091, "attributes": {}, "type": "business"}
{"business_id": "Ey6Keed9-Sn-9t9PsBT2dQ", "full_address": "Werderplatz\n76137 Karlsruhe", "hours": {}, "open": true, "categories": ["Landmarks & Historical Buildings", "Public Services & Government"], "city": "Karlsruhe", "review_count": 11, "name": "Werderplatz", "neighborhoods": [], "longitude": 8.40807, "state": "BW", "stars": 4.0, "latitude": 49.0015, "attributes": {"Good for Kids": false, "Price Range": 1}, "type": "business"}
{"business_id": "iQpshLrII8DHUm5zJId0fQ", "full_address": "Waldstra\u00dfe 61\n76133 Karlsruhe", "hours": {}, "open": true, "categories": ["Landmarks & Historical Buildings", "Public Services & Government"], "city": "Karlsruhe", "review_count": 14, "name": "Ludwigsplatz", "neighborhoods": [], "longitude": 8.395907, "state": "BW", "stars": 4.5, "latitude": 49.0088115, "attributes": {}, "type": "business"}
{"business_id": "HvVAa7W0h7sRom6rYPB_Gw", "full_address": "76227 Karlsruhe", "hours": {}, "open": true, "categories": ["Landmarks & Historical Buildings", "Public Services & Government"], "city": "Karlsruhe", "review_count": 7, "name": "Turmberg", "neighborhoods": [], "longitude": 8.4743368, "state": "BW", "stars": 4.5, "latitude": 48.9881413, "attributes": {}, "type": "business"}
{"business_id": "KrxtCW45J_5zfxbrrQK_VQ", "full_address": "Marktplatz\n76133 Karlsruhe", "hours": {}, "open": true, "categories": ["Active Life", "Landmarks & Historical Buildings", "Public Services & Government", "Public Plazas"], "city": "Karlsruhe", "review_count": 5, "name": "Marktplatz Karlsruhe", "neighborhoods": [], "longitude": 8.4040367603302, "state": "BW", "stars": 3.5, "latitude": 49.0094308313443, "attributes": {"Good for Kids": false}, "type": "business"}
{"business_id": "dozJSOv07AbrTDYWDKqE_g", "full_address": "Erbprinzenstr.\n76133 Karlsruhe", "hours": {}, "open": true, "categories": ["Churches", "Landmarks & Historical Buildings", "Public Services & Government", "Religious Organizations"], "city": "Karlsruhe", "review_count": 3, "name": "Katholische Stadtkirche St. Stephan", "neighborhoods": [], "longitude": 8.3987204, "state": "BW", "stars": 4.5, "latitude": 49.0084322, "attributes": {}, "type": "business"}
{"business_id": "eHrMM9fBLZAtGrU7yCNm-g", "full_address": "76131 Karlsruhe", "hours": {}, "open": true, "categories": ["Landmarks & Historical Buildings", "Public Services & Government"], "city": "Karlsruhe", "review_count": 4, "name": "Durlacher Tor", "neighborhoods": [], "longitude": 8.41772, "state": "BW", "stars": 3.0, "latitude": 49.0091, "attributes": {}, "type": "business"}
{"business_id": "Ey6Keed9-Sn-9t9PsBT2dQ", "full_address": "Werderplatz\n76137 Karlsruhe", "hours": {}, "open": true, "categories": ["Landmarks & Historical Buildings", "Public Services & Government"], "city": "Karlsruhe", "review_count": 11, "name": "Werderplatz", "neighborhoods": [], "longitude": 8.40807, "state": "BW", "stars": 4.0, "latitude": 49.0015, "attributes": {"Good for Kids": false, "Price Range": 1}, "type": "business"}
{"business_id": "iQpshLrII8DHUm5zJId0fQ", "full_address": "Waldstra\u00dfe 61\n76133 Karlsruhe", "hours": {}, "open": true, "categories": ["Landmarks & Historical Buildings", "Public Services & Government"], "city": "Karlsruhe", "review_count": 14, "name": "Ludwigsplatz", "neighborhoods": [], "longitude": 8.395907, "state": "BW", "stars": 4.5, "latitude": 49.0088115, "attributes": {}, "type": "business"}
{"business_id": "HvVAa7W0h7sRom6rYPB_Gw", "full_address": "76227 Karlsruhe", "hours": {}, "open": true, "categories": ["Landmarks & Historical Buildings", "Public Services & Government"], "city": "Karlsruhe", "review_count": 7, "name": "Turmberg", "neighborhoods": [], "longitude": 8.4743368, "state": "BW", "stars": 4.5, "latitude": 48.9881413, "attributes": {}, "type": "business"}
