{"business_id": "t8WeSSHYuu2_UkHGl8kHyA", "full_address": "Kaiserpassage 16\n76133 Karlsruhe", "hours": {}, "open": true, "categories": ["Shopping", "Cosmetics & Beauty Supply", "Beauty & Spas"], "city": "Karlsruhe", "review_count": 5, "name": "Janson", "neighborhoods": [], "longitude": 8.39649, "state": "BW", "stars": 4.5, "latitude": 49.0109, "attributes": {"Price Range": 3}, "type": "business"}
{"business_id": "X3Tkf5L3966mwPL_FJ5d4g", "full_address": "Z\u00e4hringerstr. 47\n76133 Karlsruhe", "hours": {}, "open": true, "categories": ["Hair Salons", "Shopping", "Cosmetics & Beauty Supply", "Beauty & Spas"], "city": "Karlsruhe", "review_count": 3, "name": "Szenarium", "neighborhoods": [], "longitude": 8.40762, "state": "BW", "stars": 4.0, "latitude": 49.0088, "attributes": {"Accepts Credit Cards": false, "Wheelchair Accessible": true, "Price Range": 3}, "type": "business"}
{"business_id": "BOfs0NbVsCSiBAo1jb1Tvw", "full_address": "Luisenstr. 6\n76137 Karlsruhe", "hours": {"Monday": {"close": "18:30", "open": "15:00"}, "Tuesday": {"close": "18:30", "open": "15:00"}, "Friday": {"close": "18:30", "open": "15:00"}, "Wednesday": {"close": "18:30", "open": "15:00"}, "Thursday": {"close": "20:00", "open": "15:00"}, "Saturday": {"close": "16:00", "open": "09:00"}}, "open": true, "categories": ["Shopping", "Beauty & Spas", "Food", "Beer, Wine & Spirits", "Delicatessen", "Cosmetics & Beauty Supply"], "city": "Karlsruhe", "review_count": 3, "name": "Comestibles Espana", "neighborhoods": [], "longitude": 8.40439, "state": "BW", "stars": 4.5, "latitude": 49.0007, "attributes": {"Parking": {"garage": false, "validated": false, "street": false, "lot": false, "valet": false}, "Wheelchair Accessible": true, "Price Range": 2}, "type": "business"}
{"business_id": "qGKau05zpV-qnYmbDVJbnQ", "full_address": "EKZ Ettlinger Tor\nEttlinger-Tor-Platz 1\n76133 Karlsruhe", "hours": {}, "open": true, "categories": ["Perfume", "Shopping", "Cosmetics & Beauty Supply", "Beauty & Spas"], "city": "Karlsruhe", "review_count": 3, "name": "Parf\u00fcmerie Douglas", "neighborhoods": [], "longitude": 8.40208, "state": "BW", "stars": 3.5, "latitude": 49.0067, "attributes": {"Price Range": 2}, "type": "business"}
{"business_id": "PAyUvQEZcxrS9X2D9YiXwA", "full_address": "Markgrafenstrasse 36\nAm Lidellplatz im new hairstore\n76133 Karlsruhe", "hours": {"Monday": {"close": "20:00", "open": "10:00"}, "Tuesday": {"close": "20:00", "open": "10:00"}, "Friday": {"close": "20:00", "open": "10:00"}, "Wednesday": {"close": "20:00", "open": "10:00"}, "Thursday": {"close": "20:00", "open": "10:00"}, "Saturday": {"close": "16:00", "open": "10:00"}}, "open": true, "categories": ["Shopping", "Cosmetics & Beauty Supply", "Beauty & Spas"], "city": "Karlsruhe", "review_count": 7, "name": "Beauty Eye", "neighborhoods": [], "longitude": 8.4067408, "state": "BW", "stars": 5.0, "latitude": 49.007481, "attributes": {"Parking": {"garage": false, "validated": false, "street": false, "lot": false, "valet": false}, "Accepts Credit Cards": false, "Price Range": 3}, "type": "business"}
{"business_id": "uEj7DJDhz6QQfDtv8JE-Mg", "full_address": "Kaiserstr. 116\n76185 Karlsruhe", "hours": {}, "open": true, "categories": ["Shopping", "Cosmetics & Beauty Supply", "Beauty & Spas"], "city": "Karlsruhe", "review_count": 6, "name": "Lush", "neighborhoods": [], "longitude": 8.3682857, "state": "BW", "stars": 4.0, "latitude": 49.0111629, "attributes": {"By Appointment Only": false, "Parking": {"garage": false}, "Accepts Credit Cards": true, "Price Range": 2}, "type": "business"}
{"business_id": "t8WeSSHYuu2_UkHGl8kHyA", "full_address": "Kaiserpassage 16\n76133 Karlsruhe", "hours": {}, "open": true, "categories": ["Shopping", "Cosmetics & Beauty Supply", "Beauty & Spas"], "city": "Karlsruhe", "review_count": 5, "name": "Janson", "neighborhoods": [], "longitude": 8.39649, "state": "BW", "stars": 4.5, "latitude": 49.0109, "attributes": {"Price Range": 3}, "type": "business"}
{"business_id": "X3Tkf5L3966mwPL_FJ5d4g", "full_address": "Z\u00e4hringerstr. 47\n76133 Karlsruhe", "hours": {}, "open": true, "categories": ["Hair Salons", "Shopping", "Cosmetics & Beauty Supply", "Beauty & Spas"], "city": "Karlsruhe", "review_count": 3, "name": "Szenarium", "neighborhoods": [], "longitude": 8.40762, "state": "BW", "stars": 4.0, "latitude": 49.0088, "attributes": {"Accepts Credit Cards": false, "Wheelchair Accessible": true, "Price Range": 3}, "type": "business"}
{"business_id": "BOfs0NbVsCSiBAo1jb1Tvw", "full_address": "Luisenstr. 6\n76137 Karlsruhe", "hours": {"Monday": {"close": "18:30", "open": "15:00"}, "Tuesday": {"close": "18:30", "open": "15:00"}, "Friday": {"close": "18:30", "open": "15:00"}, "Wednesday": {"close": "18:30", "open": "15:00"}, "Thursday": {"close": "20:00", "open": "15:00"}, "Saturday": {"close": "16:00", "open": "09:00"}}, "open": true, "categories": ["Shopping", "Beauty & Spas", "Food", "Beer, Wine & Spirits", "Delicatessen", "Cosmetics & Beauty Supply"], "city": "Karlsruhe", "review_count": 3, "name": "Comestibles Espana", "neighborhoods": [], "longitude": 8.40439, "state": "BW", "stars": 4.5, "latitude": 49.0007, "attributes": {"Parking": {"garage": false, "validated": false, "street": false, "lot": false, "valet": false}, "Wheelchair Accessible": true, "Price Range": 2}, "type": "business"}
{"business_id": "qGKau05zpV-qnYmbDVJbnQ", "full_address": "EKZ Ettlinger Tor\nEttlinger-Tor-Platz 1\n76133 Karlsruhe", "hours": {}, "open": true, "categories": ["Perfume", "Shopping", "Cosmetics & Beauty Supply", "Beauty & Spas"], "city": "Karlsruhe", "review_count": 3, "name": "Parf\u00fcmerie Douglas", "neighborhoods": [], "longitude": 8.40208, "state": "BW", "stars": 3.5, "latitude": 49.0067, "attributes": {"Price Range": 2}, "type": "business"}
{"business_id": "PAyUvQEZcxrS9X2D9YiXwA", "full_address": "Markgrafenstrasse 36\nAm Lidellplatz im new hairstore\n76133 Karlsruhe", "hours": {"Monday": {"close": "20:00", "open": "10:00"}, "Tuesday": {"close": "20:00", "open": "10:00"}, "Friday": {"close": "20:00", "open": "10:00"}, "Wednesday": {"close": "20:00", "open": "10:00"}, "Thursday": {"close": "20:00", "open": "10:00"}, "Saturday": {"close": "16:00", "open": "10:00"}}, "open": true, "categories": ["Shopping", "Cosmetics & Beauty Supply", "Beauty & Spas"], "city": "Karlsruhe", "review_count": 7, "name": "Beauty Eye", "neighborhoods": [], "longitude": 8.4067408, "state": "BW", "stars": 5.0, "latitude": 49.007481, "attributes": {"Parking": {"garage": false, "validated": false, "street": false, "lot": false, "valet": false}, "Accepts Credit Cards": false, "Price Range": 3}, "type": "business"}
{"business_id": "uEj7DJDhz6QQfDtv8JE-Mg", "full_address": "Kaiserstr. 116\n76185 Karlsruhe", "hours": {}, "open": true, "categories": ["Shopping", "Cosmetics & Beauty Supply", "Beauty & Spas"], "city": "Karlsruhe", "review_count": 6, "name": "Lush", "neighborhoods": [], "longitude": 8.3682857, "state": "BW", "stars": 4.0, "latitude": 49.0111629, "attributes": {"By Appointment Only": false, "Parking": {"garage": false}, "Accepts Credit Cards": true, "Price Range": 2}, "type": "business"}
{"business_id": "t8WeSSHYuu2_UkHGl8kHyA", "full_address": "Kaiserpassage 16\n76133 Karlsruhe", "hours": {}, "open": true, "categories": ["Shopping", "Cosmetics & Beauty Supply", "Beauty & Spas"], "city": "Karlsruhe", "review_count": 5, "name": "Janson", "neighborhoods": [], "longitude": 8.39649, "state": "BW", "stars": 4.5, "latitude": 49.0109, "attributes": {"Price Range": 3}, "type": "business"}
{"business_id": "X3Tkf5L3966mwPL_FJ5d4g", "full_address": "Z\u00e4hringerstr. 47\n76133 Karlsruhe", "hours": {}, "open": true, "categories": ["Hair Salons", "Shopping", "Cosmetics & Beauty Supply", "Beauty & Spas"], "city": "Karlsruhe", "review_count": 3, "name": "Szenarium", "neighborhoods": [], "longitude": 8.40762, "state": "BW", "stars": 4.0, "latitude": 49.0088, "attributes": {"Accepts Credit Cards": false, "Wheelchair Accessible": true, "Price Range": 3}, "type": "business"}
{"business_id": "BOfs0NbVsCSiBAo1jb1Tvw", "full_address": "Luisenstr. 6\n76137 Karlsruhe", "hours": {"Monday": {"close": "18:30", "open": "15:00"}, "Tuesday": {"close": "18:30", "open": "15:00"}, "Friday": {"close": "18:30", "open": "15:00"}, "Wednesday": {"close": "18:30", "open": "15:00"}, "Thursday": {"close": "20:00", "open": "15:00"}, "Saturday": {"close": "16:00", "open": "09:00"}}, "open": true, "categories": ["Shopping", "Beauty & Spas", "Food", "Beer, Wine & Spirits", "Delicatessen", "Cosmetics & Beauty Supply"], "city": "Karlsruhe", "review_count": 3, "name": "Comestibles Espana", "neighborhoods": [], "longitude": 8.40439, "state": "BW", "stars": 4.5, "latitude": 49.0007, "attributes": {"Parking": {"garage": false, "validated": false, "street": false, "lot": false, "valet": false}, "Wheelchair Accessible": true, "Price Range": 2}, "type": "business"}
{"business_id": "qGKau05zpV-qnYmbDVJbnQ", "full_address": "EKZ Ettlinger Tor\nEttlinger-Tor-Platz 1\n76133 Karlsruhe", "hours": {}, "open": true, "categories": ["Perfume", "Shopping", "Cosmetics & Beauty Supply", "Beauty & Spas"], "city": "Karlsruhe", "review_count": 3, "name": "Parf\u00fcmerie Douglas", "neighborhoods": [], "longitude": 8.40208, "state": "BW", "stars": 3.5, "latitude": 49.0067, "attributes": {"Price Range": 2}, "type": "business"}
{"business_id": "PAyUvQEZcxrS9X2D9YiXwA", "full_address": "Markgrafenstrasse 36\nAm Lidellplatz im new hairstore\n76133 Karlsruhe", "hours": {"Monday": {"close": "20:00", "open": "10:00"}, "Tuesday": {"close": "20:00", "open": "10:00"}, "Friday": {"close": "20:00", "open": "10:00"}, "Wednesday": {"close": "20:00", "open": "10:00"}, "Thursday": {"close": "20:00", "open": "10:00"}, "Saturday": {"close": "16:00", "open": "10:00"}}, "open": true, "categories": ["Shopping", "Cosmetics & Beauty Supply", "Beauty & Spas"], "city": "Karlsruhe", "review_count": 7, "name": "Beauty Eye", "neighborhoods": [], "longitude": 8.4067408, "state": "BW", "stars": 5.0, "latitude": 49.007481, "attributes": {"Parking": {"garage": false, "validated": false, "street": false, "lot": false, "valet": false}, "Accepts Credit Cards": false, "Price Range": 3}, "type": "business"}
{"business_id": "uEj7DJDhz6QQfDtv8JE-Mg", "full_address": "Kaiserstr. 116\n76185 Karlsruhe", "hours": {}, "open": true, "categories": ["Shopping", "Cosmetics & Beauty Supply", "Beauty & Spas"], "city": "Karlsruhe", "review_count": 6, "name": "Lush", "neighborhoods": [], "longitude": 8.3682857, "state": "BW", "stars": 4.0, "latitude": 49.0111629, "attributes": {"By Appointment Only": false, "Parking": {"garage": false}, "Accepts Credit Cards": true, "Price Range": 2}, "type": "business"}
{"business_id": "t8WeSSHYuu2_UkHGl8kHyA", "full_address": "Kaiserpassage 16\n76133 Karlsruhe", "hours": {}, "open": true, "categories": ["Shopping", "Cosmetics & Beauty Supply", "Beauty & Spas"], "city": "Karlsruhe", "review_count": 5, "name": "Janson", "neighborhoods": [], "longitude": 8.39649, "state": "BW", "stars": 4.5, "latitude": 49.0109, "attributes": {"Price Range": 3}, "type": "business"}
{"business_id": "X3Tkf5L3966mwPL_FJ5d4g", "full_address": "Z\u00e4hringerstr. 47\n76133 Karlsruhe", "hours": {}, "open": true, "categories": ["Hair Salons", "Shopping", "Cosmetics & Beauty Supply", "Beauty & Spas"], "city": "Karlsruhe", "review_count": 3, "name": "Szenarium", "neighborhoods": [], "longitude": 8.40762, "state": "BW", "stars": 4.0, "latitude": 49.0088, "attributes": {"Accepts Credit Cards": false, "Wheelchair Accessible": true, "Price Range": 3}, "type": "business"}
{"business_id": "BOfs0NbVsCSiBAo1jb1Tvw", "full_address": "Luisenstr. 6\n76137 Karlsruhe", "hours": {"Monday": {"close": "18:30", "open": "15:00"}, "Tuesday": {"close": "18:30", "open": "15:00"}, "Friday": {"close": "18:30", "open": "15:00"}, "Wednesday": {"close": "18:30", "open": "15:00"}, "Thursday": {"close": "20:00", "open": "15:00"}, "Saturday": {"close": "16:00", "open": "09:00"}}, "open": true, "categories": ["Shopping", "Beauty & Spas", "Food", "Beer, Wine & Spirits", "Delicatessen", "Cosmetics & Beauty Supply"], "city": "Karlsruhe", "review_count": 3, "name": "Comestibles Espana", "neighborhoods": [], "longitude": 8.40439, "state": "BW", "stars": 4.5, "latitude": 49.0007, "attributes": {"Parking": {"garage": false, "validated": false, "street": false, "lot": false, "valet": false}, "Wheelchair Accessible": true, "Price Range": 2}, "type": "business"}
{"business_id": "qGKau05zpV-qnYmbDVJbnQ", "full_address": "EKZ Ettlinger Tor\nEttlinger-Tor-Platz 1\n76133 Karlsruhe", "hours": {}, "open": true, "categories": ["Perfume", "Shopping", "Cosmetics & Beauty Supply", "Beauty & Spas"], "city": "Karlsruhe", "review_count": 3, "name": "Parf\u00fcmerie Douglas", "neighborhoods": [], "longitude": 8.40208, "state": "BW", "stars": 3.5, "latitude": 49.0067, "attributes": {"Price Range": 2}, "type": "business"}
{"business_id": "PAyUvQEZcxrS9X2D9YiXwA", "full_address": "Markgrafenstrasse 36\nAm Lidellplatz im new hairstore\n76133 Karlsruhe", "hours": {"Monday": {"close": "20:00", "open": "10:00"}, "Tuesday": {"close": "20:00", "open": "10:00"}, "Friday": {"close": "20:00", "open": "10:00"}, "Wednesday": {"close": "20:00", "open": "10:00"}, "Thursday": {"close": "20:00", "open": "10:00"}, "Saturday": {"close": "16:00", "open": "10:00"}}, "open": true, "categories": ["Shopping", "Cosmetics & Beauty Supply", "Beauty & Spas"], "city": "Karlsruhe", "review_count": 7, "name": "Beauty Eye", "neighborhoods": [], "longitude": 8.4067408, "state": "BW", "stars": 5.0, "latitude": 49.007481, "attributes": {"Parking": {"garage": false, "validated": false, "street": false, "lot": false, "valet": false}, "Accepts Credit Cards": false, "Price Range": 3}, "type": "business"}
{"business_id": "uEj7DJDhz6QQfDtv8JE-Mg", "full_address": "Kaiserstr. 116\n76185 Karlsruhe", "hours": {}, "open": true, "categories": ["Shopping", "Cosmetics & Beauty Supply", "Beauty & Spas"], "city": "Karlsruhe", "review_count": 6, "name": "Lush", "neighborhoods": [], "longitude": 8.3682857, "state": "BW", "stars": 4.0, "latitude": 49.0111629, "attributes": {"By Appointment Only": false, "Parking": {"garage": false}, "Accepts Credit Cards": true, "Price Range": 2}, "type": "business"}
{"business_id": "t8WeSSHYuu2_UkHGl8kHyA", "full_address": "Kaiserpassage 16\n76133 Karlsruhe", "hours": {}, "open": true, "categories": ["Shopping", "Cosmetics & Beauty Supply", "Beauty & Spas"], "city": "Karlsruhe", "review_count": 5, "name": "Janson", "neighborhoods": [], "longitude": 8.39649, "state": "BW", "stars": 4.5, "latitude": 49.0109, "attributes": {"Price Range": 3}, "type": "business"}
{"business_id": "X3Tkf5L3966mwPL_FJ5d4g", "full_address": "Z\u00e4hringerstr. 47\n76133 Karlsruhe", "hours": {}, "open": true, "categories": ["Hair Salons", "Shopping", "Cosmetics & Beauty Supply", "Beauty & Spas"], "city": "Karlsruhe", "review_count": 3, "name": "Szenarium", "neighborhoods": [], "longitude": 8.40762, "state": "BW", "stars": 4.0, "latitude": 49.0088, "attributes": {"Accepts Credit Cards": false, "Wheelchair Accessible": true, "Price Range": 3}, "type": "business"}
{"business_id": "BOfs0NbVsCSiBAo1jb1Tvw", "full_address": "Luisenstr. 6\n76137 Karlsruhe", "hours": {"Monday": {"close": "18:30", "open": "15:00"}, "Tuesday": {"close": "18:30", "open": "15:00"}, "Friday": {"close": "18:30", "open": "15:00"}, "Wednesday": {"close": "18:30", "open": "15:00"}, "Thursday": {"close": "20:00", "open": "15:00"}, "Saturday": {"close": "16:00", "open": "09:00"}}, "open": true, "categories": ["Shopping", "Beauty & Spas", "Food", "Beer, Wine & Spirits", "Delicatessen", "Cosmetics & Beauty Supply"], "city": "Karlsruhe", "review_count": 3, "name": "Comestibles Espana", "neighborhoods": [], "longitude": 8.40439, "state": "BW", "stars": 4.5, "latitude": 49.0007, "attributes": {"Parking": {"garage": false, "validated": false, "street": false, "lot": false, "valet": false}, "Wheelchair Accessible": true, "Price Range": 2}, "type": "business"}
{"business_id": "qGKau05zpV-qnYmbDVJbnQ", "full_address": "EKZ Ettlinger Tor\nEttlinger-Tor-Platz 1\n76133 Karlsruhe", "hours": {}, "open": true, "categories": ["Perfume", "Shopping", "Cosmetics & Beauty Supply", "Beauty & Spas"], "city": "Karlsruhe", "review_count": 3, "name": "Parf\u00fcmerie Douglas", "neighborhoods": [], "longitude": 8.40208, "state": "BW", "stars": 3.5, "latitude": 49.0067, "attributes": {"Price Range": 2}, "type": "business"}
{"business_id": "PAyUvQEZcxrS9X2D9YiXwA", "full_address": "Markgrafenstrasse 36\nAm Lidellplatz im new hairstore\n76133 Karlsruhe", "hours": {"Monday": {"close": "20:00", "open": "10:00"}, "Tuesday": {"close": "20:00", "open": "10:00"}, "Friday": {"close": "20:00", "open": "10:00"}, "Wednesday": {"close": "20:00", "open": "10:00"}, "Thursday": {"close": "20:00", "open": "10:00"}, "Saturday": {"close": "16:00", "open": "10:00"}}, "open": true, "categories": ["Shopping", "Cosmetics & Beauty Supply", "Beauty & Spas"], "city": "Karlsruhe", "review_count": 7, "name": "Beauty Eye", "neighborhoods": [], "longitude": 8.4067408, "state": "BW", "stars": 5.0, "latitude": 49.007481, "attributes": {"Parking": {"garage": false, "validated": false, "street": false, "lot": false, "valet": false}, "Accepts Credit Cards": false, "Price Range": 3}, "type": "business"}
{"business_id": "uEj7DJDhz6QQfDtv8JE-Mg", "full_address": "Kaiserstr. 116\n76185 Karlsruhe", "hours": {}, "open": true, "categories": ["Shopping", "Cosmetics & Beauty Supply", "Beauty & Spas"], "city": "Karlsruhe", "review_count": 6, "name": "Lush", "neighborhoods": [], "longitude": 8.3682857, "state": "BW", "stars": 4.0, "latitude": 49.0111629, "attributes": {"By Appointment Only": false, "Parking": {"garage": false}, "Accepts Credit Cards": true, "Price Range": 2}, "type": "business"}
{"business_id": "t8WeSSHYuu2_UkHGl8kHyA", "full_address": "Kaiserpassage 16\n76133 Karlsruhe", "hours": {}, "open": true, "categories": ["Shopping", "Cosmetics & Beauty Supply", "Beauty & Spas"], "city": "Karlsruhe", "review_count": 5, "name": "Janson", "neighborhoods": [], "longitude": 8.39649, "state": "BW", "stars": 4.5, "latitude": 49.0109, "attributes": {"Price Range": 3}, "type": "business"}
{"business_id": "X3Tkf5L3966mwPL_FJ5d4g", "full_address": "Z\u00e4hringerstr. 47\n76133 Karlsruhe", "hours": {}, "open": true, "categories": ["Hair Salons", "Shopping", "Cosmetics & Beauty Supply", "Beauty & Spas"], "city": "Karlsruhe", "review_count": 3, "name": "Szenarium", "neighborhoods": [], "longitude": 8.40762, "state": "BW", "stars": 4.0, "latitude": 49.0088, "attributes": {"Accepts Credit Cards": false, "Wheelchair Accessible": true, "Price Range": 3}, "type": "business"}
{"business_id": "BOfs0NbVsCSiBAo1jb1Tvw", "full_address": "Luisenstr. 6\n76137 Karlsruhe", "hours": {"Monday": {"close": "18:30", "open": "15:00"}, "Tuesday": {"close": "18:30", "open": "15:00"}, "Friday": {"close": "18:30", "open": "15:00"}, "Wednesday": {"close": "18:30", "open": "15:00"}, "Thursday": {"close": "20:00", "open": "15:00"}, "Saturday": {"close": "16:00", "open": "09:00"}}, "open": true, "categories": ["Shopping", "Beauty & Spas", "Food", "Beer, Wine & Spirits", "Delicatessen", "Cosmetics & Beauty Supply"], "city": "Karlsruhe", "review_count": 3, "name": "Comestibles Espana", "neighborhoods": [], "longitude": 8.40439, "state": "BW", "stars": 4.5, "latitude": 49.0007, "attributes": {"Parking": {"garage": false, "validated": false, "street": false, "lot": false, "valet": false}, "Wheelchair Accessible": true, "Price Range": 2}, "type": "business"}
{"business_id": "qGKau05zpV-qnYmbDVJbnQ", "full_address": "EKZ Ettlinger Tor\nEttlinger-Tor-Platz 1\n76133 Karlsruhe", "hours": {}, "open": true, "categories": ["Perfume", "Shopping", "Cosmetics & Beauty Supply", "Beauty & Spas"], "city": "Karlsruhe", "review_count": 3, "name": "Parf\u00fcmerie Douglas", "neighborhoods": [], "longitude": 8.40208, "state": "BW", "stars": 3.5, "latitude": 49.0067, "attributes": {"Price Range": 2}, "type": "business"}
{"business_id": "PAyUvQEZcxrS9X2D9YiXwA", "full_address": "Markgrafenstrasse 36\nAm Lidellplatz im new hairstore\n76133 Karlsruhe", "hours": {"Monday": {"close": "20:00", "open": "10:00"}, "Tuesday": {"close": "20:00", "open": "10:00"}, "Friday": {"close": "20:00", "open": "10:00"}, "Wednesday": {"close": "20:00", "open": "10:00"}, "Thursday": {"close": "20:00", "open": "10:00"}, "Saturday": {"close": "16:00", "open": "10:00"}}, "open": true, "categories": ["Shopping", "Cosmetics & Beauty Supply", "Beauty & Spas"], "city": "Karlsruhe", "review_count": 7, "name": "Beauty Eye", "neighborhoods": [], "longitude": 8.4067408, "state": "BW", "stars": 5.0, "latitude": 49.007481, "attributes": {"Parking": {"garage": false, "validated": false, "street": false, "lot": false, "valet": false}, "Accepts Credit Cards": false, "Price Range": 3}, "type": "business"}
{"business_id": "uEj7DJDhz6QQfDtv8JE-Mg", "full_address": "Kaiserstr. 116\n76185 Karlsruhe", "hours": {}, "open": true, "categories": ["Shopping", "Cosmetics & Beauty Supply", "Beauty & Spas"], "city": "Karlsruhe", "review_count": 6, "name": "Lush", "neighborhoods": [], "longitude": 8.3682857, "state": "BW", "stars": 4.0, "latitude": 49.0111629, "attributes": {"By Appointment Only": false, "Parking": {"garage": false}, "Accepts Credit Cards": true, "Price Range": 2}, "type": "business"}
