{"business_id": "MVmfa8PxHyyHiEGI3MqlSQ", "full_address": "Waldstr. 22\n76133 Karlsruhe", "hours": {"Monday": {"close": "19:00", "open": "09:30"}, "Tuesday": {"close": "19:00", "open": "09:30"}, "Friday": {"close": "19:00", "open": "09:30"}, "Wednesday": {"close": "19:00", "open": "09:30"}, "Thursday": {"close": "19:00", "open": "09:30"}, "Saturday": {"close": "18:00", "open": "10:00"}}, "open": true, "categories": ["Food", "Tea Rooms", "Flowers & Gifts", "Gift Shops", "Shopping"], "city": "Karlsruhe", "review_count": 8, "name": "Wilkendorf's Teehaus", "neighborhoods": [], "longitude": 8.39823753028566, "state": "BW", "stars": 4.0, "latitude": 49.0104879609251, "attributes": {"Parking": {"garage": false, "street": false, "validated": false, "lot": false, "valet": false}, "Accepts Credit Cards": true, "Wheelchair Accessible": true, "Wi-Fi": "no", "Price Range": 3}, "type": "business"}
{"business_id": "HysgvS37Z-XMqL2G9FmsQQ", "full_address": "Kaiserstr. 215\n76133 Karlsruhe", "hours": {}, "open": true, "categories": ["Coffee & Tea", "Shopping", "Food", "Tea Rooms", "Gift Shops", "Flowers & Gifts"], "city": "Karlsruhe", "review_count": 11, "name": "TeeGschwendner Isabel Andony", "neighborhoods": [], "longitude": 8.39524, "state": "BW", "stars": 5.0, "latitude": 49.0098, "attributes": {"Parking": {"garage": false, "street": false, "validated": false, "lot": false, "valet": false}, "Accepts Credit Cards": true, "Wi-Fi": "no", "Outdoor Seating": false, "Price Range": 2}, "type": "business"}
{"business_id": "Ii03xj1XMhwFBOYfE2AHBQ", "full_address": "Karlstr. 4\n76133 Karlsruhe", "hours": {"Monday": {"close": "21:00", "open": "11:00"}, "Tuesday": {"close": "21:00", "open": "11:00"}, "Friday": {"close": "22:00", "open": "11:00"}, "Wednesday": {"close": "21:00", "open": "11:00"}, "Thursday": {"close": "21:00", "open": "11:00"}, "Sunday": {"close": "22:00", "open": "11:00"}, "Saturday": {"close": "22:00", "open": "11:00"}}, "open": true, "categories": ["Food", "Tea Rooms"], "city": "Karlsruhe", "review_count": 5, "name": "Bobar", "neighborhoods": [], "longitude": 8.3950411, "state": "BW", "stars": 5.0, "latitude": 49.0115582, "attributes": {}, "type": "business"}
{"business_id": "MVmfa8PxHyyHiEGI3MqlSQ", "full_address": "Waldstr. 22\n76133 Karlsruhe", "hours": {"Monday": {"close": "19:00", "open": "09:30"}, "Tuesday": {"close": "19:00", "open": "09:30"}, "Friday": {"close": "19:00", "open": "09:30"}, "Wednesday": {"close": "19:00", "open": "09:30"}, "Thursday": {"close": "19:00", "open": "09:30"}, "Saturday": {"close": "18:00", "open": "10:00"}}, "open": true, "categories": ["Food", "Tea Rooms", "Flowers & Gifts", "Gift Shops", "Shopping"], "city": "Karlsruhe", "review_count": 8, "name": "Wilkendorf's Teehaus", "neighborhoods": [], "longitude": 8.39823753028566, "state": "BW", "stars": 4.0, "latitude": 49.0104879609251, "attributes": {"Parking": {"garage": false, "street": false, "validated": false, "lot": false, "valet": false}, "Accepts Credit Cards": true, "Wheelchair Accessible": true, "Wi-Fi": "no", "Price Range": 3}, "type": "business"}
{"business_id": "HysgvS37Z-XMqL2G9FmsQQ", "full_address": "Kaiserstr. 215\n76133 Karlsruhe", "hours": {}, "open": true, "categories": ["Coffee & Tea", "Shopping", "Food", "Tea Rooms", "Gift Shops", "Flowers & Gifts"], "city": "Karlsruhe", "review_count": 11, "name": "TeeGschwendner Isabel Andony", "neighborhoods": [], "longitude": 8.39524, "state": "BW", "stars": 5.0, "latitude": 49.0098, "attributes": {"Parking": {"garage": false, "street": false, "validated": false, "lot": false, "valet": false}, "Accepts Credit Cards": true, "Wi-Fi": "no", "Outdoor Seating": false, "Price Range": 2}, "type": "business"}
{"business_id": "Ii03xj1XMhwFBOYfE2AHBQ", "full_address": "Karlstr. 4\n76133 Karlsruhe", "hours": {"Monday": {"close": "21:00", "open": "11:00"}, "Tuesday": {"close": "21:00", "open": "11:00"}, "Friday": {"close": "22:00", "open": "11:00"}, "Wednesday": {"close": "21:00", "open": "11:00"}, "Thursday": {"close": "21:00", "open": "11:00"}, "Sunday": {"close": "22:00", "open": "11:00"}, "Saturday": {"close": "22:00", "open": "11:00"}}, "open": true, "categories": ["Food", "Tea Rooms"], "city": "Karlsruhe", "review_count": 5, "name": "Bobar", "neighborhoods": [], "longitude": 8.3950411, "state": "BW", "stars": 5.0, "latitude": 49.0115582, "attributes": {}, "type": "business"}
{"business_id": "MVmfa8PxHyyHiEGI3MqlSQ", "full_address": "Waldstr. 22\n76133 Karlsruhe", "hours": {"Monday": {"close": "19:00", "open": "09:30"}, "Tuesday": {"close": "19:00", "open": "09:30"}, "Friday": {"close": "19:00", "open": "09:30"}, "Wednesday": {"close": "19:00", "open": "09:30"}, "Thursday": {"close": "19:00", "open": "09:30"}, "Saturday": {"close": "18:00", "open": "10:00"}}, "open": true, "categories": ["Food", "Tea Rooms", "Flowers & Gifts", "Gift Shops", "Shopping"], "city": "Karlsruhe", "review_count": 8, "name": "Wilkendorf's Teehaus", "neighborhoods": [], "longitude": 8.39823753028566, "state": "BW", "stars": 4.0, "latitude": 49.0104879609251, "attributes": {"Parking": {"garage": false, "street": false, "validated": false, "lot": false, "valet": false}, "Accepts Credit Cards": true, "Wheelchair Accessible": true, "Wi-Fi": "no", "Price Range": 3}, "type": "business"}
{"business_id": "HysgvS37Z-XMqL2G9FmsQQ", "full_address": "Kaiserstr. 215\n76133 Karlsruhe", "hours": {}, "open": true, "categories": ["Coffee & Tea", "Shopping", "Food", "Tea Rooms", "Gift Shops", "Flowers & Gifts"], "city": "Karlsruhe", "review_count": 11, "name": "TeeGschwendner Isabel Andony", "neighborhoods": [], "longitude": 8.39524, "state": "BW", "stars": 5.0, "latitude": 49.0098, "attributes": {"Parking": {"garage": false, "street": false, "validated": false, "lot": false, "valet": false}, "Accepts Credit Cards": true, "Wi-Fi": "no", "Outdoor Seating": false, "Price Range": 2}, "type": "business"}
{"business_id": "Ii03xj1XMhwFBOYfE2AHBQ", "full_address": "Karlstr. 4\n76133 Karlsruhe", "hours": {"Monday": {"close": "21:00", "open": "11:00"}, "Tuesday": {"close": "21:00", "open": "11:00"}, "Friday": {"close": "22:00", "open": "11:00"}, "Wednesday": {"close": "21:00", "open": "11:00"}, "Thursday": {"close": "21:00", "open": "11:00"}, "Sunday": {"close": "22:00", "open": "11:00"}, "Saturday": {"close": "22:00", "open": "11:00"}}, "open": true, "categories": ["Food", "Tea Rooms"], "city": "Karlsruhe", "review_count": 5, "name": "Bobar", "neighborhoods": [], "longitude": 8.3950411, "state": "BW", "stars": 5.0, "latitude": 49.0115582, "attributes": {}, "type": "business"}
{"business_id": "MVmfa8PxHyyHiEGI3MqlSQ", "full_address": "Waldstr. 22\n76133 Karlsruhe", "hours": {"Monday": {"close": "19:00", "open": "09:30"}, "Tuesday": {"close": "19:00", "open": "09:30"}, "Friday": {"close": "19:00", "open": "09:30"}, "Wednesday": {"close": "19:00", "open": "09:30"}, "Thursday": {"close": "19:00", "open": "09:30"}, "Saturday": {"close": "18:00", "open": "10:00"}}, "open": true, "categories": ["Food", "Tea Rooms", "Flowers & Gifts", "Gift Shops", "Shopping"], "city": "Karlsruhe", "review_count": 8, "name": "Wilkendorf's Teehaus", "neighborhoods": [], "longitude": 8.39823753028566, "state": "BW", "stars": 4.0, "latitude": 49.0104879609251, "attributes": {"Parking": {"garage": false, "street": false, "validated": false, "lot": false, "valet": false}, "Accepts Credit Cards": true, "Wheelchair Accessible": true, "Wi-Fi": "no", "Price Range": 3}, "type": "business"}
{"business_id": "HysgvS37Z-XMqL2G9FmsQQ", "full_address": "Kaiserstr. 215\n76133 Karlsruhe", "hours": {}, "open": true, "categories": ["Coffee & Tea", "Shopping", "Food", "Tea Rooms", "Gift Shops", "Flowers & Gifts"], "city": "Karlsruhe", "review_count": 11, "name": "TeeGschwendner Isabel Andony", "neighborhoods": [], "longitude": 8.39524, "state": "BW", "stars": 5.0, "latitude": 49.0098, "attributes": {"Parking": {"garage": false, "street": false, "validated": false, "lot": false, "valet": false}, "Accepts Credit Cards": true, "Wi-Fi": "no", "Outdoor Seating": false, "Price Range": 2}, "type": "business"}
{"business_id": "Ii03xj1XMhwFBOYfE2AHBQ", "full_address": "Karlstr. 4\n76133 Karlsruhe", "hours": {"Monday": {"close": "21:00", "open": "11:00"}, "Tuesday": {"close": "21:00", "open": "11:00"}, "Friday": {"close": "22:00", "open": "11:00"}, "Wednesday": {"close": "21:00", "open": "11:00"}, "Thursday": {"close": "21:00", "open": "11:00"}, "Sunday": {"close": "22:00", "open": "11:00"}, "Saturday": {"close": "22:00", "open": "11:00"}}, "open": true, "categories": ["Food", "Tea Rooms"], "city": "Karlsruhe", "review_count": 5, "name": "Bobar", "neighborhoods": [], "longitude": 8.3950411, "state": "BW", "stars": 5.0, "latitude": 49.0115582, "attributes": {}, "type": "business"}
{"business_id": "MVmfa8PxHyyHiEGI3MqlSQ", "full_address": "Waldstr. 22\n76133 Karlsruhe", "hours": {"Monday": {"close": "19:00", "open": "09:30"}, "Tuesday": {"close": "19:00", "open": "09:30"}, "Friday": {"close": "19:00", "open": "09:30"}, "Wednesday": {"close": "19:00", "open": "09:30"}, "Thursday": {"close": "19:00", "open": "09:30"}, "Saturday": {"close": "18:00", "open": "10:00"}}, "open": true, "categories": ["Food", "Tea Rooms", "Flowers & Gifts", "Gift Shops", "Shopping"], "city": "Karlsruhe", "review_count": 8, "name": "Wilkendorf's Teehaus", "neighborhoods": [], "longitude": 8.39823753028566, "state": "BW", "stars": 4.0, "latitude": 49.0104879609251, "attributes": {"Parking": {"garage": false, "street": false, "validated": false, "lot": false, "valet": false}, "Accepts Credit Cards": true, "Wheelchair Accessible": true, "Wi-Fi": "no", "Price Range": 3}, "type": "business"}
{"business_id": "HysgvS37Z-XMqL2G9FmsQQ", "full_address": "Kaiserstr. 215\n76133 Karlsruhe", "hours": {}, "open": true, "categories": ["Coffee & Tea", "Shopping", "Food", "Tea Rooms", "Gift Shops", "Flowers & Gifts"], "city": "Karlsruhe", "review_count": 11, "name": "TeeGschwendner Isabel Andony", "neighborhoods": [], "longitude": 8.39524, "state": "BW", "stars": 5.0, "latitude": 49.0098, "attributes": {"Parking": {"garage": false, "street": false, "validated": false, "lot": false, "valet": false}, "Accepts Credit Cards": true, "Wi-Fi": "no", "Outdoor Seating": false, "Price Range": 2}, "type": "business"}
{"business_id": "Ii03xj1XMhwFBOYfE2AHBQ", "full_address": "Karlstr. 4\n76133 Karlsruhe", "hours": {"Monday": {"close": "21:00", "open": "11:00"}, "Tuesday": {"close": "21:00", "open": "11:00"}, "Friday": {"close": "22:00", "open": "11:00"}, "Wednesday": {"close": "21:00", "open": "11:00"}, "Thursday": {"close": "21:00", "open": "11:00"}, "Sunday": {"close": "22:00", "open": "11:00"}, "Saturday": {"close": "22:00", "open": "11:00"}}, "open": true, "categories": ["Food", "Tea Rooms"], "city": "Karlsruhe", "review_count": 5, "name": "Bobar", "neighborhoods": [], "longitude": 8.3950411, "state": "BW", "stars": 5.0, "latitude": 49.0115582, "attributes": {}, "type": "business"}
{"business_id": "MVmfa8PxHyyHiEGI3MqlSQ", "full_address": "Waldstr. 22\n76133 Karlsruhe", "hours": {"Monday": {"close": "19:00", "open": "09:30"}, "Tuesday": {"close": "19:00", "open": "09:30"}, "Friday": {"close": "19:00", "open": "09:30"}, "Wednesday": {"close": "19:00", "open": "09:30"}, "Thursday": {"close": "19:00", "open": "09:30"}, "Saturday": {"close": "18:00", "open": "10:00"}}, "open": true, "categories": ["Food", "Tea Rooms", "Flowers & Gifts", "Gift Shops", "Shopping"], "city": "Karlsruhe", "review_count": 8, "name": "Wilkendorf's Teehaus", "neighborhoods": [], "longitude": 8.39823753028566, "state": "BW", "stars": 4.0, "latitude": 49.0104879609251, "attributes": {"Parking": {"garage": false, "street": false, "validated": false, "lot": false, "valet": false}, "Accepts Credit Cards": true, "Wheelchair Accessible": true, "Wi-Fi": "no", "Price Range": 3}, "type": "business"}
{"business_id": "HysgvS37Z-XMqL2G9FmsQQ", "full_address": "Kaiserstr. 215\n76133 Karlsruhe", "hours": {}, "open": true, "categories": ["Coffee & Tea", "Shopping", "Food", "Tea Rooms", "Gift Shops", "Flowers & Gifts"], "city": "Karlsruhe", "review_count": 11, "name": "TeeGschwendner Isabel Andony", "neighborhoods": [], "longitude": 8.39524, "state": "BW", "stars": 5.0, "latitude": 49.0098, "attributes": {"Parking": {"garage": false, "street": false, "validated": false, "lot": false, "valet": false}, "Accepts Credit Cards": true, "Wi-Fi": "no", "Outdoor Seating": false, "Price Range": 2}, "type": "business"}
{"business_id": "Ii03xj1XMhwFBOYfE2AHBQ", "full_address": "Karlstr. 4\n76133 Karlsruhe", "hours": {"Monday": {"close": "21:00", "open": "11:00"}, "Tuesday": {"close": "21:00", "open": "11:00"}, "Friday": {"close": "22:00", "open": "11:00"}, "Wednesday": {"close": "21:00", "open": "11:00"}, "Thursday": {"close": "21:00", "open": "11:00"}, "Sunday": {"close": "22:00", "open": "11:00"}, "Saturday": {"close": "22:00", "open": "11:00"}}, "open": true, "categories": ["Food", "Tea Rooms"], "city": "Karlsruhe", "review_count": 5, "name": "Bobar", "neighborhoods": [], "longitude": 8.3950411, "state": "BW", "stars": 5.0, "latitude": 49.0115582, "attributes": {}, "type": "business"}
