{"business_id": "CffrdoVMu93IbWZtEqjQFQ", "full_address": "Kaiserstr. 175\n76133 Karlsruhe", "hours": {"Monday": {"close": "19:00", "open": "10:00"}, "Tuesday": {"close": "19:00", "open": "10:00"}, "Friday": {"close": "19:00", "open": "10:00"}, "Wednesday": {"close": "19:00", "open": "10:00"}, "Thursday": {"close": "19:00", "open": "10:00"}, "Saturday": {"close": "18:00", "open": "10:00"}}, "open": true, "categories": ["Books, Mags, Music & Video", "Vinyl Records", "Musical Instruments & Teachers", "Shopping", "Bookstores"], "city": "Karlsruhe", "review_count": 3, "name": "Musikhaus Schlaile Kartenvorverkauf", "neighborhoods": [], "longitude": 8.39981, "state": "BW", "stars": 4.5, "latitude": 49.0097, "attributes": {"Wheelchair Accessible": true, "Parking": {"garage": false, "street": true, "validated": false, "lot": false, "valet": false}}, "type": "business"}
{"business_id": "l2yVOnZtaULa5PSx85JkjA", "full_address": "Kaiserstr. 18\n76133 Karlsruhe", "hours": {"Monday": {"close": "19:00", "open": "09:00"}, "Tuesday": {"close": "19:00", "open": "09:00"}, "Friday": {"close": "19:00", "open": "09:00"}, "Wednesday": {"close": "19:00", "open": "09:00"}, "Thursday": {"close": "19:00", "open": "09:00"}, "Saturday": {"close": "16:00", "open": "09:30"}}, "open": true, "categories": ["Accountants", "Professional Services", "Bookstores", "Shopping", "Books, Mags, Music & Video"], "city": "Karlsruhe", "review_count": 4, "name": "Buchhandlung am Kronenplatz", "neighborhoods": [], "longitude": 8.4102955, "state": "BW", "stars": 5.0, "latitude": 49.0090582, "attributes": {"Price Range": 2}, "type": "business"}
{"business_id": "7i6DABDRnJ6soFGIy_2rvw", "full_address": "Herrenstr. 34\n76133 Karlsruhe", "hours": {"Monday": {"close": "19:00", "open": "09:30"}, "Tuesday": {"close": "19:00", "open": "09:30"}, "Friday": {"close": "19:00", "open": "09:30"}, "Wednesday": {"close": "19:00", "open": "09:30"}, "Thursday": {"close": "19:00", "open": "09:30"}, "Saturday": {"close": "18:00", "open": "09:30"}}, "open": true, "categories": ["Books, Mags, Music & Video", "Shopping", "Bookstores"], "city": "Karlsruhe", "review_count": 5, "name": "Stephanus Buchhandlung Paul Kaufmann u. Partner", "neighborhoods": [], "longitude": 8.39771, "state": "BW", "stars": 3.5, "latitude": 49.0084, "attributes": {"Accepts Credit Cards": false, "Wheelchair Accessible": true, "Price Range": 2}, "type": "business"}
{"business_id": "crxcNtV1S8FmllOpgAL-yA", "full_address": "Ettlinger-Tor-Platz 1\n76133 Karlsruhe", "hours": {}, "open": true, "categories": ["Books, Mags, Music & Video", "Shopping", "Bookstores"], "city": "Karlsruhe", "review_count": 3, "name": "Thalia", "neighborhoods": [], "longitude": 8.40342, "state": "BW", "stars": 3.5, "latitude": 49.0056, "attributes": {"Price Range": 2}, "type": "business"}
{"business_id": "W_iPq6VOpMwAzEfqr0WLfw", "full_address": "Bahnhofplatz 1a\n76137 Karlsruhe", "hours": {}, "open": true, "categories": ["Books, Mags, Music & Video", "Shopping", "Bookstores"], "city": "Karlsruhe", "review_count": 4, "name": "Karl Schmitt & Co Bahnhofsbuchhandlungen", "neighborhoods": [], "longitude": 8.40147, "state": "BW", "stars": 4.5, "latitude": 48.99435, "attributes": {"Parking": {"garage": false, "street": false, "validated": false, "lot": false, "valet": false}, "Accepts Credit Cards": true, "Price Range": 2}, "type": "business"}
{"business_id": "68zFUO8bfLmGwZePLyguuA", "full_address": "Kaiserstr. 127\n76133 Karlsruhe", "hours": {}, "open": true, "categories": ["Books, Mags, Music & Video", "Shopping", "Bookstores"], "city": "Karlsruhe", "review_count": 10, "name": "Thalia Buchhandlung", "neighborhoods": [], "longitude": 8.4058917, "state": "BW", "stars": 4.5, "latitude": 49.0093271, "attributes": {"Parking": {"garage": false, "street": false, "validated": false, "lot": false, "valet": false}, "Accepts Credit Cards": true, "Wheelchair Accessible": true, "Price Range": 2}, "type": "business"}
{"business_id": "nWU6WkITLvsIQLfdunpvWg", "full_address": "Karlstr. 76\n76137 Karlsruhe", "hours": {"Monday": {"close": "18:30", "open": "10:00"}, "Tuesday": {"close": "18:30", "open": "10:00"}, "Friday": {"close": "18:30", "open": "10:00"}, "Wednesday": {"close": "18:30", "open": "10:00"}, "Thursday": {"close": "18:30", "open": "10:00"}, "Saturday": {"close": "14:00", "open": "10:00"}}, "open": true, "categories": ["Books, Mags, Music & Video", "Shopping", "Bookstores"], "city": "Karlsruhe", "review_count": 8, "name": "Buchhandlung Mende", "neighborhoods": [], "longitude": 8.39405, "state": "BW", "stars": 4.5, "latitude": 49.0015, "attributes": {"Parking": {"garage": false, "validated": false, "street": false, "lot": false, "valet": false}, "Accepts Credit Cards": false, "Wheelchair Accessible": false, "Price Range": 2}, "type": "business"}
{"business_id": "CffrdoVMu93IbWZtEqjQFQ", "full_address": "Kaiserstr. 175\n76133 Karlsruhe", "hours": {"Monday": {"close": "19:00", "open": "10:00"}, "Tuesday": {"close": "19:00", "open": "10:00"}, "Friday": {"close": "19:00", "open": "10:00"}, "Wednesday": {"close": "19:00", "open": "10:00"}, "Thursday": {"close": "19:00", "open": "10:00"}, "Saturday": {"close": "18:00", "open": "10:00"}}, "open": true, "categories": ["Books, Mags, Music & Video", "Vinyl Records", "Musical Instruments & Teachers", "Shopping", "Bookstores"], "city": "Karlsruhe", "review_count": 3, "name": "Musikhaus Schlaile Kartenvorverkauf", "neighborhoods": [], "longitude": 8.39981, "state": "BW", "stars": 4.5, "latitude": 49.0097, "attributes": {"Wheelchair Accessible": true, "Parking": {"garage": false, "street": true, "validated": false, "lot": false, "valet": false}}, "type": "business"}
{"business_id": "l2yVOnZtaULa5PSx85JkjA", "full_address": "Kaiserstr. 18\n76133 Karlsruhe", "hours": {"Monday": {"close": "19:00", "open": "09:00"}, "Tuesday": {"close": "19:00", "open": "09:00"}, "Friday": {"close": "19:00", "open": "09:00"}, "Wednesday": {"close": "19:00", "open": "09:00"}, "Thursday": {"close": "19:00", "open": "09:00"}, "Saturday": {"close": "16:00", "open": "09:30"}}, "open": true, "categories": ["Accountants", "Professional Services", "Bookstores", "Shopping", "Books, Mags, Music & Video"], "city": "Karlsruhe", "review_count": 4, "name": "Buchhandlung am Kronenplatz", "neighborhoods": [], "longitude": 8.4102955, "state": "BW", "stars": 5.0, "latitude": 49.0090582, "attributes": {"Price Range": 2}, "type": "business"}
{"business_id": "7i6DABDRnJ6soFGIy_2rvw", "full_address": "Herrenstr. 34\n76133 Karlsruhe", "hours": {"Monday": {"close": "19:00", "open": "09:30"}, "Tuesday": {"close": "19:00", "open": "09:30"}, "Friday": {"close": "19:00", "open": "09:30"}, "Wednesday": {"close": "19:00", "open": "09:30"}, "Thursday": {"close": "19:00", "open": "09:30"}, "Saturday": {"close": "18:00", "open": "09:30"}}, "open": true, "categories": ["Books, Mags, Music & Video", "Shopping", "Bookstores"], "city": "Karlsruhe", "review_count": 5, "name": "Stephanus Buchhandlung Paul Kaufmann u. Partner", "neighborhoods": [], "longitude": 8.39771, "state": "BW", "stars": 3.5, "latitude": 49.0084, "attributes": {"Accepts Credit Cards": false, "Wheelchair Accessible": true, "Price Range": 2}, "type": "business"}
{"business_id": "crxcNtV1S8FmllOpgAL-yA", "full_address": "Ettlinger-Tor-Platz 1\n76133 Karlsruhe", "hours": {}, "open": true, "categories": ["Books, Mags, Music & Video", "Shopping", "Bookstores"], "city": "Karlsruhe", "review_count": 3, "name": "Thalia", "neighborhoods": [], "longitude": 8.40342, "state": "BW", "stars": 3.5, "latitude": 49.0056, "attributes": {"Price Range": 2}, "type": "business"}
{"business_id": "W_iPq6VOpMwAzEfqr0WLfw", "full_address": "Bahnhofplatz 1a\n76137 Karlsruhe", "hours": {}, "open": true, "categories": ["Books, Mags, Music & Video", "Shopping", "Bookstores"], "city": "Karlsruhe", "review_count": 4, "name": "Karl Schmitt & Co Bahnhofsbuchhandlungen", "neighborhoods": [], "longitude": 8.40147, "state": "BW", "stars": 4.5, "latitude": 48.99435, "attributes": {"Parking": {"garage": false, "street": false, "validated": false, "lot": false, "valet": false}, "Accepts Credit Cards": true, "Price Range": 2}, "type": "business"}
{"business_id": "68zFUO8bfLmGwZePLyguuA", "full_address": "Kaiserstr. 127\n76133 Karlsruhe", "hours": {}, "open": true, "categories": ["Books, Mags, Music & Video", "Shopping", "Bookstores"], "city": "Karlsruhe", "review_count": 10, "name": "Thalia Buchhandlung", "neighborhoods": [], "longitude": 8.4058917, "state": "BW", "stars": 4.5, "latitude": 49.0093271, "attributes": {"Parking": {"garage": false, "street": false, "validated": false, "lot": false, "valet": false}, "Accepts Credit Cards": true, "Wheelchair Accessible": true, "Price Range": 2}, "type": "business"}
{"business_id": "nWU6WkITLvsIQLfdunpvWg", "full_address": "Karlstr. 76\n76137 Karlsruhe", "hours": {"Monday": {"close": "18:30", "open": "10:00"}, "Tuesday": {"close": "18:30", "open": "10:00"}, "Friday": {"close": "18:30", "open": "10:00"}, "Wednesday": {"close": "18:30", "open": "10:00"}, "Thursday": {"close": "18:30", "open": "10:00"}, "Saturday": {"close": "14:00", "open": "10:00"}}, "open": true, "categories": ["Books, Mags, Music & Video", "Shopping", "Bookstores"], "city": "Karlsruhe", "review_count": 8, "name": "Buchhandlung Mende", "neighborhoods": [], "longitude": 8.39405, "state": "BW", "stars": 4.5, "latitude": 49.0015, "attributes": {"Parking": {"garage": false, "validated": false, "street": false, "lot": false, "valet": false}, "Accepts Credit Cards": false, "Wheelchair Accessible": false, "Price Range": 2}, "type": "business"}
{"business_id": "CffrdoVMu93IbWZtEqjQFQ", "full_address": "Kaiserstr. 175\n76133 Karlsruhe", "hours": {"Monday": {"close": "19:00", "open": "10:00"}, "Tuesday": {"close": "19:00", "open": "10:00"}, "Friday": {"close": "19:00", "open": "10:00"}, "Wednesday": {"close": "19:00", "open": "10:00"}, "Thursday": {"close": "19:00", "open": "10:00"}, "Saturday": {"close": "18:00", "open": "10:00"}}, "open": true, "categories": ["Books, Mags, Music & Video", "Vinyl Records", "Musical Instruments & Teachers", "Shopping", "Bookstores"], "city": "Karlsruhe", "review_count": 3, "name": "Musikhaus Schlaile Kartenvorverkauf", "neighborhoods": [], "longitude": 8.39981, "state": "BW", "stars": 4.5, "latitude": 49.0097, "attributes": {"Wheelchair Accessible": true, "Parking": {"garage": false, "street": true, "validated": false, "lot": false, "valet": false}}, "type": "business"}
{"business_id": "l2yVOnZtaULa5PSx85JkjA", "full_address": "Kaiserstr. 18\n76133 Karlsruhe", "hours": {"Monday": {"close": "19:00", "open": "09:00"}, "Tuesday": {"close": "19:00", "open": "09:00"}, "Friday": {"close": "19:00", "open": "09:00"}, "Wednesday": {"close": "19:00", "open": "09:00"}, "Thursday": {"close": "19:00", "open": "09:00"}, "Saturday": {"close": "16:00", "open": "09:30"}}, "open": true, "categories": ["Accountants", "Professional Services", "Bookstores", "Shopping", "Books, Mags, Music & Video"], "city": "Karlsruhe", "review_count": 4, "name": "Buchhandlung am Kronenplatz", "neighborhoods": [], "longitude": 8.4102955, "state": "BW", "stars": 5.0, "latitude": 49.0090582, "attributes": {"Price Range": 2}, "type": "business"}
{"business_id": "7i6DABDRnJ6soFGIy_2rvw", "full_address": "Herrenstr. 34\n76133 Karlsruhe", "hours": {"Monday": {"close": "19:00", "open": "09:30"}, "Tuesday": {"close": "19:00", "open": "09:30"}, "Friday": {"close": "19:00", "open": "09:30"}, "Wednesday": {"close": "19:00", "open": "09:30"}, "Thursday": {"close": "19:00", "open": "09:30"}, "Saturday": {"close": "18:00", "open": "09:30"}}, "open": true, "categories": ["Books, Mags, Music & Video", "Shopping", "Bookstores"], "city": "Karlsruhe", "review_count": 5, "name": "Stephanus Buchhandlung Paul Kaufmann u. Partner", "neighborhoods": [], "longitude": 8.39771, "state": "BW", "stars": 3.5, "latitude": 49.0084, "attributes": {"Accepts Credit Cards": false, "Wheelchair Accessible": true, "Price Range": 2}, "type": "business"}
{"business_id": "crxcNtV1S8FmllOpgAL-yA", "full_address": "Ettlinger-Tor-Platz 1\n76133 Karlsruhe", "hours": {}, "open": true, "categories": ["Books, Mags, Music & Video", "Shopping", "Bookstores"], "city": "Karlsruhe", "review_count": 3, "name": "Thalia", "neighborhoods": [], "longitude": 8.40342, "state": "BW", "stars": 3.5, "latitude": 49.0056, "attributes": {"Price Range": 2}, "type": "business"}
{"business_id": "W_iPq6VOpMwAzEfqr0WLfw", "full_address": "Bahnhofplatz 1a\n76137 Karlsruhe", "hours": {}, "open": true, "categories": ["Books, Mags, Music & Video", "Shopping", "Bookstores"], "city": "Karlsruhe", "review_count": 4, "name": "Karl Schmitt & Co Bahnhofsbuchhandlungen", "neighborhoods": [], "longitude": 8.40147, "state": "BW", "stars": 4.5, "latitude": 48.99435, "attributes": {"Parking": {"garage": false, "street": false, "validated": false, "lot": false, "valet": false}, "Accepts Credit Cards": true, "Price Range": 2}, "type": "business"}
{"business_id": "68zFUO8bfLmGwZePLyguuA", "full_address": "Kaiserstr. 127\n76133 Karlsruhe", "hours": {}, "open": true, "categories": ["Books, Mags, Music & Video", "Shopping", "Bookstores"], "city": "Karlsruhe", "review_count": 10, "name": "Thalia Buchhandlung", "neighborhoods": [], "longitude": 8.4058917, "state": "BW", "stars": 4.5, "latitude": 49.0093271, "attributes": {"Parking": {"garage": false, "street": false, "validated": false, "lot": false, "valet": false}, "Accepts Credit Cards": true, "Wheelchair Accessible": true, "Price Range": 2}, "type": "business"}
{"business_id": "nWU6WkITLvsIQLfdunpvWg", "full_address": "Karlstr. 76\n76137 Karlsruhe", "hours": {"Monday": {"close": "18:30", "open": "10:00"}, "Tuesday": {"close": "18:30", "open": "10:00"}, "Friday": {"close": "18:30", "open": "10:00"}, "Wednesday": {"close": "18:30", "open": "10:00"}, "Thursday": {"close": "18:30", "open": "10:00"}, "Saturday": {"close": "14:00", "open": "10:00"}}, "open": true, "categories": ["Books, Mags, Music & Video", "Shopping", "Bookstores"], "city": "Karlsruhe", "review_count": 8, "name": "Buchhandlung Mende", "neighborhoods": [], "longitude": 8.39405, "state": "BW", "stars": 4.5, "latitude": 49.0015, "attributes": {"Parking": {"garage": false, "validated": false, "street": false, "lot": false, "valet": false}, "Accepts Credit Cards": false, "Wheelchair Accessible": false, "Price Range": 2}, "type": "business"}
{"business_id": "CffrdoVMu93IbWZtEqjQFQ", "full_address": "Kaiserstr. 175\n76133 Karlsruhe", "hours": {"Monday": {"close": "19:00", "open": "10:00"}, "Tuesday": {"close": "19:00", "open": "10:00"}, "Friday": {"close": "19:00", "open": "10:00"}, "Wednesday": {"close": "19:00", "open": "10:00"}, "Thursday": {"close": "19:00", "open": "10:00"}, "Saturday": {"close": "18:00", "open": "10:00"}}, "open": true, "categories": ["Books, Mags, Music & Video", "Vinyl Records", "Musical Instruments & Teachers", "Shopping", "Bookstores"], "city": "Karlsruhe", "review_count": 3, "name": "Musikhaus Schlaile Kartenvorverkauf", "neighborhoods": [], "longitude": 8.39981, "state": "BW", "stars": 4.5, "latitude": 49.0097, "attributes": {"Wheelchair Accessible": true, "Parking": {"garage": false, "street": true, "validated": false, "lot": false, "valet": false}}, "type": "business"}
{"business_id": "l2yVOnZtaULa5PSx85JkjA", "full_address": "Kaiserstr. 18\n76133 Karlsruhe", "hours": {"Monday": {"close": "19:00", "open": "09:00"}, "Tuesday": {"close": "19:00", "open": "09:00"}, "Friday": {"close": "19:00", "open": "09:00"}, "Wednesday": {"close": "19:00", "open": "09:00"}, "Thursday": {"close": "19:00", "open": "09:00"}, "Saturday": {"close": "16:00", "open": "09:30"}}, "open": true, "categories": ["Accountants", "Professional Services", "Bookstores", "Shopping", "Books, Mags, Music & Video"], "city": "Karlsruhe", "review_count": 4, "name": "Buchhandlung am Kronenplatz", "neighborhoods": [], "longitude": 8.4102955, "state": "BW", "stars": 5.0, "latitude": 49.0090582, "attributes": {"Price Range": 2}, "type": "business"}
{"business_id": "7i6DABDRnJ6soFGIy_2rvw", "full_address": "Herrenstr. 34\n76133 Karlsruhe", "hours": {"Monday": {"close": "19:00", "open": "09:30"}, "Tuesday": {"close": "19:00", "open": "09:30"}, "Friday": {"close": "19:00", "open": "09:30"}, "Wednesday": {"close": "19:00", "open": "09:30"}, "Thursday": {"close": "19:00", "open": "09:30"}, "Saturday": {"close": "18:00", "open": "09:30"}}, "open": true, "categories": ["Books, Mags, Music & Video", "Shopping", "Bookstores"], "city": "Karlsruhe", "review_count": 5, "name": "Stephanus Buchhandlung Paul Kaufmann u. Partner", "neighborhoods": [], "longitude": 8.39771, "state": "BW", "stars": 3.5, "latitude": 49.0084, "attributes": {"Accepts Credit Cards": false, "Wheelchair Accessible": true, "Price Range": 2}, "type": "business"}
{"business_id": "crxcNtV1S8FmllOpgAL-yA", "full_address": "Ettlinger-Tor-Platz 1\n76133 Karlsruhe", "hours": {}, "open": true, "categories": ["Books, Mags, Music & Video", "Shopping", "Bookstores"], "city": "Karlsruhe", "review_count": 3, "name": "Thalia", "neighborhoods": [], "longitude": 8.40342, "state": "BW", "stars": 3.5, "latitude": 49.0056, "attributes": {"Price Range": 2}, "type": "business"}
{"business_id": "W_iPq6VOpMwAzEfqr0WLfw", "full_address": "Bahnhofplatz 1a\n76137 Karlsruhe", "hours": {}, "open": true, "categories": ["Books, Mags, Music & Video", "Shopping", "Bookstores"], "city": "Karlsruhe", "review_count": 4, "name": "Karl Schmitt & Co Bahnhofsbuchhandlungen", "neighborhoods": [], "longitude": 8.40147, "state": "BW", "stars": 4.5, "latitude": 48.99435, "attributes": {"Parking": {"garage": false, "street": false, "validated": false, "lot": false, "valet": false}, "Accepts Credit Cards": true, "Price Range": 2}, "type": "business"}
{"business_id": "68zFUO8bfLmGwZePLyguuA", "full_address": "Kaiserstr. 127\n76133 Karlsruhe", "hours": {}, "open": true, "categories": ["Books, Mags, Music & Video", "Shopping", "Bookstores"], "city": "Karlsruhe", "review_count": 10, "name": "Thalia Buchhandlung", "neighborhoods": [], "longitude": 8.4058917, "state": "BW", "stars": 4.5, "latitude": 49.0093271, "attributes": {"Parking": {"garage": false, "street": false, "validated": false, "lot": false, "valet": false}, "Accepts Credit Cards": true, "Wheelchair Accessible": true, "Price Range": 2}, "type": "business"}
{"business_id": "nWU6WkITLvsIQLfdunpvWg", "full_address": "Karlstr. 76\n76137 Karlsruhe", "hours": {"Monday": {"close": "18:30", "open": "10:00"}, "Tuesday": {"close": "18:30", "open": "10:00"}, "Friday": {"close": "18:30", "open": "10:00"}, "Wednesday": {"close": "18:30", "open": "10:00"}, "Thursday": {"close": "18:30", "open": "10:00"}, "Saturday": {"close": "14:00", "open": "10:00"}}, "open": true, "categories": ["Books, Mags, Music & Video", "Shopping", "Bookstores"], "city": "Karlsruhe", "review_count": 8, "name": "Buchhandlung Mende", "neighborhoods": [], "longitude": 8.39405, "state": "BW", "stars": 4.5, "latitude": 49.0015, "attributes": {"Parking": {"garage": false, "validated": false, "street": false, "lot": false, "valet": false}, "Accepts Credit Cards": false, "Wheelchair Accessible": false, "Price Range": 2}, "type": "business"}
{"business_id": "CffrdoVMu93IbWZtEqjQFQ", "full_address": "Kaiserstr. 175\n76133 Karlsruhe", "hours": {"Monday": {"close": "19:00", "open": "10:00"}, "Tuesday": {"close": "19:00", "open": "10:00"}, "Friday": {"close": "19:00", "open": "10:00"}, "Wednesday": {"close": "19:00", "open": "10:00"}, "Thursday": {"close": "19:00", "open": "10:00"}, "Saturday": {"close": "18:00", "open": "10:00"}}, "open": true, "categories": ["Books, Mags, Music & Video", "Vinyl Records", "Musical Instruments & Teachers", "Shopping", "Bookstores"], "city": "Karlsruhe", "review_count": 3, "name": "Musikhaus Schlaile Kartenvorverkauf", "neighborhoods": [], "longitude": 8.39981, "state": "BW", "stars": 4.5, "latitude": 49.0097, "attributes": {"Wheelchair Accessible": true, "Parking": {"garage": false, "street": true, "validated": false, "lot": false, "valet": false}}, "type": "business"}
{"business_id": "l2yVOnZtaULa5PSx85JkjA", "full_address": "Kaiserstr. 18\n76133 Karlsruhe", "hours": {"Monday": {"close": "19:00", "open": "09:00"}, "Tuesday": {"close": "19:00", "open": "09:00"}, "Friday": {"close": "19:00", "open": "09:00"}, "Wednesday": {"close": "19:00", "open": "09:00"}, "Thursday": {"close": "19:00", "open": "09:00"}, "Saturday": {"close": "16:00", "open": "09:30"}}, "open": true, "categories": ["Accountants", "Professional Services", "Bookstores", "Shopping", "Books, Mags, Music & Video"], "city": "Karlsruhe", "review_count": 4, "name": "Buchhandlung am Kronenplatz", "neighborhoods": [], "longitude": 8.4102955, "state": "BW", "stars": 5.0, "latitude": 49.0090582, "attributes": {"Price Range": 2}, "type": "business"}
{"business_id": "7i6DABDRnJ6soFGIy_2rvw", "full_address": "Herrenstr. 34\n76133 Karlsruhe", "hours": {"Monday": {"close": "19:00", "open": "09:30"}, "Tuesday": {"close": "19:00", "open": "09:30"}, "Friday": {"close": "19:00", "open": "09:30"}, "Wednesday": {"close": "19:00", "open": "09:30"}, "Thursday": {"close": "19:00", "open": "09:30"}, "Saturday": {"close": "18:00", "open": "09:30"}}, "open": true, "categories": ["Books, Mags, Music & Video", "Shopping", "Bookstores"], "city": "Karlsruhe", "review_count": 5, "name": "Stephanus Buchhandlung Paul Kaufmann u. Partner", "neighborhoods": [], "longitude": 8.39771, "state": "BW", "stars": 3.5, "latitude": 49.0084, "attributes": {"Accepts Credit Cards": false, "Wheelchair Accessible": true, "Price Range": 2}, "type": "business"}
{"business_id": "crxcNtV1S8FmllOpgAL-yA", "full_address": "Ettlinger-Tor-Platz 1\n76133 Karlsruhe", "hours": {}, "open": true, "categories": ["Books, Mags, Music & Video", "Shopping", "Bookstores"], "city": "Karlsruhe", "review_count": 3, "name": "Thalia", "neighborhoods": [], "longitude": 8.40342, "state": "BW", "stars": 3.5, "latitude": 49.0056, "attributes": {"Price Range": 2}, "type": "business"}
{"business_id": "W_iPq6VOpMwAzEfqr0WLfw", "full_address": "Bahnhofplatz 1a\n76137 Karlsruhe", "hours": {}, "open": true, "categories": ["Books, Mags, Music & Video", "Shopping", "Bookstores"], "city": "Karlsruhe", "review_count": 4, "name": "Karl Schmitt & Co Bahnhofsbuchhandlungen", "neighborhoods": [], "longitude": 8.40147, "state": "BW", "stars": 4.5, "latitude": 48.99435, "attributes": {"Parking": {"garage": false, "street": false, "validated": false, "lot": false, "valet": false}, "Accepts Credit Cards": true, "Price Range": 2}, "type": "business"}
{"business_id": "68zFUO8bfLmGwZePLyguuA", "full_address": "Kaiserstr. 127\n76133 Karlsruhe", "hours": {}, "open": true, "categories": ["Books, Mags, Music & Video", "Shopping", "Bookstores"], "city": "Karlsruhe", "review_count": 10, "name": "Thalia Buchhandlung", "neighborhoods": [], "longitude": 8.4058917, "state": "BW", "stars": 4.5, "latitude": 49.0093271, "attributes": {"Parking": {"garage": false, "street": false, "validated": false, "lot": false, "valet": false}, "Accepts Credit Cards": true, "Wheelchair Accessible": true, "Price Range": 2}, "type": "business"}
{"business_id": "nWU6WkITLvsIQLfdunpvWg", "full_address": "Karlstr. 76\n76137 Karlsruhe", "hours": {"Monday": {"close": "18:30", "open": "10:00"}, "Tuesday": {"close": "18:30", "open": "10:00"}, "Friday": {"close": "18:30", "open": "10:00"}, "Wednesday": {"close": "18:30", "open": "10:00"}, "Thursday": {"close": "18:30", "open": "10:00"}, "Saturday": {"close": "14:00", "open": "10:00"}}, "open": true, "categories": ["Books, Mags, Music & Video", "Shopping", "Bookstores"], "city": "Karlsruhe", "review_count": 8, "name": "Buchhandlung Mende", "neighborhoods": [], "longitude": 8.39405, "state": "BW", "stars": 4.5, "latitude": 49.0015, "attributes": {"Parking": {"garage": false, "validated": false, "street": false, "lot": false, "valet": false}, "Accepts Credit Cards": false, "Wheelchair Accessible": false, "Price Range": 2}, "type": "business"}
{"business_id": "CffrdoVMu93IbWZtEqjQFQ", "full_address": "Kaiserstr. 175\n76133 Karlsruhe", "hours": {"Monday": {"close": "19:00", "open": "10:00"}, "Tuesday": {"close": "19:00", "open": "10:00"}, "Friday": {"close": "19:00", "open": "10:00"}, "Wednesday": {"close": "19:00", "open": "10:00"}, "Thursday": {"close": "19:00", "open": "10:00"}, "Saturday": {"close": "18:00", "open": "10:00"}}, "open": true, "categories": ["Books, Mags, Music & Video", "Vinyl Records", "Musical Instruments & Teachers", "Shopping", "Bookstores"], "city": "Karlsruhe", "review_count": 3, "name": "Musikhaus Schlaile Kartenvorverkauf", "neighborhoods": [], "longitude": 8.39981, "state": "BW", "stars": 4.5, "latitude": 49.0097, "attributes": {"Wheelchair Accessible": true, "Parking": {"garage": false, "street": true, "validated": false, "lot": false, "valet": false}}, "type": "business"}
{"business_id": "l2yVOnZtaULa5PSx85JkjA", "full_address": "Kaiserstr. 18\n76133 Karlsruhe", "hours": {"Monday": {"close": "19:00", "open": "09:00"}, "Tuesday": {"close": "19:00", "open": "09:00"}, "Friday": {"close": "19:00", "open": "09:00"}, "Wednesday": {"close": "19:00", "open": "09:00"}, "Thursday": {"close": "19:00", "open": "09:00"}, "Saturday": {"close": "16:00", "open": "09:30"}}, "open": true, "categories": ["Accountants", "Professional Services", "Bookstores", "Shopping", "Books, Mags, Music & Video"], "city": "Karlsruhe", "review_count": 4, "name": "Buchhandlung am Kronenplatz", "neighborhoods": [], "longitude": 8.4102955, "state": "BW", "stars": 5.0, "latitude": 49.0090582, "attributes": {"Price Range": 2}, "type": "business"}
{"business_id": "7i6DABDRnJ6soFGIy_2rvw", "full_address": "Herrenstr. 34\n76133 Karlsruhe", "hours": {"Monday": {"close": "19:00", "open": "09:30"}, "Tuesday": {"close": "19:00", "open": "09:30"}, "Friday": {"close": "19:00", "open": "09:30"}, "Wednesday": {"close": "19:00", "open": "09:30"}, "Thursday": {"close": "19:00", "open": "09:30"}, "Saturday": {"close": "18:00", "open": "09:30"}}, "open": true, "categories": ["Books, Mags, Music & Video", "Shopping", "Bookstores"], "city": "Karlsruhe", "review_count": 5, "name": "Stephanus Buchhandlung Paul Kaufmann u. Partner", "neighborhoods": [], "longitude": 8.39771, "state": "BW", "stars": 3.5, "latitude": 49.0084, "attributes": {"Accepts Credit Cards": false, "Wheelchair Accessible": true, "Price Range": 2}, "type": "business"}
{"business_id": "crxcNtV1S8FmllOpgAL-yA", "full_address": "Ettlinger-Tor-Platz 1\n76133 Karlsruhe", "hours": {}, "open": true, "categories": ["Books, Mags, Music & Video", "Shopping", "Bookstores"], "city": "Karlsruhe", "review_count": 3, "name": "Thalia", "neighborhoods": [], "longitude": 8.40342, "state": "BW", "stars": 3.5, "latitude": 49.0056, "attributes": {"Price Range": 2}, "type": "business"}
{"business_id": "W_iPq6VOpMwAzEfqr0WLfw", "full_address": "Bahnhofplatz 1a\n76137 Karlsruhe", "hours": {}, "open": true, "categories": ["Books, Mags, Music & Video", "Shopping", "Bookstores"], "city": "Karlsruhe", "review_count": 4, "name": "Karl Schmitt & Co Bahnhofsbuchhandlungen", "neighborhoods": [], "longitude": 8.40147, "state": "BW", "stars": 4.5, "latitude": 48.99435, "attributes": {"Parking": {"garage": false, "street": false, "validated": false, "lot": false, "valet": false}, "Accepts Credit Cards": true, "Price Range": 2}, "type": "business"}
{"business_id": "68zFUO8bfLmGwZePLyguuA", "full_address": "Kaiserstr. 127\n76133 Karlsruhe", "hours": {}, "open": true, "categories": ["Books, Mags, Music & Video", "Shopping", "Bookstores"], "city": "Karlsruhe", "review_count": 10, "name": "Thalia Buchhandlung", "neighborhoods": [], "longitude": 8.4058917, "state": "BW", "stars": 4.5, "latitude": 49.0093271, "attributes": {"Parking": {"garage": false, "street": false, "validated": false, "lot": false, "valet": false}, "Accepts Credit Cards": true, "Wheelchair Accessible": true, "Price Range": 2}, "type": "business"}
{"business_id": "nWU6WkITLvsIQLfdunpvWg", "full_address": "Karlstr. 76\n76137 Karlsruhe", "hours": {"Monday": {"close": "18:30", "open": "10:00"}, "Tuesday": {"close": "18:30", "open": "10:00"}, "Friday": {"close": "18:30", "open": "10:00"}, "Wednesday": {"close": "18:30", "open": "10:00"}, "Thursday": {"close": "18:30", "open": "10:00"}, "Saturday": {"close": "14:00", "open": "10:00"}}, "open": true, "categories": ["Books, Mags, Music & Video", "Shopping", "Bookstores"], "city": "Karlsruhe", "review_count": 8, "name": "Buchhandlung Mende", "neighborhoods": [], "longitude": 8.39405, "state": "BW", "stars": 4.5, "latitude": 49.0015, "attributes": {"Parking": {"garage": false, "validated": false, "street": false, "lot": false, "valet": false}, "Accepts Credit Cards": false, "Wheelchair Accessible": false, "Price Range": 2}, "type": "business"}
