{"business_id": "pTi7fwrFZTqY7mpeu8NZyw", "full_address": "Kaiserstrasse 201\n76133 Karlsruhe", "hours": {}, "open": true, "categories": ["Shopping", "Jewelry", "Watches"], "city": "Karlsruhe", "review_count": 3, "name": "Juwelier Kamphues", "neighborhoods": [], "longitude": 8.3966118, "state": "BW", "stars": 3.5, "latitude": 49.0097178, "attributes": {}, "type": "business"}
{"business_id": "HufIoqr9onRXIO9DrjcnMQ", "full_address": "Kaiserpassage 1\n76133 Karlsruhe", "hours": {"Monday": {"close": "19:00", "open": "10:00"}, "Tuesday": {"close": "19:00", "open": "10:00"}, "Friday": {"close": "19:00", "open": "10:00"}, "Wednesday": {"close": "19:00", "open": "10:00"}, "Thursday": {"close": "19:00", "open": "10:00"}, "Saturday": {"close": "18:00", "open": "10:00"}}, "open": true, "categories": ["Shopping", "Jewelry", "Watches"], "city": "Karlsruhe", "review_count": 5, "name": "Juwelier CoCo", "neighborhoods": [], "longitude": 8.39721, "state": "BW", "stars": 4.0, "latitude": 49.01, "attributes": {"Parking": {"garage": false, "street": false, "validated": false, "lot": false, "valet": false}, "Price Range": 3}, "type": "business"}
{"business_id": "qXKPy2VvVPn1WJtA9X3sxg", "full_address": "Georg-Friedrich-Str. 32\n76131 Karlsruhe", "hours": {}, "open": true, "categories": ["Shopping", "Jewelry", "Watches"], "city": "Karlsruhe", "review_count": 4, "name": "Uhrenklinik Speck", "neighborhoods": [], "longitude": 8.4237, "state": "BW", "stars": 4.0, "latitude": 49.0087, "attributes": {"Parking": {"garage": false, "validated": false, "street": false, "lot": false, "valet": false}, "Wheelchair Accessible": false, "Price Range": 3}, "type": "business"}
{"business_id": "TvxZ7G16ez9GhD5yRClyyQ", "full_address": "Markgrafenstr. 32\n76133 Karlsruhe", "hours": {"Tuesday": {"close": "19:00", "open": "14:30"}, "Friday": {"close": "19:00", "open": "14:30"}, "Wednesday": {"close": "19:00", "open": "14:30"}, "Thursday": {"close": "19:00", "open": "14:30"}, "Saturday": {"close": "15:00", "open": "10:00"}}, "open": true, "categories": ["Shopping", "Jewelry"], "city": "Karlsruhe", "review_count": 3, "name": "Galerie 32", "neighborhoods": [], "longitude": 8.40700060129166, "state": "BW", "stars": 5.0, "latitude": 49.007454157638, "attributes": {"By Appointment Only": false, "Parking": {"garage": true, "street": true, "validated": false, "lot": false, "valet": false}, "Accepts Credit Cards": true, "Dogs Allowed": true, "Price Range": 3}, "type": "business"}
{"business_id": "1djuLQ8LqHHYcJnh0WDuyg", "full_address": "EKZ Ettlinger Tor\nEttlinger-Tor-Platz 1\n76133 Karlsruhe", "hours": {}, "open": true, "categories": ["Shopping", "Jewelry"], "city": "Karlsruhe", "review_count": 3, "name": "Swarovski", "neighborhoods": [], "longitude": 8.4699817, "state": "BW", "stars": 5.0, "latitude": 48.9975075, "attributes": {"Parking": {"garage": false, "validated": false, "street": false, "lot": false, "valet": false}, "Accepts Credit Cards": true, "Price Range": 2}, "type": "business"}
{"business_id": "_w_wNs6zkvMNZWu43nVbmg", "full_address": "Ettlinger-Tor-Platz 1\n76133 Karlsruhe", "hours": {}, "open": true, "categories": ["Shopping", "Jewelry", "Watches"], "city": "Karlsruhe", "review_count": 4, "name": "Christ Juweliere und Uhrmacher seit 1863", "neighborhoods": [], "longitude": 8.40208, "state": "BW", "stars": 1.5, "latitude": 49.0067, "attributes": {"Price Range": 3}, "type": "business"}
{"business_id": "pTi7fwrFZTqY7mpeu8NZyw", "full_address": "Kaiserstrasse 201\n76133 Karlsruhe", "hours": {}, "open": true, "categories": ["Shopping", "Jewelry", "Watches"], "city": "Karlsruhe", "review_count": 3, "name": "Juwelier Kamphues", "neighborhoods": [], "longitude": 8.3966118, "state": "BW", "stars": 3.5, "latitude": 49.0097178, "attributes": {}, "type": "business"}
{"business_id": "HufIoqr9onRXIO9DrjcnMQ", "full_address": "Kaiserpassage 1\n76133 Karlsruhe", "hours": {"Monday": {"close": "19:00", "open": "10:00"}, "Tuesday": {"close": "19:00", "open": "10:00"}, "Friday": {"close": "19:00", "open": "10:00"}, "Wednesday": {"close": "19:00", "open": "10:00"}, "Thursday": {"close": "19:00", "open": "10:00"}, "Saturday": {"close": "18:00", "open": "10:00"}}, "open": true, "categories": ["Shopping", "Jewelry", "Watches"], "city": "Karlsruhe", "review_count": 5, "name": "Juwelier CoCo", "neighborhoods": [], "longitude": 8.39721, "state": "BW", "stars": 4.0, "latitude": 49.01, "attributes": {"Parking": {"garage": false, "street": false, "validated": false, "lot": false, "valet": false}, "Price Range": 3}, "type": "business"}
{"business_id": "qXKPy2VvVPn1WJtA9X3sxg", "full_address": "Georg-Friedrich-Str. 32\n76131 Karlsruhe", "hours": {}, "open": true, "categories": ["Shopping", "Jewelry", "Watches"], "city": "Karlsruhe", "review_count": 4, "name": "Uhrenklinik Speck", "neighborhoods": [], "longitude": 8.4237, "state": "BW", "stars": 4.0, "latitude": 49.0087, "attributes": {"Parking": {"garage": false, "validated": false, "street": false, "lot": false, "valet": false}, "Wheelchair Accessible": false, "Price Range": 3}, "type": "business"}
{"business_id": "TvxZ7G16ez9GhD5yRClyyQ", "full_address": "Markgrafenstr. 32\n76133 Karlsruhe", "hours": {"Tuesday": {"close": "19:00", "open": "14:30"}, "Friday": {"close": "19:00", "open": "14:30"}, "Wednesday": {"close": "19:00", "open": "14:30"}, "Thursday": {"close": "19:00", "open": "14:30"}, "Saturday": {"close": "15:00", "open": "10:00"}}, "open": true, "categories": ["Shopping", "Jewelry"], "city": "Karlsruhe", "review_count": 3, "name": "Galerie 32", "neighborhoods": [], "longitude": 8.40700060129166, "state": "BW", "stars": 5.0, "latitude": 49.007454157638, "attributes": {"By Appointment Only": false, "Parking": {"garage": true, "street": true, "validated": false, "lot": false, "valet": false}, "Accepts Credit Cards": true, "Dogs Allowed": true, "Price Range": 3}, "type": "business"}
{"business_id": "1djuLQ8LqHHYcJnh0WDuyg", "full_address": "EKZ Ettlinger Tor\nEttlinger-Tor-Platz 1\n76133 Karlsruhe", "hours": {}, "open": true, "categories": ["Shopping", "Jewelry"], "city": "Karlsruhe", "review_count": 3, "name": "Swarovski", "neighborhoods": [], "longitude": 8.4699817, "state": "BW", "stars": 5.0, "latitude": 48.9975075, "attributes": {"Parking": {"garage": false, "validated": false, "street": false, "lot": false, "valet": false}, "Accepts Credit Cards": true, "Price Range": 2}, "type": "business"}
{"business_id": "_w_wNs6zkvMNZWu43nVbmg", "full_address": "Ettlinger-Tor-Platz 1\n76133 Karlsruhe", "hours": {}, "open": true, "categories": ["Shopping", "Jewelry", "Watches"], "city": "Karlsruhe", "review_count": 4, "name": "Christ Juweliere und Uhrmacher seit 1863", "neighborhoods": [], "longitude": 8.40208, "state": "BW", "stars": 1.5, "latitude": 49.0067, "attributes": {"Price Range": 3}, "type": "business"}
{"business_id": "pTi7fwrFZTqY7mpeu8NZyw", "full_address": "Kaiserstrasse 201\n76133 Karlsruhe", "hours": {}, "open": true, "categories": ["Shopping", "Jewelry", "Watches"], "city": "Karlsruhe", "review_count": 3, "name": "Juwelier Kamphues", "neighborhoods": [], "longitude": 8.3966118, "state": "BW", "stars": 3.5, "latitude": 49.0097178, "attributes": {}, "type": "business"}
{"business_id": "HufIoqr9onRXIO9DrjcnMQ", "full_address": "Kaiserpassage 1\n76133 Karlsruhe", "hours": {"Monday": {"close": "19:00", "open": "10:00"}, "Tuesday": {"close": "19:00", "open": "10:00"}, "Friday": {"close": "19:00", "open": "10:00"}, "Wednesday": {"close": "19:00", "open": "10:00"}, "Thursday": {"close": "19:00", "open": "10:00"}, "Saturday": {"close": "18:00", "open": "10:00"}}, "open": true, "categories": ["Shopping", "Jewelry", "Watches"], "city": "Karlsruhe", "review_count": 5, "name": "Juwelier CoCo", "neighborhoods": [], "longitude": 8.39721, "state": "BW", "stars": 4.0, "latitude": 49.01, "attributes": {"Parking": {"garage": false, "street": false, "validated": false, "lot": false, "valet": false}, "Price Range": 3}, "type": "business"}
{"business_id": "qXKPy2VvVPn1WJtA9X3sxg", "full_address": "Georg-Friedrich-Str. 32\n76131 Karlsruhe", "hours": {}, "open": true, "categories": ["Shopping", "Jewelry", "Watches"], "city": "Karlsruhe", "review_count": 4, "name": "Uhrenklinik Speck", "neighborhoods": [], "longitude": 8.4237, "state": "BW", "stars": 4.0, "latitude": 49.0087, "attributes": {"Parking": {"garage": false, "validated": false, "street": false, "lot": false, "valet": false}, "Wheelchair Accessible": false, "Price Range": 3}, "type": "business"}
{"business_id": "TvxZ7G16ez9GhD5yRClyyQ", "full_address": "Markgrafenstr. 32\n76133 Karlsruhe", "hours": {"Tuesday": {"close": "19:00", "open": "14:30"}, "Friday": {"close": "19:00", "open": "14:30"}, "Wednesday": {"close": "19:00", "open": "14:30"}, "Thursday": {"close": "19:00", "open": "14:30"}, "Saturday": {"close": "15:00", "open": "10:00"}}, "open": true, "categories": ["Shopping", "Jewelry"], "city": "Karlsruhe", "review_count": 3, "name": "Galerie 32", "neighborhoods": [], "longitude": 8.40700060129166, "state": "BW", "stars": 5.0, "latitude": 49.007454157638, "attributes": {"By Appointment Only": false, "Parking": {"garage": true, "street": true, "validated": false, "lot": false, "valet": false}, "Accepts Credit Cards": true, "Dogs Allowed": true, "Price Range": 3}, "type": "business"}
{"business_id": "1djuLQ8LqHHYcJnh0WDuyg", "full_address": "EKZ Ettlinger Tor\nEttlinger-Tor-Platz 1\n76133 Karlsruhe", "hours": {}, "open": true, "categories": ["Shopping", "Jewelry"], "city": "Karlsruhe", "review_count": 3, "name": "Swarovski", "neighborhoods": [], "longitude": 8.4699817, "state": "BW", "stars": 5.0, "latitude": 48.9975075, "attributes": {"Parking": {"garage": false, "validated": false, "street": false, "lot": false, "valet": false}, "Accepts Credit Cards": true, "Price Range": 2}, "type": "business"}
{"business_id": "_w_wNs6zkvMNZWu43nVbmg", "full_address": "Ettlinger-Tor-Platz 1\n76133 Karlsruhe", "hours": {}, "open": true, "categories": ["Shopping", "Jewelry", "Watches"], "city": "Karlsruhe", "review_count": 4, "name": "Christ Juweliere und Uhrmacher seit 1863", "neighborhoods": [], "longitude": 8.40208, "state": "BW", "stars": 1.5, "latitude": 49.0067, "attributes": {"Price Range": 3}, "type": "business"}
{"business_id": "pTi7fwrFZTqY7mpeu8NZyw", "full_address": "Kaiserstrasse 201\n76133 Karlsruhe", "hours": {}, "open": true, "categories": ["Shopping", "Jewelry", "Watches"], "city": "Karlsruhe", "review_count": 3, "name": "Juwelier Kamphues", "neighborhoods": [], "longitude": 8.3966118, "state": "BW", "stars": 3.5, "latitude": 49.0097178, "attributes": {}, "type": "business"}
{"business_id": "HufIoqr9onRXIO9DrjcnMQ", "full_address": "Kaiserpassage 1\n76133 Karlsruhe", "hours": {"Monday": {"close": "19:00", "open": "10:00"}, "Tuesday": {"close": "19:00", "open": "10:00"}, "Friday": {"close": "19:00", "open": "10:00"}, "Wednesday": {"close": "19:00", "open": "10:00"}, "Thursday": {"close": "19:00", "open": "10:00"}, "Saturday": {"close": "18:00", "open": "10:00"}}, "open": true, "categories": ["Shopping", "Jewelry", "Watches"], "city": "Karlsruhe", "review_count": 5, "name": "Juwelier CoCo", "neighborhoods": [], "longitude": 8.39721, "state": "BW", "stars": 4.0, "latitude": 49.01, "attributes": {"Parking": {"garage": false, "street": false, "validated": false, "lot": false, "valet": false}, "Price Range": 3}, "type": "business"}
{"business_id": "qXKPy2VvVPn1WJtA9X3sxg", "full_address": "Georg-Friedrich-Str. 32\n76131 Karlsruhe", "hours": {}, "open": true, "categories": ["Shopping", "Jewelry", "Watches"], "city": "Karlsruhe", "review_count": 4, "name": "Uhrenklinik Speck", "neighborhoods": [], "longitude": 8.4237, "state": "BW", "stars": 4.0, "latitude": 49.0087, "attributes": {"Parking": {"garage": false, "validated": false, "street": false, "lot": false, "valet": false}, "Wheelchair Accessible": false, "Price Range": 3}, "type": "business"}
{"business_id": "TvxZ7G16ez9GhD5yRClyyQ", "full_address": "Markgrafenstr. 32\n76133 Karlsruhe", "hours": {"Tuesday": {"close": "19:00", "open": "14:30"}, "Friday": {"close": "19:00", "open": "14:30"}, "Wednesday": {"close": "19:00", "open": "14:30"}, "Thursday": {"close": "19:00", "open": "14:30"}, "Saturday": {"close": "15:00", "open": "10:00"}}, "open": true, "categories": ["Shopping", "Jewelry"], "city": "Karlsruhe", "review_count": 3, "name": "Galerie 32", "neighborhoods": [], "longitude": 8.40700060129166, "state": "BW", "stars": 5.0, "latitude": 49.007454157638, "attributes": {"By Appointment Only": false, "Parking": {"garage": true, "street": true, "validated": false, "lot": false, "valet": false}, "Accepts Credit Cards": true, "Dogs Allowed": true, "Price Range": 3}, "type": "business"}
{"business_id": "1djuLQ8LqHHYcJnh0WDuyg", "full_address": "EKZ Ettlinger Tor\nEttlinger-Tor-Platz 1\n76133 Karlsruhe", "hours": {}, "open": true, "categories": ["Shopping", "Jewelry"], "city": "Karlsruhe", "review_count": 3, "name": "Swarovski", "neighborhoods": [], "longitude": 8.4699817, "state": "BW", "stars": 5.0, "latitude": 48.9975075, "attributes": {"Parking": {"garage": false, "validated": false, "street": false, "lot": false, "valet": false}, "Accepts Credit Cards": true, "Price Range": 2}, "type": "business"}
{"business_id": "_w_wNs6zkvMNZWu43nVbmg", "full_address": "Ettlinger-Tor-Platz 1\n76133 Karlsruhe", "hours": {}, "open": true, "categories": ["Shopping", "Jewelry", "Watches"], "city": "Karlsruhe", "review_count": 4, "name": "Christ Juweliere und Uhrmacher seit 1863", "neighborhoods": [], "longitude": 8.40208, "state": "BW", "stars": 1.5, "latitude": 49.0067, "attributes": {"Price Range": 3}, "type": "business"}
{"business_id": "pTi7fwrFZTqY7mpeu8NZyw", "full_address": "Kaiserstrasse 201\n76133 Karlsruhe", "hours": {}, "open": true, "categories": ["Shopping", "Jewelry", "Watches"], "city": "Karlsruhe", "review_count": 3, "name": "Juwelier Kamphues", "neighborhoods": [], "longitude": 8.3966118, "state": "BW", "stars": 3.5, "latitude": 49.0097178, "attributes": {}, "type": "business"}
{"business_id": "HufIoqr9onRXIO9DrjcnMQ", "full_address": "Kaiserpassage 1\n76133 Karlsruhe", "hours": {"Monday": {"close": "19:00", "open": "10:00"}, "Tuesday": {"close": "19:00", "open": "10:00"}, "Friday": {"close": "19:00", "open": "10:00"}, "Wednesday": {"close": "19:00", "open": "10:00"}, "Thursday": {"close": "19:00", "open": "10:00"}, "Saturday": {"close": "18:00", "open": "10:00"}}, "open": true, "categories": ["Shopping", "Jewelry", "Watches"], "city": "Karlsruhe", "review_count": 5, "name": "Juwelier CoCo", "neighborhoods": [], "longitude": 8.39721, "state": "BW", "stars": 4.0, "latitude": 49.01, "attributes": {"Parking": {"garage": false, "street": false, "validated": false, "lot": false, "valet": false}, "Price Range": 3}, "type": "business"}
{"business_id": "qXKPy2VvVPn1WJtA9X3sxg", "full_address": "Georg-Friedrich-Str. 32\n76131 Karlsruhe", "hours": {}, "open": true, "categories": ["Shopping", "Jewelry", "Watches"], "city": "Karlsruhe", "review_count": 4, "name": "Uhrenklinik Speck", "neighborhoods": [], "longitude": 8.4237, "state": "BW", "stars": 4.0, "latitude": 49.0087, "attributes": {"Parking": {"garage": false, "validated": false, "street": false, "lot": false, "valet": false}, "Wheelchair Accessible": false, "Price Range": 3}, "type": "business"}
{"business_id": "TvxZ7G16ez9GhD5yRClyyQ", "full_address": "Markgrafenstr. 32\n76133 Karlsruhe", "hours": {"Tuesday": {"close": "19:00", "open": "14:30"}, "Friday": {"close": "19:00", "open": "14:30"}, "Wednesday": {"close": "19:00", "open": "14:30"}, "Thursday": {"close": "19:00", "open": "14:30"}, "Saturday": {"close": "15:00", "open": "10:00"}}, "open": true, "categories": ["Shopping", "Jewelry"], "city": "Karlsruhe", "review_count": 3, "name": "Galerie 32", "neighborhoods": [], "longitude": 8.40700060129166, "state": "BW", "stars": 5.0, "latitude": 49.007454157638, "attributes": {"By Appointment Only": false, "Parking": {"garage": true, "street": true, "validated": false, "lot": false, "valet": false}, "Accepts Credit Cards": true, "Dogs Allowed": true, "Price Range": 3}, "type": "business"}
{"business_id": "1djuLQ8LqHHYcJnh0WDuyg", "full_address": "EKZ Ettlinger Tor\nEttlinger-Tor-Platz 1\n76133 Karlsruhe", "hours": {}, "open": true, "categories": ["Shopping", "Jewelry"], "city": "Karlsruhe", "review_count": 3, "name": "Swarovski", "neighborhoods": [], "longitude": 8.4699817, "state": "BW", "stars": 5.0, "latitude": 48.9975075, "attributes": {"Parking": {"garage": false, "validated": false, "street": false, "lot": false, "valet": false}, "Accepts Credit Cards": true, "Price Range": 2}, "type": "business"}
{"business_id": "_w_wNs6zkvMNZWu43nVbmg", "full_address": "Ettlinger-Tor-Platz 1\n76133 Karlsruhe", "hours": {}, "open": true, "categories": ["Shopping", "Jewelry", "Watches"], "city": "Karlsruhe", "review_count": 4, "name": "Christ Juweliere und Uhrmacher seit 1863", "neighborhoods": [], "longitude": 8.40208, "state": "BW", "stars": 1.5, "latitude": 49.0067, "attributes": {"Price Range": 3}, "type": "business"}
{"business_id": "pTi7fwrFZTqY7mpeu8NZyw", "full_address": "Kaiserstrasse 201\n76133 Karlsruhe", "hours": {}, "open": true, "categories": ["Shopping", "Jewelry", "Watches"], "city": "Karlsruhe", "review_count": 3, "name": "Juwelier Kamphues", "neighborhoods": [], "longitude": 8.3966118, "state": "BW", "stars": 3.5, "latitude": 49.0097178, "attributes": {}, "type": "business"}
{"business_id": "HufIoqr9onRXIO9DrjcnMQ", "full_address": "Kaiserpassage 1\n76133 Karlsruhe", "hours": {"Monday": {"close": "19:00", "open": "10:00"}, "Tuesday": {"close": "19:00", "open": "10:00"}, "Friday": {"close": "19:00", "open": "10:00"}, "Wednesday": {"close": "19:00", "open": "10:00"}, "Thursday": {"close": "19:00", "open": "10:00"}, "Saturday": {"close": "18:00", "open": "10:00"}}, "open": true, "categories": ["Shopping", "Jewelry", "Watches"], "city": "Karlsruhe", "review_count": 5, "name": "Juwelier CoCo", "neighborhoods": [], "longitude": 8.39721, "state": "BW", "stars": 4.0, "latitude": 49.01, "attributes": {"Parking": {"garage": false, "street": false, "validated": false, "lot": false, "valet": false}, "Price Range": 3}, "type": "business"}
{"business_id": "qXKPy2VvVPn1WJtA9X3sxg", "full_address": "Georg-Friedrich-Str. 32\n76131 Karlsruhe", "hours": {}, "open": true, "categories": ["Shopping", "Jewelry", "Watches"], "city": "Karlsruhe", "review_count": 4, "name": "Uhrenklinik Speck", "neighborhoods": [], "longitude": 8.4237, "state": "BW", "stars": 4.0, "latitude": 49.0087, "attributes": {"Parking": {"garage": false, "validated": false, "street": false, "lot": false, "valet": false}, "Wheelchair Accessible": false, "Price Range": 3}, "type": "business"}
{"business_id": "TvxZ7G16ez9GhD5yRClyyQ", "full_address": "Markgrafenstr. 32\n76133 Karlsruhe", "hours": {"Tuesday": {"close": "19:00", "open": "14:30"}, "Friday": {"close": "19:00", "open": "14:30"}, "Wednesday": {"close": "19:00", "open": "14:30"}, "Thursday": {"close": "19:00", "open": "14:30"}, "Saturday": {"close": "15:00", "open": "10:00"}}, "open": true, "categories": ["Shopping", "Jewelry"], "city": "Karlsruhe", "review_count": 3, "name": "Galerie 32", "neighborhoods": [], "longitude": 8.40700060129166, "state": "BW", "stars": 5.0, "latitude": 49.007454157638, "attributes": {"By Appointment Only": false, "Parking": {"garage": true, "street": true, "validated": false, "lot": false, "valet": false}, "Accepts Credit Cards": true, "Dogs Allowed": true, "Price Range": 3}, "type": "business"}
{"business_id": "1djuLQ8LqHHYcJnh0WDuyg", "full_address": "EKZ Ettlinger Tor\nEttlinger-Tor-Platz 1\n76133 Karlsruhe", "hours": {}, "open": true, "categories": ["Shopping", "Jewelry"], "city": "Karlsruhe", "review_count": 3, "name": "Swarovski", "neighborhoods": [], "longitude": 8.4699817, "state": "BW", "stars": 5.0, "latitude": 48.9975075, "attributes": {"Parking": {"garage": false, "validated": false, "street": false, "lot": false, "valet": false}, "Accepts Credit Cards": true, "Price Range": 2}, "type": "business"}
{"business_id": "_w_wNs6zkvMNZWu43nVbmg", "full_address": "Ettlinger-Tor-Platz 1\n76133 Karlsruhe", "hours": {}, "open": true, "categories": ["Shopping", "Jewelry", "Watches"], "city": "Karlsruhe", "review_count": 4, "name": "Christ Juweliere und Uhrmacher seit 1863", "neighborhoods": [], "longitude": 8.40208, "state": "BW", "stars": 1.5, "latitude": 49.0067, "attributes": {"Price Range": 3}, "type": "business"}
