{"business_id": "dozJSOv07AbrTDYWDKqE_g", "full_address": "Erbprinzenstr.\n76133 Karlsruhe", "hours": {}, "open": true, "categories": ["Churches", "Landmarks & Historical Buildings", "Public Services & Government", "Religious Organizations"], "city": "Karlsruhe", "review_count": 3, "name": "Katholische Stadtkirche St. Stephan", "neighborhoods": [], "longitude": 8.3987204, "state": "BW", "stars": 4.5, "latitude": 49.0084322, "attributes": {}, "type": "business"}
{"business_id": "dozJSOv07AbrTDYWDKqE_g", "full_address": "Erbprinzenstr.\n76133 Karlsruhe", "hours": {}, "open": true, "categories": ["Churches", "Landmarks & Historical Buildings", "Public Services & Government", "Religious Organizations"], "city": "Karlsruhe", "review_count": 3, "name": "Katholische Stadtkirche St. Stephan", "neighborhoods": [], "longitude": 8.3987204, "state": "BW", "stars": 4.5, "latitude": 49.0084322, "attributes": {}, "type": "business"}
{"business_id": "dozJSOv07AbrTDYWDKqE_g", "full_address": "Erbprinzenstr.\n76133 Karlsruhe", "hours": {}, "open": true, "categories": ["Churches", "Landmarks & Historical Buildings", "Public Services & Government", "Religious Organizations"], "city": "Karlsruhe", "review_count": 3, "name": "Katholische Stadtkirche St. Stephan", "neighborhoods": [], "longitude": 8.3987204, "state": "BW", "stars": 4.5, "latitude": 49.0084322, "attributes": {}, "type": "business"}
{"business_id": "dozJSOv07AbrTDYWDKqE_g", "full_address": "Erbprinzenstr.\n76133 Karlsruhe", "hours": {}, "open": true, "categories": ["Churches", "Landmarks & Historical Buildings", "Public Services & Government", "Religious Organizations"], "city": "Karlsruhe", "review_count": 3, "name": "Katholische Stadtkirche St. Stephan", "neighborhoods": [], "longitude": 8.3987204, "state": "BW", "stars": 4.5, "latitude": 49.0084322, "attributes": {}, "type": "business"}
{"business_id": "dozJSOv07AbrTDYWDKqE_g", "full_address": "Erbprinzenstr.\n76133 Karlsruhe", "hours": {}, "open": true, "categories": ["Churches", "Landmarks & Historical Buildings", "Public Services & Government", "Religious Organizations"], "city": "Karlsruhe", "review_count": 3, "name": "Katholische Stadtkirche St. Stephan", "neighborhoods": [], "longitude": 8.3987204, "state": "BW", "stars": 4.5, "latitude": 49.0084322, "attributes": {}, "type": "business"}
{"business_id": "dozJSOv07AbrTDYWDKqE_g", "full_address": "Erbprinzenstr.\n76133 Karlsruhe", "hours": {}, "open": true, "categories": ["Churches", "Landmarks & Historical Buildings", "Public Services & Government", "Religious Organizations"], "city": "Karlsruhe", "review_count": 3, "name": "Katholische Stadtkirche St. Stephan", "neighborhoods": [], "longitude": 8.3987204, "state": "BW", "stars": 4.5, "latitude": 49.0084322, "attributes": {}, "type": "business"}
