{"business_id": "JwTJcaBBc6Z2ckGCPFo0Zw", "full_address": "Turnerstr. 44\n76189 Karlsruhe", "hours": {}, "open": true, "categories": ["Pediatric Dentists", "Health & Medical", "Dentists"], "city": "Karlsruhe", "review_count": 3, "name": "Kinder\u00e4rzte Stephan Kathrin Pfisterer Prinz", "neighborhoods": [], "longitude": 8.33613, "state": "BW", "stars": 4.0, "latitude": 49.0029, "attributes": {"Accepts Credit Cards": false, "Wheelchair Accessible": true, "Parking": {"garage": false, "validated": false, "street": false, "lot": false, "valet": false}}, "type": "business"}
{"business_id": "EUoTIMnoHlN3pov3E2ICWw", "full_address": "Weinweg 16\n76131 Karlsruhe", "hours": {}, "open": true, "categories": ["Dentists", "Doctors", "Health & Medical"], "city": "Karlsruhe", "review_count": 3, "name": "Rudolf Pacner", "neighborhoods": [], "longitude": 8.44524, "state": "BW", "stars": 4.0, "latitude": 49.0098, "attributes": {}, "type": "business"}
{"business_id": "xeZv-LeNe8gw8enVQL4zGQ", "full_address": "Haid-und-Neu-Str. 12\n76131 Karlsruhe", "hours": {"Monday": {"close": "00:00", "open": "00:00"}, "Tuesday": {"close": "20:00", "open": "15:00"}, "Friday": {"close": "00:00", "open": "00:00"}, "Wednesday": {"close": "20:00", "open": "15:00"}, "Thursday": {"close": "20:00", "open": "15:00"}, "Saturday": {"close": "00:00", "open": "00:00"}}, "open": true, "categories": ["Health & Medical", "Dentists"], "city": "Karlsruhe", "review_count": 4, "name": "Zahnarzt Tobias Ruder", "neighborhoods": [], "longitude": 8.42514, "state": "BW", "stars": 3.5, "latitude": 49.0121, "attributes": {"Parking": {"garage": false, "validated": false, "street": false, "lot": false, "valet": false}}, "type": "business"}
{"business_id": "ah-Czxz576_ZTtbetYmwNw", "full_address": "Kriegsstr. 140\n76133 Karlsruhe", "hours": {"Friday": {"close": "12:30", "open": "08:00"}, "Tuesday": {"close": "18:00", "open": "08:00"}, "Thursday": {"close": "18:00", "open": "08:00"}, "Wednesday": {"close": "18:00", "open": "08:00"}, "Monday": {"close": "18:00", "open": "08:00"}}, "open": true, "categories": ["Oral Surgeons", "Health & Medical", "Dentists"], "city": "Karlsruhe", "review_count": 6, "name": "Werner Dr. Dr. dent. und Schierle Prof. Dr. Dr. dent.", "neighborhoods": [], "longitude": 8.39429, "state": "BW", "stars": 4.0, "latitude": 49.0056, "attributes": {"Accepts Credit Cards": false, "Wheelchair Accessible": true, "Parking": {"garage": false, "validated": false, "street": false, "lot": false, "valet": false}}, "type": "business"}
{"business_id": "JwTJcaBBc6Z2ckGCPFo0Zw", "full_address": "Turnerstr. 44\n76189 Karlsruhe", "hours": {}, "open": true, "categories": ["Pediatric Dentists", "Health & Medical", "Dentists"], "city": "Karlsruhe", "review_count": 3, "name": "Kinder\u00e4rzte Stephan Kathrin Pfisterer Prinz", "neighborhoods": [], "longitude": 8.33613, "state": "BW", "stars": 4.0, "latitude": 49.0029, "attributes": {"Accepts Credit Cards": false, "Wheelchair Accessible": true, "Parking": {"garage": false, "validated": false, "street": false, "lot": false, "valet": false}}, "type": "business"}
{"business_id": "EUoTIMnoHlN3pov3E2ICWw", "full_address": "Weinweg 16\n76131 Karlsruhe", "hours": {}, "open": true, "categories": ["Dentists", "Doctors", "Health & Medical"], "city": "Karlsruhe", "review_count": 3, "name": "Rudolf Pacner", "neighborhoods": [], "longitude": 8.44524, "state": "BW", "stars": 4.0, "latitude": 49.0098, "attributes": {}, "type": "business"}
{"business_id": "xeZv-LeNe8gw8enVQL4zGQ", "full_address": "Haid-und-Neu-Str. 12\n76131 Karlsruhe", "hours": {"Monday": {"close": "00:00", "open": "00:00"}, "Tuesday": {"close": "20:00", "open": "15:00"}, "Friday": {"close": "00:00", "open": "00:00"}, "Wednesday": {"close": "20:00", "open": "15:00"}, "Thursday": {"close": "20:00", "open": "15:00"}, "Saturday": {"close": "00:00", "open": "00:00"}}, "open": true, "categories": ["Health & Medical", "Dentists"], "city": "Karlsruhe", "review_count": 4, "name": "Zahnarzt Tobias Ruder", "neighborhoods": [], "longitude": 8.42514, "state": "BW", "stars": 3.5, "latitude": 49.0121, "attributes": {"Parking": {"garage": false, "validated": false, "street": false, "lot": false, "valet": false}}, "type": "business"}
{"business_id": "ah-Czxz576_ZTtbetYmwNw", "full_address": "Kriegsstr. 140\n76133 Karlsruhe", "hours": {"Friday": {"close": "12:30", "open": "08:00"}, "Tuesday": {"close": "18:00", "open": "08:00"}, "Thursday": {"close": "18:00", "open": "08:00"}, "Wednesday": {"close": "18:00", "open": "08:00"}, "Monday": {"close": "18:00", "open": "08:00"}}, "open": true, "categories": ["Oral Surgeons", "Health & Medical", "Dentists"], "city": "Karlsruhe", "review_count": 6, "name": "Werner Dr. Dr. dent. und Schierle Prof. Dr. Dr. dent.", "neighborhoods": [], "longitude": 8.39429, "state": "BW", "stars": 4.0, "latitude": 49.0056, "attributes": {"Accepts Credit Cards": false, "Wheelchair Accessible": true, "Parking": {"garage": false, "validated": false, "street": false, "lot": false, "valet": false}}, "type": "business"}
{"business_id": "JwTJcaBBc6Z2ckGCPFo0Zw", "full_address": "Turnerstr. 44\n76189 Karlsruhe", "hours": {}, "open": true, "categories": ["Pediatric Dentists", "Health & Medical", "Dentists"], "city": "Karlsruhe", "review_count": 3, "name": "Kinder\u00e4rzte Stephan Kathrin Pfisterer Prinz", "neighborhoods": [], "longitude": 8.33613, "state": "BW", "stars": 4.0, "latitude": 49.0029, "attributes": {"Accepts Credit Cards": false, "Wheelchair Accessible": true, "Parking": {"garage": false, "validated": false, "street": false, "lot": false, "valet": false}}, "type": "business"}
{"business_id": "EUoTIMnoHlN3pov3E2ICWw", "full_address": "Weinweg 16\n76131 Karlsruhe", "hours": {}, "open": true, "categories": ["Dentists", "Doctors", "Health & Medical"], "city": "Karlsruhe", "review_count": 3, "name": "Rudolf Pacner", "neighborhoods": [], "longitude": 8.44524, "state": "BW", "stars": 4.0, "latitude": 49.0098, "attributes": {}, "type": "business"}
{"business_id": "xeZv-LeNe8gw8enVQL4zGQ", "full_address": "Haid-und-Neu-Str. 12\n76131 Karlsruhe", "hours": {"Monday": {"close": "00:00", "open": "00:00"}, "Tuesday": {"close": "20:00", "open": "15:00"}, "Friday": {"close": "00:00", "open": "00:00"}, "Wednesday": {"close": "20:00", "open": "15:00"}, "Thursday": {"close": "20:00", "open": "15:00"}, "Saturday": {"close": "00:00", "open": "00:00"}}, "open": true, "categories": ["Health & Medical", "Dentists"], "city": "Karlsruhe", "review_count": 4, "name": "Zahnarzt Tobias Ruder", "neighborhoods": [], "longitude": 8.42514, "state": "BW", "stars": 3.5, "latitude": 49.0121, "attributes": {"Parking": {"garage": false, "validated": false, "street": false, "lot": false, "valet": false}}, "type": "business"}
{"business_id": "ah-Czxz576_ZTtbetYmwNw", "full_address": "Kriegsstr. 140\n76133 Karlsruhe", "hours": {"Friday": {"close": "12:30", "open": "08:00"}, "Tuesday": {"close": "18:00", "open": "08:00"}, "Thursday": {"close": "18:00", "open": "08:00"}, "Wednesday": {"close": "18:00", "open": "08:00"}, "Monday": {"close": "18:00", "open": "08:00"}}, "open": true, "categories": ["Oral Surgeons", "Health & Medical", "Dentists"], "city": "Karlsruhe", "review_count": 6, "name": "Werner Dr. Dr. dent. und Schierle Prof. Dr. Dr. dent.", "neighborhoods": [], "longitude": 8.39429, "state": "BW", "stars": 4.0, "latitude": 49.0056, "attributes": {"Accepts Credit Cards": false, "Wheelchair Accessible": true, "Parking": {"garage": false, "validated": false, "street": false, "lot": false, "valet": false}}, "type": "business"}
{"business_id": "JwTJcaBBc6Z2ckGCPFo0Zw", "full_address": "Turnerstr. 44\n76189 Karlsruhe", "hours": {}, "open": true, "categories": ["Pediatric Dentists", "Health & Medical", "Dentists"], "city": "Karlsruhe", "review_count": 3, "name": "Kinder\u00e4rzte Stephan Kathrin Pfisterer Prinz", "neighborhoods": [], "longitude": 8.33613, "state": "BW", "stars": 4.0, "latitude": 49.0029, "attributes": {"Accepts Credit Cards": false, "Wheelchair Accessible": true, "Parking": {"garage": false, "validated": false, "street": false, "lot": false, "valet": false}}, "type": "business"}
{"business_id": "EUoTIMnoHlN3pov3E2ICWw", "full_address": "Weinweg 16\n76131 Karlsruhe", "hours": {}, "open": true, "categories": ["Dentists", "Doctors", "Health & Medical"], "city": "Karlsruhe", "review_count": 3, "name": "Rudolf Pacner", "neighborhoods": [], "longitude": 8.44524, "state": "BW", "stars": 4.0, "latitude": 49.0098, "attributes": {}, "type": "business"}
{"business_id": "xeZv-LeNe8gw8enVQL4zGQ", "full_address": "Haid-und-Neu-Str. 12\n76131 Karlsruhe", "hours": {"Monday": {"close": "00:00", "open": "00:00"}, "Tuesday": {"close": "20:00", "open": "15:00"}, "Friday": {"close": "00:00", "open": "00:00"}, "Wednesday": {"close": "20:00", "open": "15:00"}, "Thursday": {"close": "20:00", "open": "15:00"}, "Saturday": {"close": "00:00", "open": "00:00"}}, "open": true, "categories": ["Health & Medical", "Dentists"], "city": "Karlsruhe", "review_count": 4, "name": "Zahnarzt Tobias Ruder", "neighborhoods": [], "longitude": 8.42514, "state": "BW", "stars": 3.5, "latitude": 49.0121, "attributes": {"Parking": {"garage": false, "validated": false, "street": false, "lot": false, "valet": false}}, "type": "business"}
{"business_id": "ah-Czxz576_ZTtbetYmwNw", "full_address": "Kriegsstr. 140\n76133 Karlsruhe", "hours": {"Friday": {"close": "12:30", "open": "08:00"}, "Tuesday": {"close": "18:00", "open": "08:00"}, "Thursday": {"close": "18:00", "open": "08:00"}, "Wednesday": {"close": "18:00", "open": "08:00"}, "Monday": {"close": "18:00", "open": "08:00"}}, "open": true, "categories": ["Oral Surgeons", "Health & Medical", "Dentists"], "city": "Karlsruhe", "review_count": 6, "name": "Werner Dr. Dr. dent. und Schierle Prof. Dr. Dr. dent.", "neighborhoods": [], "longitude": 8.39429, "state": "BW", "stars": 4.0, "latitude": 49.0056, "attributes": {"Accepts Credit Cards": false, "Wheelchair Accessible": true, "Parking": {"garage": false, "validated": false, "street": false, "lot": false, "valet": false}}, "type": "business"}
{"business_id": "JwTJcaBBc6Z2ckGCPFo0Zw", "full_address": "Turnerstr. 44\n76189 Karlsruhe", "hours": {}, "open": true, "categories": ["Pediatric Dentists", "Health & Medical", "Dentists"], "city": "Karlsruhe", "review_count": 3, "name": "Kinder\u00e4rzte Stephan Kathrin Pfisterer Prinz", "neighborhoods": [], "longitude": 8.33613, "state": "BW", "stars": 4.0, "latitude": 49.0029, "attributes": {"Accepts Credit Cards": false, "Wheelchair Accessible": true, "Parking": {"garage": false, "validated": false, "street": false, "lot": false, "valet": false}}, "type": "business"}
{"business_id": "EUoTIMnoHlN3pov3E2ICWw", "full_address": "Weinweg 16\n76131 Karlsruhe", "hours": {}, "open": true, "categories": ["Dentists", "Doctors", "Health & Medical"], "city": "Karlsruhe", "review_count": 3, "name": "Rudolf Pacner", "neighborhoods": [], "longitude": 8.44524, "state": "BW", "stars": 4.0, "latitude": 49.0098, "attributes": {}, "type": "business"}
{"business_id": "xeZv-LeNe8gw8enVQL4zGQ", "full_address": "Haid-und-Neu-Str. 12\n76131 Karlsruhe", "hours": {"Monday": {"close": "00:00", "open": "00:00"}, "Tuesday": {"close": "20:00", "open": "15:00"}, "Friday": {"close": "00:00", "open": "00:00"}, "Wednesday": {"close": "20:00", "open": "15:00"}, "Thursday": {"close": "20:00", "open": "15:00"}, "Saturday": {"close": "00:00", "open": "00:00"}}, "open": true, "categories": ["Health & Medical", "Dentists"], "city": "Karlsruhe", "review_count": 4, "name": "Zahnarzt Tobias Ruder", "neighborhoods": [], "longitude": 8.42514, "state": "BW", "stars": 3.5, "latitude": 49.0121, "attributes": {"Parking": {"garage": false, "validated": false, "street": false, "lot": false, "valet": false}}, "type": "business"}
{"business_id": "ah-Czxz576_ZTtbetYmwNw", "full_address": "Kriegsstr. 140\n76133 Karlsruhe", "hours": {"Friday": {"close": "12:30", "open": "08:00"}, "Tuesday": {"close": "18:00", "open": "08:00"}, "Thursday": {"close": "18:00", "open": "08:00"}, "Wednesday": {"close": "18:00", "open": "08:00"}, "Monday": {"close": "18:00", "open": "08:00"}}, "open": true, "categories": ["Oral Surgeons", "Health & Medical", "Dentists"], "city": "Karlsruhe", "review_count": 6, "name": "Werner Dr. Dr. dent. und Schierle Prof. Dr. Dr. dent.", "neighborhoods": [], "longitude": 8.39429, "state": "BW", "stars": 4.0, "latitude": 49.0056, "attributes": {"Accepts Credit Cards": false, "Wheelchair Accessible": true, "Parking": {"garage": false, "validated": false, "street": false, "lot": false, "valet": false}}, "type": "business"}
{"business_id": "JwTJcaBBc6Z2ckGCPFo0Zw", "full_address": "Turnerstr. 44\n76189 Karlsruhe", "hours": {}, "open": true, "categories": ["Pediatric Dentists", "Health & Medical", "Dentists"], "city": "Karlsruhe", "review_count": 3, "name": "Kinder\u00e4rzte Stephan Kathrin Pfisterer Prinz", "neighborhoods": [], "longitude": 8.33613, "state": "BW", "stars": 4.0, "latitude": 49.0029, "attributes": {"Accepts Credit Cards": false, "Wheelchair Accessible": true, "Parking": {"garage": false, "validated": false, "street": false, "lot": false, "valet": false}}, "type": "business"}
{"business_id": "EUoTIMnoHlN3pov3E2ICWw", "full_address": "Weinweg 16\n76131 Karlsruhe", "hours": {}, "open": true, "categories": ["Dentists", "Doctors", "Health & Medical"], "city": "Karlsruhe", "review_count": 3, "name": "Rudolf Pacner", "neighborhoods": [], "longitude": 8.44524, "state": "BW", "stars": 4.0, "latitude": 49.0098, "attributes": {}, "type": "business"}
{"business_id": "xeZv-LeNe8gw8enVQL4zGQ", "full_address": "Haid-und-Neu-Str. 12\n76131 Karlsruhe", "hours": {"Monday": {"close": "00:00", "open": "00:00"}, "Tuesday": {"close": "20:00", "open": "15:00"}, "Friday": {"close": "00:00", "open": "00:00"}, "Wednesday": {"close": "20:00", "open": "15:00"}, "Thursday": {"close": "20:00", "open": "15:00"}, "Saturday": {"close": "00:00", "open": "00:00"}}, "open": true, "categories": ["Health & Medical", "Dentists"], "city": "Karlsruhe", "review_count": 4, "name": "Zahnarzt Tobias Ruder", "neighborhoods": [], "longitude": 8.42514, "state": "BW", "stars": 3.5, "latitude": 49.0121, "attributes": {"Parking": {"garage": false, "validated": false, "street": false, "lot": false, "valet": false}}, "type": "business"}
{"business_id": "ah-Czxz576_ZTtbetYmwNw", "full_address": "Kriegsstr. 140\n76133 Karlsruhe", "hours": {"Friday": {"close": "12:30", "open": "08:00"}, "Tuesday": {"close": "18:00", "open": "08:00"}, "Thursday": {"close": "18:00", "open": "08:00"}, "Wednesday": {"close": "18:00", "open": "08:00"}, "Monday": {"close": "18:00", "open": "08:00"}}, "open": true, "categories": ["Oral Surgeons", "Health & Medical", "Dentists"], "city": "Karlsruhe", "review_count": 6, "name": "Werner Dr. Dr. dent. und Schierle Prof. Dr. Dr. dent.", "neighborhoods": [], "longitude": 8.39429, "state": "BW", "stars": 4.0, "latitude": 49.0056, "attributes": {"Accepts Credit Cards": false, "Wheelchair Accessible": true, "Parking": {"garage": false, "validated": false, "street": false, "lot": false, "valet": false}}, "type": "business"}
