{"business_id": "XlytpM7Y7EIMrqy3gK2xjg", "full_address": "Schlossbezirk 10\n76131 Karlsruhe", "hours": {}, "open": true, "categories": ["Castles", "Museums", "Arts & Entertainment"], "city": "Karlsruhe", "review_count": 5, "name": "Schloss Karlsruhe", "neighborhoods": [], "longitude": 8.404352, "state": "BW", "stars": 4.5, "latitude": 49.013532, "attributes": {"Good for Kids": true, "Price Range": 1}, "type": "business"}
{"business_id": "XlytpM7Y7EIMrqy3gK2xjg", "full_address": "Schlossbezirk 10\n76131 Karlsruhe", "hours": {}, "open": true, "categories": ["Castles", "Museums", "Arts & Entertainment"], "city": "Karlsruhe", "review_count": 5, "name": "Schloss Karlsruhe", "neighborhoods": [], "longitude": 8.404352, "state": "BW", "stars": 4.5, "latitude": 49.013532, "attributes": {"Good for Kids": true, "Price Range": 1}, "type": "business"}
{"business_id": "XlytpM7Y7EIMrqy3gK2xjg", "full_address": "Schlossbezirk 10\n76131 Karlsruhe", "hours": {}, "open": true, "categories": ["Castles", "Museums", "Arts & Entertainment"], "city": "Karlsruhe", "review_count": 5, "name": "Schloss Karlsruhe", "neighborhoods": [], "longitude": 8.404352, "state": "BW", "stars": 4.5, "latitude": 49.013532, "attributes": {"Good for Kids": true, "Price Range": 1}, "type": "business"}
{"business_id": "XlytpM7Y7EIMrqy3gK2xjg", "full_address": "Schlossbezirk 10\n76131 Karlsruhe", "hours": {}, "open": true, "categories": ["Castles", "Museums", "Arts & Entertainment"], "city": "Karlsruhe", "review_count": 5, "name": "Schloss Karlsruhe", "neighborhoods": [], "longitude": 8.404352, "state": "BW", "stars": 4.5, "latitude": 49.013532, "attributes": {"Good for Kids": true, "Price Range": 1}, "type": "business"}
{"business_id": "XlytpM7Y7EIMrqy3gK2xjg", "full_address": "Schlossbezirk 10\n76131 Karlsruhe", "hours": {}, "open": true, "categories": ["Castles", "Museums", "Arts & Entertainment"], "city": "Karlsruhe", "review_count": 5, "name": "Schloss Karlsruhe", "neighborhoods": [], "longitude": 8.404352, "state": "BW", "stars": 4.5, "latitude": 49.013532, "attributes": {"Good for Kids": true, "Price Range": 1}, "type": "business"}
{"business_id": "XlytpM7Y7EIMrqy3gK2xjg", "full_address": "Schlossbezirk 10\n76131 Karlsruhe", "hours": {}, "open": true, "categories": ["Castles", "Museums", "Arts & Entertainment"], "city": "Karlsruhe", "review_count": 5, "name": "Schloss Karlsruhe", "neighborhoods": [], "longitude": 8.404352, "state": "BW", "stars": 4.5, "latitude": 49.013532, "attributes": {"Good for Kids": true, "Price Range": 1}, "type": "business"}
