{"business_id": "RdWxr1GAp-BrK25nNRMS6Q", "full_address": "Georg-Friedrich-Str. 24\n76131 Karlsruhe", "hours": {}, "open": true, "categories": ["Dermatologists", "Doctors", "Ear Nose & Throat", "Health & Medical"], "city": "Karlsruhe", "review_count": 3, "name": "Dr. med. Wilfried Pfitzer", "neighborhoods": [], "longitude": 8.42355, "state": "BW", "stars": 4.5, "latitude": 49.0094, "attributes": {}, "type": "business"}
{"business_id": "D5fZo7NO8JOAu5icizIf-A", "full_address": "Kriegsstr. 140\n76133 Karlsruhe", "hours": {}, "open": true, "categories": ["Doctors", "Ear Nose & Throat", "Health & Medical"], "city": "Karlsruhe", "review_count": 3, "name": "Dr. med. Martin Spreng", "neighborhoods": [], "longitude": 8.39429, "state": "BW", "stars": 5.0, "latitude": 49.0056, "attributes": {}, "type": "business"}
{"business_id": "Z6Sn4cSiFt5Fw4aznUjJsA", "full_address": "B\u00fcrgerstr. 16\nauch Karlsstr. 23\n76133 Karlsruhe", "hours": {}, "open": true, "categories": ["Doctors", "Ear Nose & Throat", "Health & Medical"], "city": "Karlsruhe", "review_count": 3, "name": "HNO-Praxis Andreas Scherer", "neighborhoods": [], "longitude": 8.393843, "state": "BW", "stars": 5.0, "latitude": 49.0067498, "attributes": {"Parking": {"garage": false, "validated": false, "street": false, "lot": false, "valet": false}}, "type": "business"}
{"business_id": "RdWxr1GAp-BrK25nNRMS6Q", "full_address": "Georg-Friedrich-Str. 24\n76131 Karlsruhe", "hours": {}, "open": true, "categories": ["Dermatologists", "Doctors", "Ear Nose & Throat", "Health & Medical"], "city": "Karlsruhe", "review_count": 3, "name": "Dr. med. Wilfried Pfitzer", "neighborhoods": [], "longitude": 8.42355, "state": "BW", "stars": 4.5, "latitude": 49.0094, "attributes": {}, "type": "business"}
{"business_id": "D5fZo7NO8JOAu5icizIf-A", "full_address": "Kriegsstr. 140\n76133 Karlsruhe", "hours": {}, "open": true, "categories": ["Doctors", "Ear Nose & Throat", "Health & Medical"], "city": "Karlsruhe", "review_count": 3, "name": "Dr. med. Martin Spreng", "neighborhoods": [], "longitude": 8.39429, "state": "BW", "stars": 5.0, "latitude": 49.0056, "attributes": {}, "type": "business"}
{"business_id": "Z6Sn4cSiFt5Fw4aznUjJsA", "full_address": "B\u00fcrgerstr. 16\nauch Karlsstr. 23\n76133 Karlsruhe", "hours": {}, "open": true, "categories": ["Doctors", "Ear Nose & Throat", "Health & Medical"], "city": "Karlsruhe", "review_count": 3, "name": "HNO-Praxis Andreas Scherer", "neighborhoods": [], "longitude": 8.393843, "state": "BW", "stars": 5.0, "latitude": 49.0067498, "attributes": {"Parking": {"garage": false, "validated": false, "street": false, "lot": false, "valet": false}}, "type": "business"}
{"business_id": "RdWxr1GAp-BrK25nNRMS6Q", "full_address": "Georg-Friedrich-Str. 24\n76131 Karlsruhe", "hours": {}, "open": true, "categories": ["Dermatologists", "Doctors", "Ear Nose & Throat", "Health & Medical"], "city": "Karlsruhe", "review_count": 3, "name": "Dr. med. Wilfried Pfitzer", "neighborhoods": [], "longitude": 8.42355, "state": "BW", "stars": 4.5, "latitude": 49.0094, "attributes": {}, "type": "business"}
{"business_id": "D5fZo7NO8JOAu5icizIf-A", "full_address": "Kriegsstr. 140\n76133 Karlsruhe", "hours": {}, "open": true, "categories": ["Doctors", "Ear Nose & Throat", "Health & Medical"], "city": "Karlsruhe", "review_count": 3, "name": "Dr. med. Martin Spreng", "neighborhoods": [], "longitude": 8.39429, "state": "BW", "stars": 5.0, "latitude": 49.0056, "attributes": {}, "type": "business"}
{"business_id": "Z6Sn4cSiFt5Fw4aznUjJsA", "full_address": "B\u00fcrgerstr. 16\nauch Karlsstr. 23\n76133 Karlsruhe", "hours": {}, "open": true, "categories": ["Doctors", "Ear Nose & Throat", "Health & Medical"], "city": "Karlsruhe", "review_count": 3, "name": "HNO-Praxis Andreas Scherer", "neighborhoods": [], "longitude": 8.393843, "state": "BW", "stars": 5.0, "latitude": 49.0067498, "attributes": {"Parking": {"garage": false, "validated": false, "street": false, "lot": false, "valet": false}}, "type": "business"}
{"business_id": "RdWxr1GAp-BrK25nNRMS6Q", "full_address": "Georg-Friedrich-Str. 24\n76131 Karlsruhe", "hours": {}, "open": true, "categories": ["Dermatologists", "Doctors", "Ear Nose & Throat", "Health & Medical"], "city": "Karlsruhe", "review_count": 3, "name": "Dr. med. Wilfried Pfitzer", "neighborhoods": [], "longitude": 8.42355, "state": "BW", "stars": 4.5, "latitude": 49.0094, "attributes": {}, "type": "business"}
{"business_id": "D5fZo7NO8JOAu5icizIf-A", "full_address": "Kriegsstr. 140\n76133 Karlsruhe", "hours": {}, "open": true, "categories": ["Doctors", "Ear Nose & Throat", "Health & Medical"], "city": "Karlsruhe", "review_count": 3, "name": "Dr. med. Martin Spreng", "neighborhoods": [], "longitude": 8.39429, "state": "BW", "stars": 5.0, "latitude": 49.0056, "attributes": {}, "type": "business"}
{"business_id": "Z6Sn4cSiFt5Fw4aznUjJsA", "full_address": "B\u00fcrgerstr. 16\nauch Karlsstr. 23\n76133 Karlsruhe", "hours": {}, "open": true, "categories": ["Doctors", "Ear Nose & Throat", "Health & Medical"], "city": "Karlsruhe", "review_count": 3, "name": "HNO-Praxis Andreas Scherer", "neighborhoods": [], "longitude": 8.393843, "state": "BW", "stars": 5.0, "latitude": 49.0067498, "attributes": {"Parking": {"garage": false, "validated": false, "street": false, "lot": false, "valet": false}}, "type": "business"}
{"business_id": "RdWxr1GAp-BrK25nNRMS6Q", "full_address": "Georg-Friedrich-Str. 24\n76131 Karlsruhe", "hours": {}, "open": true, "categories": ["Dermatologists", "Doctors", "Ear Nose & Throat", "Health & Medical"], "city": "Karlsruhe", "review_count": 3, "name": "Dr. med. Wilfried Pfitzer", "neighborhoods": [], "longitude": 8.42355, "state": "BW", "stars": 4.5, "latitude": 49.0094, "attributes": {}, "type": "business"}
{"business_id": "D5fZo7NO8JOAu5icizIf-A", "full_address": "Kriegsstr. 140\n76133 Karlsruhe", "hours": {}, "open": true, "categories": ["Doctors", "Ear Nose & Throat", "Health & Medical"], "city": "Karlsruhe", "review_count": 3, "name": "Dr. med. Martin Spreng", "neighborhoods": [], "longitude": 8.39429, "state": "BW", "stars": 5.0, "latitude": 49.0056, "attributes": {}, "type": "business"}
{"business_id": "Z6Sn4cSiFt5Fw4aznUjJsA", "full_address": "B\u00fcrgerstr. 16\nauch Karlsstr. 23\n76133 Karlsruhe", "hours": {}, "open": true, "categories": ["Doctors", "Ear Nose & Throat", "Health & Medical"], "city": "Karlsruhe", "review_count": 3, "name": "HNO-Praxis Andreas Scherer", "neighborhoods": [], "longitude": 8.393843, "state": "BW", "stars": 5.0, "latitude": 49.0067498, "attributes": {"Parking": {"garage": false, "validated": false, "street": false, "lot": false, "valet": false}}, "type": "business"}
{"business_id": "RdWxr1GAp-BrK25nNRMS6Q", "full_address": "Georg-Friedrich-Str. 24\n76131 Karlsruhe", "hours": {}, "open": true, "categories": ["Dermatologists", "Doctors", "Ear Nose & Throat", "Health & Medical"], "city": "Karlsruhe", "review_count": 3, "name": "Dr. med. Wilfried Pfitzer", "neighborhoods": [], "longitude": 8.42355, "state": "BW", "stars": 4.5, "latitude": 49.0094, "attributes": {}, "type": "business"}
{"business_id": "D5fZo7NO8JOAu5icizIf-A", "full_address": "Kriegsstr. 140\n76133 Karlsruhe", "hours": {}, "open": true, "categories": ["Doctors", "Ear Nose & Throat", "Health & Medical"], "city": "Karlsruhe", "review_count": 3, "name": "Dr. med. Martin Spreng", "neighborhoods": [], "longitude": 8.39429, "state": "BW", "stars": 5.0, "latitude": 49.0056, "attributes": {}, "type": "business"}
{"business_id": "Z6Sn4cSiFt5Fw4aznUjJsA", "full_address": "B\u00fcrgerstr. 16\nauch Karlsstr. 23\n76133 Karlsruhe", "hours": {}, "open": true, "categories": ["Doctors", "Ear Nose & Throat", "Health & Medical"], "city": "Karlsruhe", "review_count": 3, "name": "HNO-Praxis Andreas Scherer", "neighborhoods": [], "longitude": 8.393843, "state": "BW", "stars": 5.0, "latitude": 49.0067498, "attributes": {"Parking": {"garage": false, "validated": false, "street": false, "lot": false, "valet": false}}, "type": "business"}
