{"business_id": "8ZGrdBf9yv0hJt1aZgX7dA", "full_address": "Haid-und-Neu-Str. 30a\n76131 Karlsruhe", "hours": {}, "open": true, "categories": ["Automotive", "Gas & Service Stations"], "city": "Karlsruhe", "review_count": 5, "name": "Jet Tankstelle Gerhard Hamm", "neighborhoods": [], "longitude": 8.42881, "state": "BW", "stars": 4.0, "latitude": 49.0133, "attributes": {"Parking": {"garage": false, "validated": false, "street": false, "lot": false, "valet": false}, "Accepts Credit Cards": true, "Wheelchair Accessible": true, "Price Range": 1}, "type": "business"}
{"business_id": "4N3t84XBpdBk0b1D6d9oYw", "full_address": "Karlsruher Str. 50\n76275 Ettlingen", "hours": {}, "open": true, "categories": ["Automotive", "Gas & Service Stations"], "city": "Ettlingen", "review_count": 4, "name": "Aral", "neighborhoods": [], "longitude": 8.40667, "state": "BW", "stars": 4.0, "latitude": 48.9581, "attributes": {"Price Range": 3}, "type": "business"}
{"business_id": "8ZGrdBf9yv0hJt1aZgX7dA", "full_address": "Haid-und-Neu-Str. 30a\n76131 Karlsruhe", "hours": {}, "open": true, "categories": ["Automotive", "Gas & Service Stations"], "city": "Karlsruhe", "review_count": 5, "name": "Jet Tankstelle Gerhard Hamm", "neighborhoods": [], "longitude": 8.42881, "state": "BW", "stars": 4.0, "latitude": 49.0133, "attributes": {"Parking": {"garage": false, "validated": false, "street": false, "lot": false, "valet": false}, "Accepts Credit Cards": true, "Wheelchair Accessible": true, "Price Range": 1}, "type": "business"}
{"business_id": "4N3t84XBpdBk0b1D6d9oYw", "full_address": "Karlsruher Str. 50\n76275 Ettlingen", "hours": {}, "open": true, "categories": ["Automotive", "Gas & Service Stations"], "city": "Ettlingen", "review_count": 4, "name": "Aral", "neighborhoods": [], "longitude": 8.40667, "state": "BW", "stars": 4.0, "latitude": 48.9581, "attributes": {"Price Range": 3}, "type": "business"}
{"business_id": "8ZGrdBf9yv0hJt1aZgX7dA", "full_address": "Haid-und-Neu-Str. 30a\n76131 Karlsruhe", "hours": {}, "open": true, "categories": ["Automotive", "Gas & Service Stations"], "city": "Karlsruhe", "review_count": 5, "name": "Jet Tankstelle Gerhard Hamm", "neighborhoods": [], "longitude": 8.42881, "state": "BW", "stars": 4.0, "latitude": 49.0133, "attributes": {"Parking": {"garage": false, "validated": false, "street": false, "lot": false, "valet": false}, "Accepts Credit Cards": true, "Wheelchair Accessible": true, "Price Range": 1}, "type": "business"}
{"business_id": "4N3t84XBpdBk0b1D6d9oYw", "full_address": "Karlsruher Str. 50\n76275 Ettlingen", "hours": {}, "open": true, "categories": ["Automotive", "Gas & Service Stations"], "city": "Ettlingen", "review_count": 4, "name": "Aral", "neighborhoods": [], "longitude": 8.40667, "state": "BW", "stars": 4.0, "latitude": 48.9581, "attributes": {"Price Range": 3}, "type": "business"}
{"business_id": "8ZGrdBf9yv0hJt1aZgX7dA", "full_address": "Haid-und-Neu-Str. 30a\n76131 Karlsruhe", "hours": {}, "open": true, "categories": ["Automotive", "Gas & Service Stations"], "city": "Karlsruhe", "review_count": 5, "name": "Jet Tankstelle Gerhard Hamm", "neighborhoods": [], "longitude": 8.42881, "state": "BW", "stars": 4.0, "latitude": 49.0133, "attributes": {"Parking": {"garage": false, "validated": false, "street": false, "lot": false, "valet": false}, "Accepts Credit Cards": true, "Wheelchair Accessible": true, "Price Range": 1}, "type": "business"}
{"business_id": "4N3t84XBpdBk0b1D6d9oYw", "full_address": "Karlsruher Str. 50\n76275 Ettlingen", "hours": {}, "open": true, "categories": ["Automotive", "Gas & Service Stations"], "city": "Ettlingen", "review_count": 4, "name": "Aral", "neighborhoods": [], "longitude": 8.40667, "state": "BW", "stars": 4.0, "latitude": 48.9581, "attributes": {"Price Range": 3}, "type": "business"}
{"business_id": "8ZGrdBf9yv0hJt1aZgX7dA", "full_address": "Haid-und-Neu-Str. 30a\n76131 Karlsruhe", "hours": {}, "open": true, "categories": ["Automotive", "Gas & Service Stations"], "city": "Karlsruhe", "review_count": 5, "name": "Jet Tankstelle Gerhard Hamm", "neighborhoods": [], "longitude": 8.42881, "state": "BW", "stars": 4.0, "latitude": 49.0133, "attributes": {"Parking": {"garage": false, "validated": false, "street": false, "lot": false, "valet": false}, "Accepts Credit Cards": true, "Wheelchair Accessible": true, "Price Range": 1}, "type": "business"}
{"business_id": "4N3t84XBpdBk0b1D6d9oYw", "full_address": "Karlsruher Str. 50\n76275 Ettlingen", "hours": {}, "open": true, "categories": ["Automotive", "Gas & Service Stations"], "city": "Ettlingen", "review_count": 4, "name": "Aral", "neighborhoods": [], "longitude": 8.40667, "state": "BW", "stars": 4.0, "latitude": 48.9581, "attributes": {"Price Range": 3}, "type": "business"}
{"business_id": "8ZGrdBf9yv0hJt1aZgX7dA", "full_address": "Haid-und-Neu-Str. 30a\n76131 Karlsruhe", "hours": {}, "open": true, "categories": ["Automotive", "Gas & Service Stations"], "city": "Karlsruhe", "review_count": 5, "name": "Jet Tankstelle Gerhard Hamm", "neighborhoods": [], "longitude": 8.42881, "state": "BW", "stars": 4.0, "latitude": 49.0133, "attributes": {"Parking": {"garage": false, "validated": false, "street": false, "lot": false, "valet": false}, "Accepts Credit Cards": true, "Wheelchair Accessible": true, "Price Range": 1}, "type": "business"}
{"business_id": "4N3t84XBpdBk0b1D6d9oYw", "full_address": "Karlsruher Str. 50\n76275 Ettlingen", "hours": {}, "open": true, "categories": ["Automotive", "Gas & Service Stations"], "city": "Ettlingen", "review_count": 4, "name": "Aral", "neighborhoods": [], "longitude": 8.40667, "state": "BW", "stars": 4.0, "latitude": 48.9581, "attributes": {"Price Range": 3}, "type": "business"}
