{"business_id": "_sWP2LkDml6bE9nKB3MUPg", "full_address": "Kaiserstra\u00dfe 215\n76133 Karlsruhe", "hours": {"Friday": {"close": "00:00", "open": "00:00"}, "Tuesday": {"close": "17:30", "open": "14:30"}, "Thursday": {"close": "17:30", "open": "14:30"}, "Wednesday": {"close": "00:00", "open": "00:00"}, "Monday": {"close": "17:30", "open": "14:30"}}, "open": true, "categories": ["Dermatologists", "Doctors", "Allergists", "Health & Medical"], "city": "Karlsruhe", "review_count": 6, "name": "Drs. Fritz O\u00dfwald, Ina Reitenbach-Blindt, Franz Schwan, David", "neighborhoods": [], "longitude": 8.39524, "state": "BW", "stars": 5.0, "latitude": 49.00978, "attributes": {"By Appointment Only": false, "Wheelchair Accessible": true, "Parking": {"garage": false, "validated": false, "street": false, "lot": false, "valet": false}}, "type": "business"}
{"business_id": "RdWxr1GAp-BrK25nNRMS6Q", "full_address": "Georg-Friedrich-Str. 24\n76131 Karlsruhe", "hours": {}, "open": true, "categories": ["Dermatologists", "Doctors", "Ear Nose & Throat", "Health & Medical"], "city": "Karlsruhe", "review_count": 3, "name": "Dr. med. Wilfried Pfitzer", "neighborhoods": [], "longitude": 8.42355, "state": "BW", "stars": 4.5, "latitude": 49.0094, "attributes": {}, "type": "business"}
{"business_id": "7J75VLZKDJhCypKjUAcFXQ", "full_address": "Leopoldstr. 40\n76275 Ettlingen", "hours": {}, "open": true, "categories": ["Dermatologists", "Doctors", "Health & Medical", "Internal Medicine"], "city": "Ettlingen", "review_count": 3, "name": "Dr. med. Andreas Kist", "neighborhoods": [], "longitude": 8.40789, "state": "BW", "stars": 3.5, "latitude": 48.94011, "attributes": {"Wheelchair Accessible": true, "Parking": {"garage": false, "validated": false, "street": false, "lot": false, "valet": false}}, "type": "business"}
{"business_id": "G0l7qwpaS_4l-D86ObrVaQ", "full_address": "Kaiserstr. 110\n76133 Karlsruhe", "hours": {}, "open": true, "categories": ["Dermatologists", "Doctors", "Health & Medical"], "city": "Karlsruhe", "review_count": 5, "name": "Haut\u00e4rzte/Allergologie Robert Adina Figl Figl", "neighborhoods": [], "longitude": 8.3987, "state": "BW", "stars": 3.0, "latitude": 49.0098, "attributes": {}, "type": "business"}
{"business_id": "_sWP2LkDml6bE9nKB3MUPg", "full_address": "Kaiserstra\u00dfe 215\n76133 Karlsruhe", "hours": {"Friday": {"close": "00:00", "open": "00:00"}, "Tuesday": {"close": "17:30", "open": "14:30"}, "Thursday": {"close": "17:30", "open": "14:30"}, "Wednesday": {"close": "00:00", "open": "00:00"}, "Monday": {"close": "17:30", "open": "14:30"}}, "open": true, "categories": ["Dermatologists", "Doctors", "Allergists", "Health & Medical"], "city": "Karlsruhe", "review_count": 6, "name": "Drs. Fritz O\u00dfwald, Ina Reitenbach-Blindt, Franz Schwan, David", "neighborhoods": [], "longitude": 8.39524, "state": "BW", "stars": 5.0, "latitude": 49.00978, "attributes": {"By Appointment Only": false, "Wheelchair Accessible": true, "Parking": {"garage": false, "validated": false, "street": false, "lot": false, "valet": false}}, "type": "business"}
{"business_id": "RdWxr1GAp-BrK25nNRMS6Q", "full_address": "Georg-Friedrich-Str. 24\n76131 Karlsruhe", "hours": {}, "open": true, "categories": ["Dermatologists", "Doctors", "Ear Nose & Throat", "Health & Medical"], "city": "Karlsruhe", "review_count": 3, "name": "Dr. med. Wilfried Pfitzer", "neighborhoods": [], "longitude": 8.42355, "state": "BW", "stars": 4.5, "latitude": 49.0094, "attributes": {}, "type": "business"}
{"business_id": "7J75VLZKDJhCypKjUAcFXQ", "full_address": "Leopoldstr. 40\n76275 Ettlingen", "hours": {}, "open": true, "categories": ["Dermatologists", "Doctors", "Health & Medical", "Internal Medicine"], "city": "Ettlingen", "review_count": 3, "name": "Dr. med. Andreas Kist", "neighborhoods": [], "longitude": 8.40789, "state": "BW", "stars": 3.5, "latitude": 48.94011, "attributes": {"Wheelchair Accessible": true, "Parking": {"garage": false, "validated": false, "street": false, "lot": false, "valet": false}}, "type": "business"}
{"business_id": "G0l7qwpaS_4l-D86ObrVaQ", "full_address": "Kaiserstr. 110\n76133 Karlsruhe", "hours": {}, "open": true, "categories": ["Dermatologists", "Doctors", "Health & Medical"], "city": "Karlsruhe", "review_count": 5, "name": "Haut\u00e4rzte/Allergologie Robert Adina Figl Figl", "neighborhoods": [], "longitude": 8.3987, "state": "BW", "stars": 3.0, "latitude": 49.0098, "attributes": {}, "type": "business"}
{"business_id": "_sWP2LkDml6bE9nKB3MUPg", "full_address": "Kaiserstra\u00dfe 215\n76133 Karlsruhe", "hours": {"Friday": {"close": "00:00", "open": "00:00"}, "Tuesday": {"close": "17:30", "open": "14:30"}, "Thursday": {"close": "17:30", "open": "14:30"}, "Wednesday": {"close": "00:00", "open": "00:00"}, "Monday": {"close": "17:30", "open": "14:30"}}, "open": true, "categories": ["Dermatologists", "Doctors", "Allergists", "Health & Medical"], "city": "Karlsruhe", "review_count": 6, "name": "Drs. Fritz O\u00dfwald, Ina Reitenbach-Blindt, Franz Schwan, David", "neighborhoods": [], "longitude": 8.39524, "state": "BW", "stars": 5.0, "latitude": 49.00978, "attributes": {"By Appointment Only": false, "Wheelchair Accessible": true, "Parking": {"garage": false, "validated": false, "street": false, "lot": false, "valet": false}}, "type": "business"}
{"business_id": "RdWxr1GAp-BrK25nNRMS6Q", "full_address": "Georg-Friedrich-Str. 24\n76131 Karlsruhe", "hours": {}, "open": true, "categories": ["Dermatologists", "Doctors", "Ear Nose & Throat", "Health & Medical"], "city": "Karlsruhe", "review_count": 3, "name": "Dr. med. Wilfried Pfitzer", "neighborhoods": [], "longitude": 8.42355, "state": "BW", "stars": 4.5, "latitude": 49.0094, "attributes": {}, "type": "business"}
{"business_id": "7J75VLZKDJhCypKjUAcFXQ", "full_address": "Leopoldstr. 40\n76275 Ettlingen", "hours": {}, "open": true, "categories": ["Dermatologists", "Doctors", "Health & Medical", "Internal Medicine"], "city": "Ettlingen", "review_count": 3, "name": "Dr. med. Andreas Kist", "neighborhoods": [], "longitude": 8.40789, "state": "BW", "stars": 3.5, "latitude": 48.94011, "attributes": {"Wheelchair Accessible": true, "Parking": {"garage": false, "validated": false, "street": false, "lot": false, "valet": false}}, "type": "business"}
{"business_id": "G0l7qwpaS_4l-D86ObrVaQ", "full_address": "Kaiserstr. 110\n76133 Karlsruhe", "hours": {}, "open": true, "categories": ["Dermatologists", "Doctors", "Health & Medical"], "city": "Karlsruhe", "review_count": 5, "name": "Haut\u00e4rzte/Allergologie Robert Adina Figl Figl", "neighborhoods": [], "longitude": 8.3987, "state": "BW", "stars": 3.0, "latitude": 49.0098, "attributes": {}, "type": "business"}
{"business_id": "_sWP2LkDml6bE9nKB3MUPg", "full_address": "Kaiserstra\u00dfe 215\n76133 Karlsruhe", "hours": {"Friday": {"close": "00:00", "open": "00:00"}, "Tuesday": {"close": "17:30", "open": "14:30"}, "Thursday": {"close": "17:30", "open": "14:30"}, "Wednesday": {"close": "00:00", "open": "00:00"}, "Monday": {"close": "17:30", "open": "14:30"}}, "open": true, "categories": ["Dermatologists", "Doctors", "Allergists", "Health & Medical"], "city": "Karlsruhe", "review_count": 6, "name": "Drs. Fritz O\u00dfwald, Ina Reitenbach-Blindt, Franz Schwan, David", "neighborhoods": [], "longitude": 8.39524, "state": "BW", "stars": 5.0, "latitude": 49.00978, "attributes": {"By Appointment Only": false, "Wheelchair Accessible": true, "Parking": {"garage": false, "validated": false, "street": false, "lot": false, "valet": false}}, "type": "business"}
{"business_id": "RdWxr1GAp-BrK25nNRMS6Q", "full_address": "Georg-Friedrich-Str. 24\n76131 Karlsruhe", "hours": {}, "open": true, "categories": ["Dermatologists", "Doctors", "Ear Nose & Throat", "Health & Medical"], "city": "Karlsruhe", "review_count": 3, "name": "Dr. med. Wilfried Pfitzer", "neighborhoods": [], "longitude": 8.42355, "state": "BW", "stars": 4.5, "latitude": 49.0094, "attributes": {}, "type": "business"}
{"business_id": "7J75VLZKDJhCypKjUAcFXQ", "full_address": "Leopoldstr. 40\n76275 Ettlingen", "hours": {}, "open": true, "categories": ["Dermatologists", "Doctors", "Health & Medical", "Internal Medicine"], "city": "Ettlingen", "review_count": 3, "name": "Dr. med. Andreas Kist", "neighborhoods": [], "longitude": 8.40789, "state": "BW", "stars": 3.5, "latitude": 48.94011, "attributes": {"Wheelchair Accessible": true, "Parking": {"garage": false, "validated": false, "street": false, "lot": false, "valet": false}}, "type": "business"}
{"business_id": "G0l7qwpaS_4l-D86ObrVaQ", "full_address": "Kaiserstr. 110\n76133 Karlsruhe", "hours": {}, "open": true, "categories": ["Dermatologists", "Doctors", "Health & Medical"], "city": "Karlsruhe", "review_count": 5, "name": "Haut\u00e4rzte/Allergologie Robert Adina Figl Figl", "neighborhoods": [], "longitude": 8.3987, "state": "BW", "stars": 3.0, "latitude": 49.0098, "attributes": {}, "type": "business"}
{"business_id": "_sWP2LkDml6bE9nKB3MUPg", "full_address": "Kaiserstra\u00dfe 215\n76133 Karlsruhe", "hours": {"Friday": {"close": "00:00", "open": "00:00"}, "Tuesday": {"close": "17:30", "open": "14:30"}, "Thursday": {"close": "17:30", "open": "14:30"}, "Wednesday": {"close": "00:00", "open": "00:00"}, "Monday": {"close": "17:30", "open": "14:30"}}, "open": true, "categories": ["Dermatologists", "Doctors", "Allergists", "Health & Medical"], "city": "Karlsruhe", "review_count": 6, "name": "Drs. Fritz O\u00dfwald, Ina Reitenbach-Blindt, Franz Schwan, David", "neighborhoods": [], "longitude": 8.39524, "state": "BW", "stars": 5.0, "latitude": 49.00978, "attributes": {"By Appointment Only": false, "Wheelchair Accessible": true, "Parking": {"garage": false, "validated": false, "street": false, "lot": false, "valet": false}}, "type": "business"}
{"business_id": "RdWxr1GAp-BrK25nNRMS6Q", "full_address": "Georg-Friedrich-Str. 24\n76131 Karlsruhe", "hours": {}, "open": true, "categories": ["Dermatologists", "Doctors", "Ear Nose & Throat", "Health & Medical"], "city": "Karlsruhe", "review_count": 3, "name": "Dr. med. Wilfried Pfitzer", "neighborhoods": [], "longitude": 8.42355, "state": "BW", "stars": 4.5, "latitude": 49.0094, "attributes": {}, "type": "business"}
{"business_id": "7J75VLZKDJhCypKjUAcFXQ", "full_address": "Leopoldstr. 40\n76275 Ettlingen", "hours": {}, "open": true, "categories": ["Dermatologists", "Doctors", "Health & Medical", "Internal Medicine"], "city": "Ettlingen", "review_count": 3, "name": "Dr. med. Andreas Kist", "neighborhoods": [], "longitude": 8.40789, "state": "BW", "stars": 3.5, "latitude": 48.94011, "attributes": {"Wheelchair Accessible": true, "Parking": {"garage": false, "validated": false, "street": false, "lot": false, "valet": false}}, "type": "business"}
{"business_id": "G0l7qwpaS_4l-D86ObrVaQ", "full_address": "Kaiserstr. 110\n76133 Karlsruhe", "hours": {}, "open": true, "categories": ["Dermatologists", "Doctors", "Health & Medical"], "city": "Karlsruhe", "review_count": 5, "name": "Haut\u00e4rzte/Allergologie Robert Adina Figl Figl", "neighborhoods": [], "longitude": 8.3987, "state": "BW", "stars": 3.0, "latitude": 49.0098, "attributes": {}, "type": "business"}
{"business_id": "_sWP2LkDml6bE9nKB3MUPg", "full_address": "Kaiserstra\u00dfe 215\n76133 Karlsruhe", "hours": {"Friday": {"close": "00:00", "open": "00:00"}, "Tuesday": {"close": "17:30", "open": "14:30"}, "Thursday": {"close": "17:30", "open": "14:30"}, "Wednesday": {"close": "00:00", "open": "00:00"}, "Monday": {"close": "17:30", "open": "14:30"}}, "open": true, "categories": ["Dermatologists", "Doctors", "Allergists", "Health & Medical"], "city": "Karlsruhe", "review_count": 6, "name": "Drs. Fritz O\u00dfwald, Ina Reitenbach-Blindt, Franz Schwan, David", "neighborhoods": [], "longitude": 8.39524, "state": "BW", "stars": 5.0, "latitude": 49.00978, "attributes": {"By Appointment Only": false, "Wheelchair Accessible": true, "Parking": {"garage": false, "validated": false, "street": false, "lot": false, "valet": false}}, "type": "business"}
{"business_id": "RdWxr1GAp-BrK25nNRMS6Q", "full_address": "Georg-Friedrich-Str. 24\n76131 Karlsruhe", "hours": {}, "open": true, "categories": ["Dermatologists", "Doctors", "Ear Nose & Throat", "Health & Medical"], "city": "Karlsruhe", "review_count": 3, "name": "Dr. med. Wilfried Pfitzer", "neighborhoods": [], "longitude": 8.42355, "state": "BW", "stars": 4.5, "latitude": 49.0094, "attributes": {}, "type": "business"}
{"business_id": "7J75VLZKDJhCypKjUAcFXQ", "full_address": "Leopoldstr. 40\n76275 Ettlingen", "hours": {}, "open": true, "categories": ["Dermatologists", "Doctors", "Health & Medical", "Internal Medicine"], "city": "Ettlingen", "review_count": 3, "name": "Dr. med. Andreas Kist", "neighborhoods": [], "longitude": 8.40789, "state": "BW", "stars": 3.5, "latitude": 48.94011, "attributes": {"Wheelchair Accessible": true, "Parking": {"garage": false, "validated": false, "street": false, "lot": false, "valet": false}}, "type": "business"}
{"business_id": "G0l7qwpaS_4l-D86ObrVaQ", "full_address": "Kaiserstr. 110\n76133 Karlsruhe", "hours": {}, "open": true, "categories": ["Dermatologists", "Doctors", "Health & Medical"], "city": "Karlsruhe", "review_count": 5, "name": "Haut\u00e4rzte/Allergologie Robert Adina Figl Figl", "neighborhoods": [], "longitude": 8.3987, "state": "BW", "stars": 3.0, "latitude": 49.0098, "attributes": {}, "type": "business"}
