{"business_id": "eYwk23GQRyxdTFsW7vzi0g", "full_address": "Jahnstr. 65\n76307 Karlsbad", "hours": {}, "open": true, "categories": ["German", "Hotels & Travel", "Guest Houses", "Restaurants"], "city": "Karlsbad", "review_count": 3, "name": "Zur Wagenburg", "neighborhoods": [], "longitude": 8.49461, "state": "BW", "stars": 4.5, "latitude": 48.914, "attributes": {"Take-out": false, "Delivery": false, "Dogs Allowed": false, "Outdoor Seating": false, "Parking": {"garage": false, "street": false, "validated": false, "lot": false, "valet": false}, "Smoking": "no", "Accepts Credit Cards": false}, "type": "business"}
{"business_id": "eYwk23GQRyxdTFsW7vzi0g", "full_address": "Jahnstr. 65\n76307 Karlsbad", "hours": {}, "open": true, "categories": ["German", "Hotels & Travel", "Guest Houses", "Restaurants"], "city": "Karlsbad", "review_count": 3, "name": "Zur Wagenburg", "neighborhoods": [], "longitude": 8.49461, "state": "BW", "stars": 4.5, "latitude": 48.914, "attributes": {"Take-out": false, "Delivery": false, "Dogs Allowed": false, "Outdoor Seating": false, "Parking": {"garage": false, "street": false, "validated": false, "lot": false, "valet": false}, "Smoking": "no", "Accepts Credit Cards": false}, "type": "business"}
{"business_id": "eYwk23GQRyxdTFsW7vzi0g", "full_address": "Jahnstr. 65\n76307 Karlsbad", "hours": {}, "open": true, "categories": ["German", "Hotels & Travel", "Guest Houses", "Restaurants"], "city": "Karlsbad", "review_count": 3, "name": "Zur Wagenburg", "neighborhoods": [], "longitude": 8.49461, "state": "BW", "stars": 4.5, "latitude": 48.914, "attributes": {"Take-out": false, "Delivery": false, "Dogs Allowed": false, "Outdoor Seating": false, "Parking": {"garage": false, "street": false, "validated": false, "lot": false, "valet": false}, "Smoking": "no", "Accepts Credit Cards": false}, "type": "business"}
{"business_id": "eYwk23GQRyxdTFsW7vzi0g", "full_address": "Jahnstr. 65\n76307 Karlsbad", "hours": {}, "open": true, "categories": ["German", "Hotels & Travel", "Guest Houses", "Restaurants"], "city": "Karlsbad", "review_count": 3, "name": "Zur Wagenburg", "neighborhoods": [], "longitude": 8.49461, "state": "BW", "stars": 4.5, "latitude": 48.914, "attributes": {"Take-out": false, "Delivery": false, "Dogs Allowed": false, "Outdoor Seating": false, "Parking": {"garage": false, "street": false, "validated": false, "lot": false, "valet": false}, "Smoking": "no", "Accepts Credit Cards": false}, "type": "business"}
{"business_id": "eYwk23GQRyxdTFsW7vzi0g", "full_address": "Jahnstr. 65\n76307 Karlsbad", "hours": {}, "open": true, "categories": ["German", "Hotels & Travel", "Guest Houses", "Restaurants"], "city": "Karlsbad", "review_count": 3, "name": "Zur Wagenburg", "neighborhoods": [], "longitude": 8.49461, "state": "BW", "stars": 4.5, "latitude": 48.914, "attributes": {"Take-out": false, "Delivery": false, "Dogs Allowed": false, "Outdoor Seating": false, "Parking": {"garage": false, "street": false, "validated": false, "lot": false, "valet": false}, "Smoking": "no", "Accepts Credit Cards": false}, "type": "business"}
{"business_id": "eYwk23GQRyxdTFsW7vzi0g", "full_address": "Jahnstr. 65\n76307 Karlsbad", "hours": {}, "open": true, "categories": ["German", "Hotels & Travel", "Guest Houses", "Restaurants"], "city": "Karlsbad", "review_count": 3, "name": "Zur Wagenburg", "neighborhoods": [], "longitude": 8.49461, "state": "BW", "stars": 4.5, "latitude": 48.914, "attributes": {"Take-out": false, "Delivery": false, "Dogs Allowed": false, "Outdoor Seating": false, "Parking": {"garage": false, "street": false, "validated": false, "lot": false, "valet": false}, "Smoking": "no", "Accepts Credit Cards": false}, "type": "business"}
