{"business_id": "195hVRlAgcgMNNt8Ttdu8g", "full_address": "Erbprinzenstra\u00dfe 15\n76133 Karlsruhe", "hours": {}, "open": true, "categories": ["Libraries", "Public Services & Government", "Mass Media"], "city": "Karlsruhe", "review_count": 5, "name": "Badische Landesbibliothek", "neighborhoods": [], "longitude": 8.3994451, "state": "BW", "stars": 5.0, "latitude": 49.0081042, "attributes": {"Price Range": 1}, "type": "business"}
{"business_id": "eQ6pqLsqEZQRKU4lwrreDg", "full_address": "Brauerstr.  48\n76135 Karlsruhe", "hours": {}, "open": true, "categories": ["Mass Media"], "city": "Karlsruhe", "review_count": 21, "name": "gmx.de", "neighborhoods": [], "longitude": 8.3857352, "state": "BW", "stars": 3.5, "latitude": 48.9998433, "attributes": {"Accepts Credit Cards": true, "Price Range": 1}, "type": "business"}
{"business_id": "UsmhvNhN6mLe8oB2_trLvg", "full_address": "Sophienstr. 136\n76133 Karlsruhe", "hours": {}, "open": true, "categories": ["Mass Media"], "city": "Karlsruhe", "review_count": 4, "name": "Inka Stadtmagazin", "neighborhoods": [], "longitude": 8.3787489, "state": "BW", "stars": 4.0, "latitude": 49.0081936, "attributes": {}, "type": "business"}
{"business_id": "195hVRlAgcgMNNt8Ttdu8g", "full_address": "Erbprinzenstra\u00dfe 15\n76133 Karlsruhe", "hours": {}, "open": true, "categories": ["Libraries", "Public Services & Government", "Mass Media"], "city": "Karlsruhe", "review_count": 5, "name": "Badische Landesbibliothek", "neighborhoods": [], "longitude": 8.3994451, "state": "BW", "stars": 5.0, "latitude": 49.0081042, "attributes": {"Price Range": 1}, "type": "business"}
{"business_id": "eQ6pqLsqEZQRKU4lwrreDg", "full_address": "Brauerstr.  48\n76135 Karlsruhe", "hours": {}, "open": true, "categories": ["Mass Media"], "city": "Karlsruhe", "review_count": 21, "name": "gmx.de", "neighborhoods": [], "longitude": 8.3857352, "state": "BW", "stars": 3.5, "latitude": 48.9998433, "attributes": {"Accepts Credit Cards": true, "Price Range": 1}, "type": "business"}
{"business_id": "UsmhvNhN6mLe8oB2_trLvg", "full_address": "Sophienstr. 136\n76133 Karlsruhe", "hours": {}, "open": true, "categories": ["Mass Media"], "city": "Karlsruhe", "review_count": 4, "name": "Inka Stadtmagazin", "neighborhoods": [], "longitude": 8.3787489, "state": "BW", "stars": 4.0, "latitude": 49.0081936, "attributes": {}, "type": "business"}
{"business_id": "195hVRlAgcgMNNt8Ttdu8g", "full_address": "Erbprinzenstra\u00dfe 15\n76133 Karlsruhe", "hours": {}, "open": true, "categories": ["Libraries", "Public Services & Government", "Mass Media"], "city": "Karlsruhe", "review_count": 5, "name": "Badische Landesbibliothek", "neighborhoods": [], "longitude": 8.3994451, "state": "BW", "stars": 5.0, "latitude": 49.0081042, "attributes": {"Price Range": 1}, "type": "business"}
{"business_id": "eQ6pqLsqEZQRKU4lwrreDg", "full_address": "Brauerstr.  48\n76135 Karlsruhe", "hours": {}, "open": true, "categories": ["Mass Media"], "city": "Karlsruhe", "review_count": 21, "name": "gmx.de", "neighborhoods": [], "longitude": 8.3857352, "state": "BW", "stars": 3.5, "latitude": 48.9998433, "attributes": {"Accepts Credit Cards": true, "Price Range": 1}, "type": "business"}
{"business_id": "UsmhvNhN6mLe8oB2_trLvg", "full_address": "Sophienstr. 136\n76133 Karlsruhe", "hours": {}, "open": true, "categories": ["Mass Media"], "city": "Karlsruhe", "review_count": 4, "name": "Inka Stadtmagazin", "neighborhoods": [], "longitude": 8.3787489, "state": "BW", "stars": 4.0, "latitude": 49.0081936, "attributes": {}, "type": "business"}
{"business_id": "195hVRlAgcgMNNt8Ttdu8g", "full_address": "Erbprinzenstra\u00dfe 15\n76133 Karlsruhe", "hours": {}, "open": true, "categories": ["Libraries", "Public Services & Government", "Mass Media"], "city": "Karlsruhe", "review_count": 5, "name": "Badische Landesbibliothek", "neighborhoods": [], "longitude": 8.3994451, "state": "BW", "stars": 5.0, "latitude": 49.0081042, "attributes": {"Price Range": 1}, "type": "business"}
{"business_id": "eQ6pqLsqEZQRKU4lwrreDg", "full_address": "Brauerstr.  48\n76135 Karlsruhe", "hours": {}, "open": true, "categories": ["Mass Media"], "city": "Karlsruhe", "review_count": 21, "name": "gmx.de", "neighborhoods": [], "longitude": 8.3857352, "state": "BW", "stars": 3.5, "latitude": 48.9998433, "attributes": {"Accepts Credit Cards": true, "Price Range": 1}, "type": "business"}
{"business_id": "UsmhvNhN6mLe8oB2_trLvg", "full_address": "Sophienstr. 136\n76133 Karlsruhe", "hours": {}, "open": true, "categories": ["Mass Media"], "city": "Karlsruhe", "review_count": 4, "name": "Inka Stadtmagazin", "neighborhoods": [], "longitude": 8.3787489, "state": "BW", "stars": 4.0, "latitude": 49.0081936, "attributes": {}, "type": "business"}
{"business_id": "195hVRlAgcgMNNt8Ttdu8g", "full_address": "Erbprinzenstra\u00dfe 15\n76133 Karlsruhe", "hours": {}, "open": true, "categories": ["Libraries", "Public Services & Government", "Mass Media"], "city": "Karlsruhe", "review_count": 5, "name": "Badische Landesbibliothek", "neighborhoods": [], "longitude": 8.3994451, "state": "BW", "stars": 5.0, "latitude": 49.0081042, "attributes": {"Price Range": 1}, "type": "business"}
{"business_id": "eQ6pqLsqEZQRKU4lwrreDg", "full_address": "Brauerstr.  48\n76135 Karlsruhe", "hours": {}, "open": true, "categories": ["Mass Media"], "city": "Karlsruhe", "review_count": 21, "name": "gmx.de", "neighborhoods": [], "longitude": 8.3857352, "state": "BW", "stars": 3.5, "latitude": 48.9998433, "attributes": {"Accepts Credit Cards": true, "Price Range": 1}, "type": "business"}
{"business_id": "UsmhvNhN6mLe8oB2_trLvg", "full_address": "Sophienstr. 136\n76133 Karlsruhe", "hours": {}, "open": true, "categories": ["Mass Media"], "city": "Karlsruhe", "review_count": 4, "name": "Inka Stadtmagazin", "neighborhoods": [], "longitude": 8.3787489, "state": "BW", "stars": 4.0, "latitude": 49.0081936, "attributes": {}, "type": "business"}
{"business_id": "195hVRlAgcgMNNt8Ttdu8g", "full_address": "Erbprinzenstra\u00dfe 15\n76133 Karlsruhe", "hours": {}, "open": true, "categories": ["Libraries", "Public Services & Government", "Mass Media"], "city": "Karlsruhe", "review_count": 5, "name": "Badische Landesbibliothek", "neighborhoods": [], "longitude": 8.3994451, "state": "BW", "stars": 5.0, "latitude": 49.0081042, "attributes": {"Price Range": 1}, "type": "business"}
{"business_id": "eQ6pqLsqEZQRKU4lwrreDg", "full_address": "Brauerstr.  48\n76135 Karlsruhe", "hours": {}, "open": true, "categories": ["Mass Media"], "city": "Karlsruhe", "review_count": 21, "name": "gmx.de", "neighborhoods": [], "longitude": 8.3857352, "state": "BW", "stars": 3.5, "latitude": 48.9998433, "attributes": {"Accepts Credit Cards": true, "Price Range": 1}, "type": "business"}
{"business_id": "UsmhvNhN6mLe8oB2_trLvg", "full_address": "Sophienstr. 136\n76133 Karlsruhe", "hours": {}, "open": true, "categories": ["Mass Media"], "city": "Karlsruhe", "review_count": 4, "name": "Inka Stadtmagazin", "neighborhoods": [], "longitude": 8.3787489, "state": "BW", "stars": 4.0, "latitude": 49.0081936, "attributes": {}, "type": "business"}
