{"business_id": "acPzIK1f3vybPlnjE1hWKQ", "full_address": "Lessingstr. 51\n76135 Karlsruhe", "hours": {}, "open": true, "categories": ["Sporting Goods", "Shopping"], "city": "Karlsruhe", "review_count": 9, "name": "Hans Gulyas", "neighborhoods": [], "longitude": 8.3849381, "state": "BW", "stars": 4.0, "latitude": 49.0047874, "attributes": {"Parking": {"garage": false, "street": true, "validated": false, "lot": false, "valet": false}, "Accepts Credit Cards": true, "Price Range": 2}, "type": "business"}
{"business_id": "gV6tV_vL3bj_a8sugZInFg", "full_address": "Herrenstr. 21\n76133 Karlsruhe", "hours": {}, "open": false, "categories": ["Active Life", "Sporting Goods", "Shopping"], "city": "Karlsruhe", "review_count": 4, "name": "Sport-Sch\u00fctz GmbH", "neighborhoods": [], "longitude": 8.39924, "state": "BW", "stars": 3.0, "latitude": 49.0096, "attributes": {"Price Range": 3}, "type": "business"}
{"business_id": "S_wRQzLYdfv1KG8nKidc-Q", "full_address": "Neureuter Stra\u00dfe 61\n76185 Karlsruhe", "hours": {"Monday": {"close": "19:00", "open": "10:00"}, "Tuesday": {"close": "19:00", "open": "10:00"}, "Friday": {"close": "19:00", "open": "10:00"}, "Wednesday": {"close": "19:00", "open": "10:00"}, "Thursday": {"close": "19:00", "open": "10:00"}, "Saturday": {"close": "18:00", "open": "10:00"}}, "open": true, "categories": ["Sporting Goods", "Bikes", "Shopping"], "city": "Karlsruhe", "review_count": 6, "name": "Zweirad Eicker", "neighborhoods": [], "longitude": 8.3591498, "state": "BW", "stars": 2.5, "latitude": 49.0308144, "attributes": {"Parking": {"garage": false, "street": false, "validated": false, "lot": false, "valet": false}, "Accepts Credit Cards": true, "Wheelchair Accessible": true, "Price Range": 2}, "type": "business"}
{"business_id": "INsIrE2YYnYqO3_nmGj4gQ", "full_address": "Steinstr. 23\n76133 Karlsruhe", "hours": {"Friday": {"close": "19:00", "open": "15:00"}, "Wednesday": {"close": "19:00", "open": "15:00"}, "Thursday": {"close": "19:00", "open": "15:00"}, "Saturday": {"close": "14:00", "open": "10:00"}}, "open": true, "categories": ["Sporting Goods", "Bikes", "Shopping"], "city": "Karlsruhe", "review_count": 4, "name": "Radler-Martin", "neighborhoods": [], "longitude": 8.4074855, "state": "BW", "stars": 3.0, "latitude": 49.0070298, "attributes": {"Parking": {"garage": false, "validated": false, "street": false, "lot": false, "valet": false}, "Accepts Credit Cards": false, "Price Range": 1}, "type": "business"}
{"business_id": "y4Y_PFthmrdSZuJH6Jl9GQ", "full_address": "Kaiserstra\u00dfe 181\n76133 Karlsruhe", "hours": {}, "open": true, "categories": ["Sporting Goods", "Fashion", "Shopping", "Shoe Stores"], "city": "Karlsruhe", "review_count": 6, "name": "Foot Locker", "neighborhoods": [], "longitude": 8.3990525, "state": "BW", "stars": 4.0, "latitude": 49.0096384, "attributes": {"Wheelchair Accessible": true, "Price Range": 3}, "type": "business"}
{"business_id": "zd79xkJ8xqQcU26zsf8IrQ", "full_address": "Pfinztalstr. 12\n76227 Karlsruhe", "hours": {"Monday": {"close": "18:30", "open": "06:30"}, "Tuesday": {"close": "18:30", "open": "06:30"}, "Friday": {"close": "18:30", "open": "06:30"}, "Wednesday": {"close": "18:30", "open": "06:30"}, "Thursday": {"close": "18:30", "open": "06:30"}, "Saturday": {"close": "13:00", "open": "06:30"}}, "open": true, "categories": ["Bakeries", "Food", "Sporting Goods", "Shopping"], "city": "Karlsruhe", "review_count": 5, "name": "B\u00e4ckerei Weber", "neighborhoods": [], "longitude": 8.474428, "state": "BW", "stars": 4.0, "latitude": 48.9993023, "attributes": {"Parking": {"garage": false, "validated": false, "street": false, "lot": false, "valet": false}, "Price Range": 1}, "type": "business"}
{"business_id": "MYaAu_O2PSecDRS8WqX5mw", "full_address": "Erbprinzenstr. 4-12\n76133 Karlsruhe", "hours": {}, "open": true, "categories": ["Sporting Goods", "Bikes", "Shopping"], "city": "Karlsruhe", "review_count": 5, "name": "S\u00fcdstern Fahrrad", "neighborhoods": [], "longitude": 8.40278, "state": "BW", "stars": 3.5, "latitude": 49.0073, "attributes": {"Price Range": 3}, "type": "business"}
{"business_id": "ujJhvCkk_fhmRCwn7W1rSw", "full_address": "Ettlinger Str. 43\n76137 Karlsruhe", "hours": {"Monday": {"close": "18:30", "open": "14:00"}, "Tuesday": {"close": "18:30", "open": "14:00"}, "Friday": {"close": "18:30", "open": "14:00"}, "Wednesday": {"close": "18:30", "open": "14:00"}, "Thursday": {"close": "18:30", "open": "14:00"}, "Saturday": {"close": "15:00", "open": "10:00"}}, "open": true, "categories": ["Sporting Goods", "Bikes", "Shopping"], "city": "Karlsruhe", "review_count": 3, "name": "Bike Lager", "neighborhoods": [], "longitude": 8.40459, "state": "BW", "stars": 3.5, "latitude": 48.9974, "attributes": {"Parking": {"garage": false, "street": false, "validated": false, "lot": false, "valet": false}, "Accepts Credit Cards": false, "Price Range": 3}, "type": "business"}
{"business_id": "n7-VcjUylQ94Zte3mWqLJg", "full_address": "Georg-Friedrich-Str. 11\n76131 Karlsruhe", "hours": {"Monday": {"close": "18:00", "open": "14:00"}, "Tuesday": {"close": "18:00", "open": "14:00"}, "Friday": {"close": "18:00", "open": "14:00"}, "Wednesday": {"close": "18:00", "open": "14:00"}, "Thursday": {"close": "18:00", "open": "14:00"}, "Saturday": {"close": "00:00", "open": "00:00"}}, "open": true, "categories": ["Sporting Goods", "Bikes", "Shopping"], "city": "Karlsruhe", "review_count": 6, "name": "Madame V\u00e9lo", "neighborhoods": [], "longitude": 8.42398, "state": "BW", "stars": 3.0, "latitude": 49.0092, "attributes": {"Parking": {"garage": false, "validated": false, "street": false, "lot": false, "valet": false}, "Accepts Credit Cards": false, "Wheelchair Accessible": false, "Price Range": 1}, "type": "business"}
{"business_id": "gy26G9TuzHCF5pEOswcBtA", "full_address": "Zirkel 27\n76131 Karlsruhe", "hours": {"Monday": {"close": "18:30", "open": "14:00"}, "Tuesday": {"close": "18:30", "open": "14:00"}, "Friday": {"close": "18:30", "open": "14:00"}, "Wednesday": {"close": "00:00", "open": "00:00"}, "Thursday": {"close": "18:30", "open": "14:00"}, "Saturday": {"close": "00:00", "open": "00:00"}}, "open": true, "categories": ["Active Life", "Sporting Goods", "Bikes", "Shopping", "Bike Rentals"], "city": "Karlsruhe", "review_count": 4, "name": "Fahrr\u00e4der und Zubeh\u00f6r Peter Fahrrad Fachgesch\u00e4ft Strebel &", "neighborhoods": [], "longitude": 8.40164, "state": "BW", "stars": 4.0, "latitude": 49.0105, "attributes": {"Parking": {"garage": false, "street": false, "validated": false, "lot": false, "valet": false}, "Accepts Credit Cards": false, "Wheelchair Accessible": true, "Price Range": 4}, "type": "business"}
{"business_id": "LudeITL-wiw883I4Nqq0Fg", "full_address": "Passagehof 24\n76133 Karlsruhe", "hours": {"Monday": {"close": "19:30", "open": "10:30"}, "Tuesday": {"close": "19:30", "open": "10:30"}, "Friday": {"close": "19:30", "open": "10:30"}, "Wednesday": {"close": "19:30", "open": "10:30"}, "Thursday": {"close": "19:30", "open": "10:30"}, "Saturday": {"close": "19:30", "open": "10:30"}}, "open": true, "categories": ["Sporting Goods", "Fashion", "Shopping", "Outdoor Gear"], "city": "Karlsruhe", "review_count": 6, "name": "GRiP Boardshop Karlsruhe", "neighborhoods": [], "longitude": 8.39640182740027, "state": "BW", "stars": 5.0, "latitude": 49.0106767352139, "attributes": {"Parking": {"garage": true, "street": true, "validated": false, "lot": false, "valet": false}, "Accepts Credit Cards": true, "Price Range": 2}, "type": "business"}
{"business_id": "uAbMtNpZiRDqf61PRX4bDw", "full_address": "Carl-Metz-Str. 3\n76185 Karlsruhe", "hours": {"Monday": {"close": "19:00", "open": "10:00"}, "Tuesday": {"close": "19:00", "open": "10:00"}, "Friday": {"close": "19:00", "open": "10:00"}, "Wednesday": {"close": "19:00", "open": "10:00"}, "Thursday": {"close": "19:00", "open": "10:00"}, "Saturday": {"close": "18:00", "open": "10:00"}}, "open": true, "categories": ["Fashion", "Shopping", "Sporting Goods", "Local Services", "Bikes", "Sports Wear", "Bike Repair/Maintenance"], "city": "Karlsruhe", "review_count": 9, "name": "B.O.C.", "neighborhoods": [], "longitude": 8.35423, "state": "BW", "stars": 3.0, "latitude": 49.00984, "attributes": {"Parking": {"garage": false, "street": false, "validated": false, "lot": true, "valet": false}, "Accepts Credit Cards": false, "Wheelchair Accessible": true, "Price Range": 2}, "type": "business"}
{"business_id": "-YUFxZVqO5i-LlqVjsGwPQ", "full_address": "Waldstra\u00dfe 58\n76133 Karlsruhe", "hours": {"Monday": {"close": "19:00", "open": "10:00"}, "Tuesday": {"close": "19:00", "open": "10:00"}, "Friday": {"close": "19:00", "open": "10:00"}, "Wednesday": {"close": "19:00", "open": "10:00"}, "Thursday": {"close": "19:00", "open": "10:00"}, "Saturday": {"close": "16:00", "open": "10:00"}}, "open": true, "categories": ["Sporting Goods", "Bikes", "Shopping"], "city": "Karlsruhe", "review_count": 10, "name": "Rad & Tat Fahrradhandlung", "neighborhoods": [], "longitude": 8.392423, "state": "BW", "stars": 2.5, "latitude": 49.0071347, "attributes": {"Parking": {"garage": false, "validated": false, "street": false, "lot": false, "valet": false}, "Accepts Credit Cards": false, "Wheelchair Accessible": true, "Price Range": 2}, "type": "business"}
{"business_id": "1FQtU5Wa-POL8Mfyc1uIpg", "full_address": "Veilchenstr. 12\n76131 Karlsruhe", "hours": {"Monday": {"close": "23:00", "open": "15:00"}, "Tuesday": {"close": "20:00", "open": "15:00"}, "Friday": {"close": "20:00", "open": "15:00"}, "Wednesday": {"close": "20:00", "open": "15:00"}, "Thursday": {"close": "23:00", "open": "15:00"}, "Saturday": {"close": "20:00", "open": "15:00"}}, "open": true, "categories": ["Sporting Goods", "Bikes", "Shopping"], "city": "Karlsruhe", "review_count": 4, "name": "only highend", "neighborhoods": [], "longitude": 8.4279636, "state": "BW", "stars": 5.0, "latitude": 49.0102513, "attributes": {"Parking": {"garage": false, "validated": false, "street": false, "lot": false, "valet": false}}, "type": "business"}
{"business_id": "O_8KPbCJpKSuFeqgmY0rHQ", "full_address": "Kaiserstr. 231\n76133 Karlsruhe", "hours": {"Monday": {"close": "19:00", "open": "10:00"}, "Tuesday": {"close": "19:00", "open": "10:00"}, "Friday": {"close": "19:00", "open": "10:00"}, "Wednesday": {"close": "19:00", "open": "10:00"}, "Thursday": {"close": "19:00", "open": "10:00"}, "Saturday": {"close": "19:00", "open": "10:00"}}, "open": true, "categories": ["Sporting Goods", "Shopping", "Outdoor Gear"], "city": "Karlsruhe", "review_count": 14, "name": "Basislager", "neighborhoods": [], "longitude": 8.3914972, "state": "BW", "stars": 4.5, "latitude": 49.0100738, "attributes": {"Parking": {"garage": true, "street": false, "validated": false, "lot": false, "valet": false}, "Accepts Credit Cards": true, "Dogs Allowed": true, "Price Range": 3}, "type": "business"}
{"business_id": "acPzIK1f3vybPlnjE1hWKQ", "full_address": "Lessingstr. 51\n76135 Karlsruhe", "hours": {}, "open": true, "categories": ["Sporting Goods", "Shopping"], "city": "Karlsruhe", "review_count": 9, "name": "Hans Gulyas", "neighborhoods": [], "longitude": 8.3849381, "state": "BW", "stars": 4.0, "latitude": 49.0047874, "attributes": {"Parking": {"garage": false, "street": true, "validated": false, "lot": false, "valet": false}, "Accepts Credit Cards": true, "Price Range": 2}, "type": "business"}
{"business_id": "gV6tV_vL3bj_a8sugZInFg", "full_address": "Herrenstr. 21\n76133 Karlsruhe", "hours": {}, "open": false, "categories": ["Active Life", "Sporting Goods", "Shopping"], "city": "Karlsruhe", "review_count": 4, "name": "Sport-Sch\u00fctz GmbH", "neighborhoods": [], "longitude": 8.39924, "state": "BW", "stars": 3.0, "latitude": 49.0096, "attributes": {"Price Range": 3}, "type": "business"}
{"business_id": "S_wRQzLYdfv1KG8nKidc-Q", "full_address": "Neureuter Stra\u00dfe 61\n76185 Karlsruhe", "hours": {"Monday": {"close": "19:00", "open": "10:00"}, "Tuesday": {"close": "19:00", "open": "10:00"}, "Friday": {"close": "19:00", "open": "10:00"}, "Wednesday": {"close": "19:00", "open": "10:00"}, "Thursday": {"close": "19:00", "open": "10:00"}, "Saturday": {"close": "18:00", "open": "10:00"}}, "open": true, "categories": ["Sporting Goods", "Bikes", "Shopping"], "city": "Karlsruhe", "review_count": 6, "name": "Zweirad Eicker", "neighborhoods": [], "longitude": 8.3591498, "state": "BW", "stars": 2.5, "latitude": 49.0308144, "attributes": {"Parking": {"garage": false, "street": false, "validated": false, "lot": false, "valet": false}, "Accepts Credit Cards": true, "Wheelchair Accessible": true, "Price Range": 2}, "type": "business"}
{"business_id": "INsIrE2YYnYqO3_nmGj4gQ", "full_address": "Steinstr. 23\n76133 Karlsruhe", "hours": {"Friday": {"close": "19:00", "open": "15:00"}, "Wednesday": {"close": "19:00", "open": "15:00"}, "Thursday": {"close": "19:00", "open": "15:00"}, "Saturday": {"close": "14:00", "open": "10:00"}}, "open": true, "categories": ["Sporting Goods", "Bikes", "Shopping"], "city": "Karlsruhe", "review_count": 4, "name": "Radler-Martin", "neighborhoods": [], "longitude": 8.4074855, "state": "BW", "stars": 3.0, "latitude": 49.0070298, "attributes": {"Parking": {"garage": false, "validated": false, "street": false, "lot": false, "valet": false}, "Accepts Credit Cards": false, "Price Range": 1}, "type": "business"}
{"business_id": "y4Y_PFthmrdSZuJH6Jl9GQ", "full_address": "Kaiserstra\u00dfe 181\n76133 Karlsruhe", "hours": {}, "open": true, "categories": ["Sporting Goods", "Fashion", "Shopping", "Shoe Stores"], "city": "Karlsruhe", "review_count": 6, "name": "Foot Locker", "neighborhoods": [], "longitude": 8.3990525, "state": "BW", "stars": 4.0, "latitude": 49.0096384, "attributes": {"Wheelchair Accessible": true, "Price Range": 3}, "type": "business"}
{"business_id": "zd79xkJ8xqQcU26zsf8IrQ", "full_address": "Pfinztalstr. 12\n76227 Karlsruhe", "hours": {"Monday": {"close": "18:30", "open": "06:30"}, "Tuesday": {"close": "18:30", "open": "06:30"}, "Friday": {"close": "18:30", "open": "06:30"}, "Wednesday": {"close": "18:30", "open": "06:30"}, "Thursday": {"close": "18:30", "open": "06:30"}, "Saturday": {"close": "13:00", "open": "06:30"}}, "open": true, "categories": ["Bakeries", "Food", "Sporting Goods", "Shopping"], "city": "Karlsruhe", "review_count": 5, "name": "B\u00e4ckerei Weber", "neighborhoods": [], "longitude": 8.474428, "state": "BW", "stars": 4.0, "latitude": 48.9993023, "attributes": {"Parking": {"garage": false, "validated": false, "street": false, "lot": false, "valet": false}, "Price Range": 1}, "type": "business"}
{"business_id": "MYaAu_O2PSecDRS8WqX5mw", "full_address": "Erbprinzenstr. 4-12\n76133 Karlsruhe", "hours": {}, "open": true, "categories": ["Sporting Goods", "Bikes", "Shopping"], "city": "Karlsruhe", "review_count": 5, "name": "S\u00fcdstern Fahrrad", "neighborhoods": [], "longitude": 8.40278, "state": "BW", "stars": 3.5, "latitude": 49.0073, "attributes": {"Price Range": 3}, "type": "business"}
{"business_id": "ujJhvCkk_fhmRCwn7W1rSw", "full_address": "Ettlinger Str. 43\n76137 Karlsruhe", "hours": {"Monday": {"close": "18:30", "open": "14:00"}, "Tuesday": {"close": "18:30", "open": "14:00"}, "Friday": {"close": "18:30", "open": "14:00"}, "Wednesday": {"close": "18:30", "open": "14:00"}, "Thursday": {"close": "18:30", "open": "14:00"}, "Saturday": {"close": "15:00", "open": "10:00"}}, "open": true, "categories": ["Sporting Goods", "Bikes", "Shopping"], "city": "Karlsruhe", "review_count": 3, "name": "Bike Lager", "neighborhoods": [], "longitude": 8.40459, "state": "BW", "stars": 3.5, "latitude": 48.9974, "attributes": {"Parking": {"garage": false, "street": false, "validated": false, "lot": false, "valet": false}, "Accepts Credit Cards": false, "Price Range": 3}, "type": "business"}
{"business_id": "n7-VcjUylQ94Zte3mWqLJg", "full_address": "Georg-Friedrich-Str. 11\n76131 Karlsruhe", "hours": {"Monday": {"close": "18:00", "open": "14:00"}, "Tuesday": {"close": "18:00", "open": "14:00"}, "Friday": {"close": "18:00", "open": "14:00"}, "Wednesday": {"close": "18:00", "open": "14:00"}, "Thursday": {"close": "18:00", "open": "14:00"}, "Saturday": {"close": "00:00", "open": "00:00"}}, "open": true, "categories": ["Sporting Goods", "Bikes", "Shopping"], "city": "Karlsruhe", "review_count": 6, "name": "Madame V\u00e9lo", "neighborhoods": [], "longitude": 8.42398, "state": "BW", "stars": 3.0, "latitude": 49.0092, "attributes": {"Parking": {"garage": false, "validated": false, "street": false, "lot": false, "valet": false}, "Accepts Credit Cards": false, "Wheelchair Accessible": false, "Price Range": 1}, "type": "business"}
{"business_id": "gy26G9TuzHCF5pEOswcBtA", "full_address": "Zirkel 27\n76131 Karlsruhe", "hours": {"Monday": {"close": "18:30", "open": "14:00"}, "Tuesday": {"close": "18:30", "open": "14:00"}, "Friday": {"close": "18:30", "open": "14:00"}, "Wednesday": {"close": "00:00", "open": "00:00"}, "Thursday": {"close": "18:30", "open": "14:00"}, "Saturday": {"close": "00:00", "open": "00:00"}}, "open": true, "categories": ["Active Life", "Sporting Goods", "Bikes", "Shopping", "Bike Rentals"], "city": "Karlsruhe", "review_count": 4, "name": "Fahrr\u00e4der und Zubeh\u00f6r Peter Fahrrad Fachgesch\u00e4ft Strebel &", "neighborhoods": [], "longitude": 8.40164, "state": "BW", "stars": 4.0, "latitude": 49.0105, "attributes": {"Parking": {"garage": false, "street": false, "validated": false, "lot": false, "valet": false}, "Accepts Credit Cards": false, "Wheelchair Accessible": true, "Price Range": 4}, "type": "business"}
{"business_id": "LudeITL-wiw883I4Nqq0Fg", "full_address": "Passagehof 24\n76133 Karlsruhe", "hours": {"Monday": {"close": "19:30", "open": "10:30"}, "Tuesday": {"close": "19:30", "open": "10:30"}, "Friday": {"close": "19:30", "open": "10:30"}, "Wednesday": {"close": "19:30", "open": "10:30"}, "Thursday": {"close": "19:30", "open": "10:30"}, "Saturday": {"close": "19:30", "open": "10:30"}}, "open": true, "categories": ["Sporting Goods", "Fashion", "Shopping", "Outdoor Gear"], "city": "Karlsruhe", "review_count": 6, "name": "GRiP Boardshop Karlsruhe", "neighborhoods": [], "longitude": 8.39640182740027, "state": "BW", "stars": 5.0, "latitude": 49.0106767352139, "attributes": {"Parking": {"garage": true, "street": true, "validated": false, "lot": false, "valet": false}, "Accepts Credit Cards": true, "Price Range": 2}, "type": "business"}
{"business_id": "uAbMtNpZiRDqf61PRX4bDw", "full_address": "Carl-Metz-Str. 3\n76185 Karlsruhe", "hours": {"Monday": {"close": "19:00", "open": "10:00"}, "Tuesday": {"close": "19:00", "open": "10:00"}, "Friday": {"close": "19:00", "open": "10:00"}, "Wednesday": {"close": "19:00", "open": "10:00"}, "Thursday": {"close": "19:00", "open": "10:00"}, "Saturday": {"close": "18:00", "open": "10:00"}}, "open": true, "categories": ["Fashion", "Shopping", "Sporting Goods", "Local Services", "Bikes", "Sports Wear", "Bike Repair/Maintenance"], "city": "Karlsruhe", "review_count": 9, "name": "B.O.C.", "neighborhoods": [], "longitude": 8.35423, "state": "BW", "stars": 3.0, "latitude": 49.00984, "attributes": {"Parking": {"garage": false, "street": false, "validated": false, "lot": true, "valet": false}, "Accepts Credit Cards": false, "Wheelchair Accessible": true, "Price Range": 2}, "type": "business"}
{"business_id": "-YUFxZVqO5i-LlqVjsGwPQ", "full_address": "Waldstra\u00dfe 58\n76133 Karlsruhe", "hours": {"Monday": {"close": "19:00", "open": "10:00"}, "Tuesday": {"close": "19:00", "open": "10:00"}, "Friday": {"close": "19:00", "open": "10:00"}, "Wednesday": {"close": "19:00", "open": "10:00"}, "Thursday": {"close": "19:00", "open": "10:00"}, "Saturday": {"close": "16:00", "open": "10:00"}}, "open": true, "categories": ["Sporting Goods", "Bikes", "Shopping"], "city": "Karlsruhe", "review_count": 10, "name": "Rad & Tat Fahrradhandlung", "neighborhoods": [], "longitude": 8.392423, "state": "BW", "stars": 2.5, "latitude": 49.0071347, "attributes": {"Parking": {"garage": false, "validated": false, "street": false, "lot": false, "valet": false}, "Accepts Credit Cards": false, "Wheelchair Accessible": true, "Price Range": 2}, "type": "business"}
{"business_id": "1FQtU5Wa-POL8Mfyc1uIpg", "full_address": "Veilchenstr. 12\n76131 Karlsruhe", "hours": {"Monday": {"close": "23:00", "open": "15:00"}, "Tuesday": {"close": "20:00", "open": "15:00"}, "Friday": {"close": "20:00", "open": "15:00"}, "Wednesday": {"close": "20:00", "open": "15:00"}, "Thursday": {"close": "23:00", "open": "15:00"}, "Saturday": {"close": "20:00", "open": "15:00"}}, "open": true, "categories": ["Sporting Goods", "Bikes", "Shopping"], "city": "Karlsruhe", "review_count": 4, "name": "only highend", "neighborhoods": [], "longitude": 8.4279636, "state": "BW", "stars": 5.0, "latitude": 49.0102513, "attributes": {"Parking": {"garage": false, "validated": false, "street": false, "lot": false, "valet": false}}, "type": "business"}
{"business_id": "O_8KPbCJpKSuFeqgmY0rHQ", "full_address": "Kaiserstr. 231\n76133 Karlsruhe", "hours": {"Monday": {"close": "19:00", "open": "10:00"}, "Tuesday": {"close": "19:00", "open": "10:00"}, "Friday": {"close": "19:00", "open": "10:00"}, "Wednesday": {"close": "19:00", "open": "10:00"}, "Thursday": {"close": "19:00", "open": "10:00"}, "Saturday": {"close": "19:00", "open": "10:00"}}, "open": true, "categories": ["Sporting Goods", "Shopping", "Outdoor Gear"], "city": "Karlsruhe", "review_count": 14, "name": "Basislager", "neighborhoods": [], "longitude": 8.3914972, "state": "BW", "stars": 4.5, "latitude": 49.0100738, "attributes": {"Parking": {"garage": true, "street": false, "validated": false, "lot": false, "valet": false}, "Accepts Credit Cards": true, "Dogs Allowed": true, "Price Range": 3}, "type": "business"}
{"business_id": "acPzIK1f3vybPlnjE1hWKQ", "full_address": "Lessingstr. 51\n76135 Karlsruhe", "hours": {}, "open": true, "categories": ["Sporting Goods", "Shopping"], "city": "Karlsruhe", "review_count": 9, "name": "Hans Gulyas", "neighborhoods": [], "longitude": 8.3849381, "state": "BW", "stars": 4.0, "latitude": 49.0047874, "attributes": {"Parking": {"garage": false, "street": true, "validated": false, "lot": false, "valet": false}, "Accepts Credit Cards": true, "Price Range": 2}, "type": "business"}
{"business_id": "gV6tV_vL3bj_a8sugZInFg", "full_address": "Herrenstr. 21\n76133 Karlsruhe", "hours": {}, "open": false, "categories": ["Active Life", "Sporting Goods", "Shopping"], "city": "Karlsruhe", "review_count": 4, "name": "Sport-Sch\u00fctz GmbH", "neighborhoods": [], "longitude": 8.39924, "state": "BW", "stars": 3.0, "latitude": 49.0096, "attributes": {"Price Range": 3}, "type": "business"}
{"business_id": "S_wRQzLYdfv1KG8nKidc-Q", "full_address": "Neureuter Stra\u00dfe 61\n76185 Karlsruhe", "hours": {"Monday": {"close": "19:00", "open": "10:00"}, "Tuesday": {"close": "19:00", "open": "10:00"}, "Friday": {"close": "19:00", "open": "10:00"}, "Wednesday": {"close": "19:00", "open": "10:00"}, "Thursday": {"close": "19:00", "open": "10:00"}, "Saturday": {"close": "18:00", "open": "10:00"}}, "open": true, "categories": ["Sporting Goods", "Bikes", "Shopping"], "city": "Karlsruhe", "review_count": 6, "name": "Zweirad Eicker", "neighborhoods": [], "longitude": 8.3591498, "state": "BW", "stars": 2.5, "latitude": 49.0308144, "attributes": {"Parking": {"garage": false, "street": false, "validated": false, "lot": false, "valet": false}, "Accepts Credit Cards": true, "Wheelchair Accessible": true, "Price Range": 2}, "type": "business"}
{"business_id": "INsIrE2YYnYqO3_nmGj4gQ", "full_address": "Steinstr. 23\n76133 Karlsruhe", "hours": {"Friday": {"close": "19:00", "open": "15:00"}, "Wednesday": {"close": "19:00", "open": "15:00"}, "Thursday": {"close": "19:00", "open": "15:00"}, "Saturday": {"close": "14:00", "open": "10:00"}}, "open": true, "categories": ["Sporting Goods", "Bikes", "Shopping"], "city": "Karlsruhe", "review_count": 4, "name": "Radler-Martin", "neighborhoods": [], "longitude": 8.4074855, "state": "BW", "stars": 3.0, "latitude": 49.0070298, "attributes": {"Parking": {"garage": false, "validated": false, "street": false, "lot": false, "valet": false}, "Accepts Credit Cards": false, "Price Range": 1}, "type": "business"}
{"business_id": "y4Y_PFthmrdSZuJH6Jl9GQ", "full_address": "Kaiserstra\u00dfe 181\n76133 Karlsruhe", "hours": {}, "open": true, "categories": ["Sporting Goods", "Fashion", "Shopping", "Shoe Stores"], "city": "Karlsruhe", "review_count": 6, "name": "Foot Locker", "neighborhoods": [], "longitude": 8.3990525, "state": "BW", "stars": 4.0, "latitude": 49.0096384, "attributes": {"Wheelchair Accessible": true, "Price Range": 3}, "type": "business"}
{"business_id": "zd79xkJ8xqQcU26zsf8IrQ", "full_address": "Pfinztalstr. 12\n76227 Karlsruhe", "hours": {"Monday": {"close": "18:30", "open": "06:30"}, "Tuesday": {"close": "18:30", "open": "06:30"}, "Friday": {"close": "18:30", "open": "06:30"}, "Wednesday": {"close": "18:30", "open": "06:30"}, "Thursday": {"close": "18:30", "open": "06:30"}, "Saturday": {"close": "13:00", "open": "06:30"}}, "open": true, "categories": ["Bakeries", "Food", "Sporting Goods", "Shopping"], "city": "Karlsruhe", "review_count": 5, "name": "B\u00e4ckerei Weber", "neighborhoods": [], "longitude": 8.474428, "state": "BW", "stars": 4.0, "latitude": 48.9993023, "attributes": {"Parking": {"garage": false, "validated": false, "street": false, "lot": false, "valet": false}, "Price Range": 1}, "type": "business"}
{"business_id": "MYaAu_O2PSecDRS8WqX5mw", "full_address": "Erbprinzenstr. 4-12\n76133 Karlsruhe", "hours": {}, "open": true, "categories": ["Sporting Goods", "Bikes", "Shopping"], "city": "Karlsruhe", "review_count": 5, "name": "S\u00fcdstern Fahrrad", "neighborhoods": [], "longitude": 8.40278, "state": "BW", "stars": 3.5, "latitude": 49.0073, "attributes": {"Price Range": 3}, "type": "business"}
{"business_id": "ujJhvCkk_fhmRCwn7W1rSw", "full_address": "Ettlinger Str. 43\n76137 Karlsruhe", "hours": {"Monday": {"close": "18:30", "open": "14:00"}, "Tuesday": {"close": "18:30", "open": "14:00"}, "Friday": {"close": "18:30", "open": "14:00"}, "Wednesday": {"close": "18:30", "open": "14:00"}, "Thursday": {"close": "18:30", "open": "14:00"}, "Saturday": {"close": "15:00", "open": "10:00"}}, "open": true, "categories": ["Sporting Goods", "Bikes", "Shopping"], "city": "Karlsruhe", "review_count": 3, "name": "Bike Lager", "neighborhoods": [], "longitude": 8.40459, "state": "BW", "stars": 3.5, "latitude": 48.9974, "attributes": {"Parking": {"garage": false, "street": false, "validated": false, "lot": false, "valet": false}, "Accepts Credit Cards": false, "Price Range": 3}, "type": "business"}
{"business_id": "n7-VcjUylQ94Zte3mWqLJg", "full_address": "Georg-Friedrich-Str. 11\n76131 Karlsruhe", "hours": {"Monday": {"close": "18:00", "open": "14:00"}, "Tuesday": {"close": "18:00", "open": "14:00"}, "Friday": {"close": "18:00", "open": "14:00"}, "Wednesday": {"close": "18:00", "open": "14:00"}, "Thursday": {"close": "18:00", "open": "14:00"}, "Saturday": {"close": "00:00", "open": "00:00"}}, "open": true, "categories": ["Sporting Goods", "Bikes", "Shopping"], "city": "Karlsruhe", "review_count": 6, "name": "Madame V\u00e9lo", "neighborhoods": [], "longitude": 8.42398, "state": "BW", "stars": 3.0, "latitude": 49.0092, "attributes": {"Parking": {"garage": false, "validated": false, "street": false, "lot": false, "valet": false}, "Accepts Credit Cards": false, "Wheelchair Accessible": false, "Price Range": 1}, "type": "business"}
{"business_id": "gy26G9TuzHCF5pEOswcBtA", "full_address": "Zirkel 27\n76131 Karlsruhe", "hours": {"Monday": {"close": "18:30", "open": "14:00"}, "Tuesday": {"close": "18:30", "open": "14:00"}, "Friday": {"close": "18:30", "open": "14:00"}, "Wednesday": {"close": "00:00", "open": "00:00"}, "Thursday": {"close": "18:30", "open": "14:00"}, "Saturday": {"close": "00:00", "open": "00:00"}}, "open": true, "categories": ["Active Life", "Sporting Goods", "Bikes", "Shopping", "Bike Rentals"], "city": "Karlsruhe", "review_count": 4, "name": "Fahrr\u00e4der und Zubeh\u00f6r Peter Fahrrad Fachgesch\u00e4ft Strebel &", "neighborhoods": [], "longitude": 8.40164, "state": "BW", "stars": 4.0, "latitude": 49.0105, "attributes": {"Parking": {"garage": false, "street": false, "validated": false, "lot": false, "valet": false}, "Accepts Credit Cards": false, "Wheelchair Accessible": true, "Price Range": 4}, "type": "business"}
{"business_id": "LudeITL-wiw883I4Nqq0Fg", "full_address": "Passagehof 24\n76133 Karlsruhe", "hours": {"Monday": {"close": "19:30", "open": "10:30"}, "Tuesday": {"close": "19:30", "open": "10:30"}, "Friday": {"close": "19:30", "open": "10:30"}, "Wednesday": {"close": "19:30", "open": "10:30"}, "Thursday": {"close": "19:30", "open": "10:30"}, "Saturday": {"close": "19:30", "open": "10:30"}}, "open": true, "categories": ["Sporting Goods", "Fashion", "Shopping", "Outdoor Gear"], "city": "Karlsruhe", "review_count": 6, "name": "GRiP Boardshop Karlsruhe", "neighborhoods": [], "longitude": 8.39640182740027, "state": "BW", "stars": 5.0, "latitude": 49.0106767352139, "attributes": {"Parking": {"garage": true, "street": true, "validated": false, "lot": false, "valet": false}, "Accepts Credit Cards": true, "Price Range": 2}, "type": "business"}
{"business_id": "uAbMtNpZiRDqf61PRX4bDw", "full_address": "Carl-Metz-Str. 3\n76185 Karlsruhe", "hours": {"Monday": {"close": "19:00", "open": "10:00"}, "Tuesday": {"close": "19:00", "open": "10:00"}, "Friday": {"close": "19:00", "open": "10:00"}, "Wednesday": {"close": "19:00", "open": "10:00"}, "Thursday": {"close": "19:00", "open": "10:00"}, "Saturday": {"close": "18:00", "open": "10:00"}}, "open": true, "categories": ["Fashion", "Shopping", "Sporting Goods", "Local Services", "Bikes", "Sports Wear", "Bike Repair/Maintenance"], "city": "Karlsruhe", "review_count": 9, "name": "B.O.C.", "neighborhoods": [], "longitude": 8.35423, "state": "BW", "stars": 3.0, "latitude": 49.00984, "attributes": {"Parking": {"garage": false, "street": false, "validated": false, "lot": true, "valet": false}, "Accepts Credit Cards": false, "Wheelchair Accessible": true, "Price Range": 2}, "type": "business"}
{"business_id": "-YUFxZVqO5i-LlqVjsGwPQ", "full_address": "Waldstra\u00dfe 58\n76133 Karlsruhe", "hours": {"Monday": {"close": "19:00", "open": "10:00"}, "Tuesday": {"close": "19:00", "open": "10:00"}, "Friday": {"close": "19:00", "open": "10:00"}, "Wednesday": {"close": "19:00", "open": "10:00"}, "Thursday": {"close": "19:00", "open": "10:00"}, "Saturday": {"close": "16:00", "open": "10:00"}}, "open": true, "categories": ["Sporting Goods", "Bikes", "Shopping"], "city": "Karlsruhe", "review_count": 10, "name": "Rad & Tat Fahrradhandlung", "neighborhoods": [], "longitude": 8.392423, "state": "BW", "stars": 2.5, "latitude": 49.0071347, "attributes": {"Parking": {"garage": false, "validated": false, "street": false, "lot": false, "valet": false}, "Accepts Credit Cards": false, "Wheelchair Accessible": true, "Price Range": 2}, "type": "business"}
{"business_id": "1FQtU5Wa-POL8Mfyc1uIpg", "full_address": "Veilchenstr. 12\n76131 Karlsruhe", "hours": {"Monday": {"close": "23:00", "open": "15:00"}, "Tuesday": {"close": "20:00", "open": "15:00"}, "Friday": {"close": "20:00", "open": "15:00"}, "Wednesday": {"close": "20:00", "open": "15:00"}, "Thursday": {"close": "23:00", "open": "15:00"}, "Saturday": {"close": "20:00", "open": "15:00"}}, "open": true, "categories": ["Sporting Goods", "Bikes", "Shopping"], "city": "Karlsruhe", "review_count": 4, "name": "only highend", "neighborhoods": [], "longitude": 8.4279636, "state": "BW", "stars": 5.0, "latitude": 49.0102513, "attributes": {"Parking": {"garage": false, "validated": false, "street": false, "lot": false, "valet": false}}, "type": "business"}
{"business_id": "O_8KPbCJpKSuFeqgmY0rHQ", "full_address": "Kaiserstr. 231\n76133 Karlsruhe", "hours": {"Monday": {"close": "19:00", "open": "10:00"}, "Tuesday": {"close": "19:00", "open": "10:00"}, "Friday": {"close": "19:00", "open": "10:00"}, "Wednesday": {"close": "19:00", "open": "10:00"}, "Thursday": {"close": "19:00", "open": "10:00"}, "Saturday": {"close": "19:00", "open": "10:00"}}, "open": true, "categories": ["Sporting Goods", "Shopping", "Outdoor Gear"], "city": "Karlsruhe", "review_count": 14, "name": "Basislager", "neighborhoods": [], "longitude": 8.3914972, "state": "BW", "stars": 4.5, "latitude": 49.0100738, "attributes": {"Parking": {"garage": true, "street": false, "validated": false, "lot": false, "valet": false}, "Accepts Credit Cards": true, "Dogs Allowed": true, "Price Range": 3}, "type": "business"}
{"business_id": "acPzIK1f3vybPlnjE1hWKQ", "full_address": "Lessingstr. 51\n76135 Karlsruhe", "hours": {}, "open": true, "categories": ["Sporting Goods", "Shopping"], "city": "Karlsruhe", "review_count": 9, "name": "Hans Gulyas", "neighborhoods": [], "longitude": 8.3849381, "state": "BW", "stars": 4.0, "latitude": 49.0047874, "attributes": {"Parking": {"garage": false, "street": true, "validated": false, "lot": false, "valet": false}, "Accepts Credit Cards": true, "Price Range": 2}, "type": "business"}
{"business_id": "gV6tV_vL3bj_a8sugZInFg", "full_address": "Herrenstr. 21\n76133 Karlsruhe", "hours": {}, "open": false, "categories": ["Active Life", "Sporting Goods", "Shopping"], "city": "Karlsruhe", "review_count": 4, "name": "Sport-Sch\u00fctz GmbH", "neighborhoods": [], "longitude": 8.39924, "state": "BW", "stars": 3.0, "latitude": 49.0096, "attributes": {"Price Range": 3}, "type": "business"}
{"business_id": "S_wRQzLYdfv1KG8nKidc-Q", "full_address": "Neureuter Stra\u00dfe 61\n76185 Karlsruhe", "hours": {"Monday": {"close": "19:00", "open": "10:00"}, "Tuesday": {"close": "19:00", "open": "10:00"}, "Friday": {"close": "19:00", "open": "10:00"}, "Wednesday": {"close": "19:00", "open": "10:00"}, "Thursday": {"close": "19:00", "open": "10:00"}, "Saturday": {"close": "18:00", "open": "10:00"}}, "open": true, "categories": ["Sporting Goods", "Bikes", "Shopping"], "city": "Karlsruhe", "review_count": 6, "name": "Zweirad Eicker", "neighborhoods": [], "longitude": 8.3591498, "state": "BW", "stars": 2.5, "latitude": 49.0308144, "attributes": {"Parking": {"garage": false, "street": false, "validated": false, "lot": false, "valet": false}, "Accepts Credit Cards": true, "Wheelchair Accessible": true, "Price Range": 2}, "type": "business"}
{"business_id": "INsIrE2YYnYqO3_nmGj4gQ", "full_address": "Steinstr. 23\n76133 Karlsruhe", "hours": {"Friday": {"close": "19:00", "open": "15:00"}, "Wednesday": {"close": "19:00", "open": "15:00"}, "Thursday": {"close": "19:00", "open": "15:00"}, "Saturday": {"close": "14:00", "open": "10:00"}}, "open": true, "categories": ["Sporting Goods", "Bikes", "Shopping"], "city": "Karlsruhe", "review_count": 4, "name": "Radler-Martin", "neighborhoods": [], "longitude": 8.4074855, "state": "BW", "stars": 3.0, "latitude": 49.0070298, "attributes": {"Parking": {"garage": false, "validated": false, "street": false, "lot": false, "valet": false}, "Accepts Credit Cards": false, "Price Range": 1}, "type": "business"}
{"business_id": "y4Y_PFthmrdSZuJH6Jl9GQ", "full_address": "Kaiserstra\u00dfe 181\n76133 Karlsruhe", "hours": {}, "open": true, "categories": ["Sporting Goods", "Fashion", "Shopping", "Shoe Stores"], "city": "Karlsruhe", "review_count": 6, "name": "Foot Locker", "neighborhoods": [], "longitude": 8.3990525, "state": "BW", "stars": 4.0, "latitude": 49.0096384, "attributes": {"Wheelchair Accessible": true, "Price Range": 3}, "type": "business"}
{"business_id": "zd79xkJ8xqQcU26zsf8IrQ", "full_address": "Pfinztalstr. 12\n76227 Karlsruhe", "hours": {"Monday": {"close": "18:30", "open": "06:30"}, "Tuesday": {"close": "18:30", "open": "06:30"}, "Friday": {"close": "18:30", "open": "06:30"}, "Wednesday": {"close": "18:30", "open": "06:30"}, "Thursday": {"close": "18:30", "open": "06:30"}, "Saturday": {"close": "13:00", "open": "06:30"}}, "open": true, "categories": ["Bakeries", "Food", "Sporting Goods", "Shopping"], "city": "Karlsruhe", "review_count": 5, "name": "B\u00e4ckerei Weber", "neighborhoods": [], "longitude": 8.474428, "state": "BW", "stars": 4.0, "latitude": 48.9993023, "attributes": {"Parking": {"garage": false, "validated": false, "street": false, "lot": false, "valet": false}, "Price Range": 1}, "type": "business"}
{"business_id": "MYaAu_O2PSecDRS8WqX5mw", "full_address": "Erbprinzenstr. 4-12\n76133 Karlsruhe", "hours": {}, "open": true, "categories": ["Sporting Goods", "Bikes", "Shopping"], "city": "Karlsruhe", "review_count": 5, "name": "S\u00fcdstern Fahrrad", "neighborhoods": [], "longitude": 8.40278, "state": "BW", "stars": 3.5, "latitude": 49.0073, "attributes": {"Price Range": 3}, "type": "business"}
{"business_id": "ujJhvCkk_fhmRCwn7W1rSw", "full_address": "Ettlinger Str. 43\n76137 Karlsruhe", "hours": {"Monday": {"close": "18:30", "open": "14:00"}, "Tuesday": {"close": "18:30", "open": "14:00"}, "Friday": {"close": "18:30", "open": "14:00"}, "Wednesday": {"close": "18:30", "open": "14:00"}, "Thursday": {"close": "18:30", "open": "14:00"}, "Saturday": {"close": "15:00", "open": "10:00"}}, "open": true, "categories": ["Sporting Goods", "Bikes", "Shopping"], "city": "Karlsruhe", "review_count": 3, "name": "Bike Lager", "neighborhoods": [], "longitude": 8.40459, "state": "BW", "stars": 3.5, "latitude": 48.9974, "attributes": {"Parking": {"garage": false, "street": false, "validated": false, "lot": false, "valet": false}, "Accepts Credit Cards": false, "Price Range": 3}, "type": "business"}
{"business_id": "n7-VcjUylQ94Zte3mWqLJg", "full_address": "Georg-Friedrich-Str. 11\n76131 Karlsruhe", "hours": {"Monday": {"close": "18:00", "open": "14:00"}, "Tuesday": {"close": "18:00", "open": "14:00"}, "Friday": {"close": "18:00", "open": "14:00"}, "Wednesday": {"close": "18:00", "open": "14:00"}, "Thursday": {"close": "18:00", "open": "14:00"}, "Saturday": {"close": "00:00", "open": "00:00"}}, "open": true, "categories": ["Sporting Goods", "Bikes", "Shopping"], "city": "Karlsruhe", "review_count": 6, "name": "Madame V\u00e9lo", "neighborhoods": [], "longitude": 8.42398, "state": "BW", "stars": 3.0, "latitude": 49.0092, "attributes": {"Parking": {"garage": false, "validated": false, "street": false, "lot": false, "valet": false}, "Accepts Credit Cards": false, "Wheelchair Accessible": false, "Price Range": 1}, "type": "business"}
{"business_id": "gy26G9TuzHCF5pEOswcBtA", "full_address": "Zirkel 27\n76131 Karlsruhe", "hours": {"Monday": {"close": "18:30", "open": "14:00"}, "Tuesday": {"close": "18:30", "open": "14:00"}, "Friday": {"close": "18:30", "open": "14:00"}, "Wednesday": {"close": "00:00", "open": "00:00"}, "Thursday": {"close": "18:30", "open": "14:00"}, "Saturday": {"close": "00:00", "open": "00:00"}}, "open": true, "categories": ["Active Life", "Sporting Goods", "Bikes", "Shopping", "Bike Rentals"], "city": "Karlsruhe", "review_count": 4, "name": "Fahrr\u00e4der und Zubeh\u00f6r Peter Fahrrad Fachgesch\u00e4ft Strebel &", "neighborhoods": [], "longitude": 8.40164, "state": "BW", "stars": 4.0, "latitude": 49.0105, "attributes": {"Parking": {"garage": false, "street": false, "validated": false, "lot": false, "valet": false}, "Accepts Credit Cards": false, "Wheelchair Accessible": true, "Price Range": 4}, "type": "business"}
{"business_id": "LudeITL-wiw883I4Nqq0Fg", "full_address": "Passagehof 24\n76133 Karlsruhe", "hours": {"Monday": {"close": "19:30", "open": "10:30"}, "Tuesday": {"close": "19:30", "open": "10:30"}, "Friday": {"close": "19:30", "open": "10:30"}, "Wednesday": {"close": "19:30", "open": "10:30"}, "Thursday": {"close": "19:30", "open": "10:30"}, "Saturday": {"close": "19:30", "open": "10:30"}}, "open": true, "categories": ["Sporting Goods", "Fashion", "Shopping", "Outdoor Gear"], "city": "Karlsruhe", "review_count": 6, "name": "GRiP Boardshop Karlsruhe", "neighborhoods": [], "longitude": 8.39640182740027, "state": "BW", "stars": 5.0, "latitude": 49.0106767352139, "attributes": {"Parking": {"garage": true, "street": true, "validated": false, "lot": false, "valet": false}, "Accepts Credit Cards": true, "Price Range": 2}, "type": "business"}
{"business_id": "uAbMtNpZiRDqf61PRX4bDw", "full_address": "Carl-Metz-Str. 3\n76185 Karlsruhe", "hours": {"Monday": {"close": "19:00", "open": "10:00"}, "Tuesday": {"close": "19:00", "open": "10:00"}, "Friday": {"close": "19:00", "open": "10:00"}, "Wednesday": {"close": "19:00", "open": "10:00"}, "Thursday": {"close": "19:00", "open": "10:00"}, "Saturday": {"close": "18:00", "open": "10:00"}}, "open": true, "categories": ["Fashion", "Shopping", "Sporting Goods", "Local Services", "Bikes", "Sports Wear", "Bike Repair/Maintenance"], "city": "Karlsruhe", "review_count": 9, "name": "B.O.C.", "neighborhoods": [], "longitude": 8.35423, "state": "BW", "stars": 3.0, "latitude": 49.00984, "attributes": {"Parking": {"garage": false, "street": false, "validated": false, "lot": true, "valet": false}, "Accepts Credit Cards": false, "Wheelchair Accessible": true, "Price Range": 2}, "type": "business"}
{"business_id": "-YUFxZVqO5i-LlqVjsGwPQ", "full_address": "Waldstra\u00dfe 58\n76133 Karlsruhe", "hours": {"Monday": {"close": "19:00", "open": "10:00"}, "Tuesday": {"close": "19:00", "open": "10:00"}, "Friday": {"close": "19:00", "open": "10:00"}, "Wednesday": {"close": "19:00", "open": "10:00"}, "Thursday": {"close": "19:00", "open": "10:00"}, "Saturday": {"close": "16:00", "open": "10:00"}}, "open": true, "categories": ["Sporting Goods", "Bikes", "Shopping"], "city": "Karlsruhe", "review_count": 10, "name": "Rad & Tat Fahrradhandlung", "neighborhoods": [], "longitude": 8.392423, "state": "BW", "stars": 2.5, "latitude": 49.0071347, "attributes": {"Parking": {"garage": false, "validated": false, "street": false, "lot": false, "valet": false}, "Accepts Credit Cards": false, "Wheelchair Accessible": true, "Price Range": 2}, "type": "business"}
{"business_id": "1FQtU5Wa-POL8Mfyc1uIpg", "full_address": "Veilchenstr. 12\n76131 Karlsruhe", "hours": {"Monday": {"close": "23:00", "open": "15:00"}, "Tuesday": {"close": "20:00", "open": "15:00"}, "Friday": {"close": "20:00", "open": "15:00"}, "Wednesday": {"close": "20:00", "open": "15:00"}, "Thursday": {"close": "23:00", "open": "15:00"}, "Saturday": {"close": "20:00", "open": "15:00"}}, "open": true, "categories": ["Sporting Goods", "Bikes", "Shopping"], "city": "Karlsruhe", "review_count": 4, "name": "only highend", "neighborhoods": [], "longitude": 8.4279636, "state": "BW", "stars": 5.0, "latitude": 49.0102513, "attributes": {"Parking": {"garage": false, "validated": false, "street": false, "lot": false, "valet": false}}, "type": "business"}
{"business_id": "O_8KPbCJpKSuFeqgmY0rHQ", "full_address": "Kaiserstr. 231\n76133 Karlsruhe", "hours": {"Monday": {"close": "19:00", "open": "10:00"}, "Tuesday": {"close": "19:00", "open": "10:00"}, "Friday": {"close": "19:00", "open": "10:00"}, "Wednesday": {"close": "19:00", "open": "10:00"}, "Thursday": {"close": "19:00", "open": "10:00"}, "Saturday": {"close": "19:00", "open": "10:00"}}, "open": true, "categories": ["Sporting Goods", "Shopping", "Outdoor Gear"], "city": "Karlsruhe", "review_count": 14, "name": "Basislager", "neighborhoods": [], "longitude": 8.3914972, "state": "BW", "stars": 4.5, "latitude": 49.0100738, "attributes": {"Parking": {"garage": true, "street": false, "validated": false, "lot": false, "valet": false}, "Accepts Credit Cards": true, "Dogs Allowed": true, "Price Range": 3}, "type": "business"}
{"business_id": "acPzIK1f3vybPlnjE1hWKQ", "full_address": "Lessingstr. 51\n76135 Karlsruhe", "hours": {}, "open": true, "categories": ["Sporting Goods", "Shopping"], "city": "Karlsruhe", "review_count": 9, "name": "Hans Gulyas", "neighborhoods": [], "longitude": 8.3849381, "state": "BW", "stars": 4.0, "latitude": 49.0047874, "attributes": {"Parking": {"garage": false, "street": true, "validated": false, "lot": false, "valet": false}, "Accepts Credit Cards": true, "Price Range": 2}, "type": "business"}
{"business_id": "gV6tV_vL3bj_a8sugZInFg", "full_address": "Herrenstr. 21\n76133 Karlsruhe", "hours": {}, "open": false, "categories": ["Active Life", "Sporting Goods", "Shopping"], "city": "Karlsruhe", "review_count": 4, "name": "Sport-Sch\u00fctz GmbH", "neighborhoods": [], "longitude": 8.39924, "state": "BW", "stars": 3.0, "latitude": 49.0096, "attributes": {"Price Range": 3}, "type": "business"}
{"business_id": "S_wRQzLYdfv1KG8nKidc-Q", "full_address": "Neureuter Stra\u00dfe 61\n76185 Karlsruhe", "hours": {"Monday": {"close": "19:00", "open": "10:00"}, "Tuesday": {"close": "19:00", "open": "10:00"}, "Friday": {"close": "19:00", "open": "10:00"}, "Wednesday": {"close": "19:00", "open": "10:00"}, "Thursday": {"close": "19:00", "open": "10:00"}, "Saturday": {"close": "18:00", "open": "10:00"}}, "open": true, "categories": ["Sporting Goods", "Bikes", "Shopping"], "city": "Karlsruhe", "review_count": 6, "name": "Zweirad Eicker", "neighborhoods": [], "longitude": 8.3591498, "state": "BW", "stars": 2.5, "latitude": 49.0308144, "attributes": {"Parking": {"garage": false, "street": false, "validated": false, "lot": false, "valet": false}, "Accepts Credit Cards": true, "Wheelchair Accessible": true, "Price Range": 2}, "type": "business"}
{"business_id": "INsIrE2YYnYqO3_nmGj4gQ", "full_address": "Steinstr. 23\n76133 Karlsruhe", "hours": {"Friday": {"close": "19:00", "open": "15:00"}, "Wednesday": {"close": "19:00", "open": "15:00"}, "Thursday": {"close": "19:00", "open": "15:00"}, "Saturday": {"close": "14:00", "open": "10:00"}}, "open": true, "categories": ["Sporting Goods", "Bikes", "Shopping"], "city": "Karlsruhe", "review_count": 4, "name": "Radler-Martin", "neighborhoods": [], "longitude": 8.4074855, "state": "BW", "stars": 3.0, "latitude": 49.0070298, "attributes": {"Parking": {"garage": false, "validated": false, "street": false, "lot": false, "valet": false}, "Accepts Credit Cards": false, "Price Range": 1}, "type": "business"}
{"business_id": "y4Y_PFthmrdSZuJH6Jl9GQ", "full_address": "Kaiserstra\u00dfe 181\n76133 Karlsruhe", "hours": {}, "open": true, "categories": ["Sporting Goods", "Fashion", "Shopping", "Shoe Stores"], "city": "Karlsruhe", "review_count": 6, "name": "Foot Locker", "neighborhoods": [], "longitude": 8.3990525, "state": "BW", "stars": 4.0, "latitude": 49.0096384, "attributes": {"Wheelchair Accessible": true, "Price Range": 3}, "type": "business"}
{"business_id": "zd79xkJ8xqQcU26zsf8IrQ", "full_address": "Pfinztalstr. 12\n76227 Karlsruhe", "hours": {"Monday": {"close": "18:30", "open": "06:30"}, "Tuesday": {"close": "18:30", "open": "06:30"}, "Friday": {"close": "18:30", "open": "06:30"}, "Wednesday": {"close": "18:30", "open": "06:30"}, "Thursday": {"close": "18:30", "open": "06:30"}, "Saturday": {"close": "13:00", "open": "06:30"}}, "open": true, "categories": ["Bakeries", "Food", "Sporting Goods", "Shopping"], "city": "Karlsruhe", "review_count": 5, "name": "B\u00e4ckerei Weber", "neighborhoods": [], "longitude": 8.474428, "state": "BW", "stars": 4.0, "latitude": 48.9993023, "attributes": {"Parking": {"garage": false, "validated": false, "street": false, "lot": false, "valet": false}, "Price Range": 1}, "type": "business"}
{"business_id": "MYaAu_O2PSecDRS8WqX5mw", "full_address": "Erbprinzenstr. 4-12\n76133 Karlsruhe", "hours": {}, "open": true, "categories": ["Sporting Goods", "Bikes", "Shopping"], "city": "Karlsruhe", "review_count": 5, "name": "S\u00fcdstern Fahrrad", "neighborhoods": [], "longitude": 8.40278, "state": "BW", "stars": 3.5, "latitude": 49.0073, "attributes": {"Price Range": 3}, "type": "business"}
{"business_id": "ujJhvCkk_fhmRCwn7W1rSw", "full_address": "Ettlinger Str. 43\n76137 Karlsruhe", "hours": {"Monday": {"close": "18:30", "open": "14:00"}, "Tuesday": {"close": "18:30", "open": "14:00"}, "Friday": {"close": "18:30", "open": "14:00"}, "Wednesday": {"close": "18:30", "open": "14:00"}, "Thursday": {"close": "18:30", "open": "14:00"}, "Saturday": {"close": "15:00", "open": "10:00"}}, "open": true, "categories": ["Sporting Goods", "Bikes", "Shopping"], "city": "Karlsruhe", "review_count": 3, "name": "Bike Lager", "neighborhoods": [], "longitude": 8.40459, "state": "BW", "stars": 3.5, "latitude": 48.9974, "attributes": {"Parking": {"garage": false, "street": false, "validated": false, "lot": false, "valet": false}, "Accepts Credit Cards": false, "Price Range": 3}, "type": "business"}
{"business_id": "n7-VcjUylQ94Zte3mWqLJg", "full_address": "Georg-Friedrich-Str. 11\n76131 Karlsruhe", "hours": {"Monday": {"close": "18:00", "open": "14:00"}, "Tuesday": {"close": "18:00", "open": "14:00"}, "Friday": {"close": "18:00", "open": "14:00"}, "Wednesday": {"close": "18:00", "open": "14:00"}, "Thursday": {"close": "18:00", "open": "14:00"}, "Saturday": {"close": "00:00", "open": "00:00"}}, "open": true, "categories": ["Sporting Goods", "Bikes", "Shopping"], "city": "Karlsruhe", "review_count": 6, "name": "Madame V\u00e9lo", "neighborhoods": [], "longitude": 8.42398, "state": "BW", "stars": 3.0, "latitude": 49.0092, "attributes": {"Parking": {"garage": false, "validated": false, "street": false, "lot": false, "valet": false}, "Accepts Credit Cards": false, "Wheelchair Accessible": false, "Price Range": 1}, "type": "business"}
{"business_id": "gy26G9TuzHCF5pEOswcBtA", "full_address": "Zirkel 27\n76131 Karlsruhe", "hours": {"Monday": {"close": "18:30", "open": "14:00"}, "Tuesday": {"close": "18:30", "open": "14:00"}, "Friday": {"close": "18:30", "open": "14:00"}, "Wednesday": {"close": "00:00", "open": "00:00"}, "Thursday": {"close": "18:30", "open": "14:00"}, "Saturday": {"close": "00:00", "open": "00:00"}}, "open": true, "categories": ["Active Life", "Sporting Goods", "Bikes", "Shopping", "Bike Rentals"], "city": "Karlsruhe", "review_count": 4, "name": "Fahrr\u00e4der und Zubeh\u00f6r Peter Fahrrad Fachgesch\u00e4ft Strebel &", "neighborhoods": [], "longitude": 8.40164, "state": "BW", "stars": 4.0, "latitude": 49.0105, "attributes": {"Parking": {"garage": false, "street": false, "validated": false, "lot": false, "valet": false}, "Accepts Credit Cards": false, "Wheelchair Accessible": true, "Price Range": 4}, "type": "business"}
{"business_id": "LudeITL-wiw883I4Nqq0Fg", "full_address": "Passagehof 24\n76133 Karlsruhe", "hours": {"Monday": {"close": "19:30", "open": "10:30"}, "Tuesday": {"close": "19:30", "open": "10:30"}, "Friday": {"close": "19:30", "open": "10:30"}, "Wednesday": {"close": "19:30", "open": "10:30"}, "Thursday": {"close": "19:30", "open": "10:30"}, "Saturday": {"close": "19:30", "open": "10:30"}}, "open": true, "categories": ["Sporting Goods", "Fashion", "Shopping", "Outdoor Gear"], "city": "Karlsruhe", "review_count": 6, "name": "GRiP Boardshop Karlsruhe", "neighborhoods": [], "longitude": 8.39640182740027, "state": "BW", "stars": 5.0, "latitude": 49.0106767352139, "attributes": {"Parking": {"garage": true, "street": true, "validated": false, "lot": false, "valet": false}, "Accepts Credit Cards": true, "Price Range": 2}, "type": "business"}
{"business_id": "uAbMtNpZiRDqf61PRX4bDw", "full_address": "Carl-Metz-Str. 3\n76185 Karlsruhe", "hours": {"Monday": {"close": "19:00", "open": "10:00"}, "Tuesday": {"close": "19:00", "open": "10:00"}, "Friday": {"close": "19:00", "open": "10:00"}, "Wednesday": {"close": "19:00", "open": "10:00"}, "Thursday": {"close": "19:00", "open": "10:00"}, "Saturday": {"close": "18:00", "open": "10:00"}}, "open": true, "categories": ["Fashion", "Shopping", "Sporting Goods", "Local Services", "Bikes", "Sports Wear", "Bike Repair/Maintenance"], "city": "Karlsruhe", "review_count": 9, "name": "B.O.C.", "neighborhoods": [], "longitude": 8.35423, "state": "BW", "stars": 3.0, "latitude": 49.00984, "attributes": {"Parking": {"garage": false, "street": false, "validated": false, "lot": true, "valet": false}, "Accepts Credit Cards": false, "Wheelchair Accessible": true, "Price Range": 2}, "type": "business"}
{"business_id": "-YUFxZVqO5i-LlqVjsGwPQ", "full_address": "Waldstra\u00dfe 58\n76133 Karlsruhe", "hours": {"Monday": {"close": "19:00", "open": "10:00"}, "Tuesday": {"close": "19:00", "open": "10:00"}, "Friday": {"close": "19:00", "open": "10:00"}, "Wednesday": {"close": "19:00", "open": "10:00"}, "Thursday": {"close": "19:00", "open": "10:00"}, "Saturday": {"close": "16:00", "open": "10:00"}}, "open": true, "categories": ["Sporting Goods", "Bikes", "Shopping"], "city": "Karlsruhe", "review_count": 10, "name": "Rad & Tat Fahrradhandlung", "neighborhoods": [], "longitude": 8.392423, "state": "BW", "stars": 2.5, "latitude": 49.0071347, "attributes": {"Parking": {"garage": false, "validated": false, "street": false, "lot": false, "valet": false}, "Accepts Credit Cards": false, "Wheelchair Accessible": true, "Price Range": 2}, "type": "business"}
{"business_id": "1FQtU5Wa-POL8Mfyc1uIpg", "full_address": "Veilchenstr. 12\n76131 Karlsruhe", "hours": {"Monday": {"close": "23:00", "open": "15:00"}, "Tuesday": {"close": "20:00", "open": "15:00"}, "Friday": {"close": "20:00", "open": "15:00"}, "Wednesday": {"close": "20:00", "open": "15:00"}, "Thursday": {"close": "23:00", "open": "15:00"}, "Saturday": {"close": "20:00", "open": "15:00"}}, "open": true, "categories": ["Sporting Goods", "Bikes", "Shopping"], "city": "Karlsruhe", "review_count": 4, "name": "only highend", "neighborhoods": [], "longitude": 8.4279636, "state": "BW", "stars": 5.0, "latitude": 49.0102513, "attributes": {"Parking": {"garage": false, "validated": false, "street": false, "lot": false, "valet": false}}, "type": "business"}
{"business_id": "O_8KPbCJpKSuFeqgmY0rHQ", "full_address": "Kaiserstr. 231\n76133 Karlsruhe", "hours": {"Monday": {"close": "19:00", "open": "10:00"}, "Tuesday": {"close": "19:00", "open": "10:00"}, "Friday": {"close": "19:00", "open": "10:00"}, "Wednesday": {"close": "19:00", "open": "10:00"}, "Thursday": {"close": "19:00", "open": "10:00"}, "Saturday": {"close": "19:00", "open": "10:00"}}, "open": true, "categories": ["Sporting Goods", "Shopping", "Outdoor Gear"], "city": "Karlsruhe", "review_count": 14, "name": "Basislager", "neighborhoods": [], "longitude": 8.3914972, "state": "BW", "stars": 4.5, "latitude": 49.0100738, "attributes": {"Parking": {"garage": true, "street": false, "validated": false, "lot": false, "valet": false}, "Accepts Credit Cards": true, "Dogs Allowed": true, "Price Range": 3}, "type": "business"}
{"business_id": "acPzIK1f3vybPlnjE1hWKQ", "full_address": "Lessingstr. 51\n76135 Karlsruhe", "hours": {}, "open": true, "categories": ["Sporting Goods", "Shopping"], "city": "Karlsruhe", "review_count": 9, "name": "Hans Gulyas", "neighborhoods": [], "longitude": 8.3849381, "state": "BW", "stars": 4.0, "latitude": 49.0047874, "attributes": {"Parking": {"garage": false, "street": true, "validated": false, "lot": false, "valet": false}, "Accepts Credit Cards": true, "Price Range": 2}, "type": "business"}
{"business_id": "gV6tV_vL3bj_a8sugZInFg", "full_address": "Herrenstr. 21\n76133 Karlsruhe", "hours": {}, "open": false, "categories": ["Active Life", "Sporting Goods", "Shopping"], "city": "Karlsruhe", "review_count": 4, "name": "Sport-Sch\u00fctz GmbH", "neighborhoods": [], "longitude": 8.39924, "state": "BW", "stars": 3.0, "latitude": 49.0096, "attributes": {"Price Range": 3}, "type": "business"}
{"business_id": "S_wRQzLYdfv1KG8nKidc-Q", "full_address": "Neureuter Stra\u00dfe 61\n76185 Karlsruhe", "hours": {"Monday": {"close": "19:00", "open": "10:00"}, "Tuesday": {"close": "19:00", "open": "10:00"}, "Friday": {"close": "19:00", "open": "10:00"}, "Wednesday": {"close": "19:00", "open": "10:00"}, "Thursday": {"close": "19:00", "open": "10:00"}, "Saturday": {"close": "18:00", "open": "10:00"}}, "open": true, "categories": ["Sporting Goods", "Bikes", "Shopping"], "city": "Karlsruhe", "review_count": 6, "name": "Zweirad Eicker", "neighborhoods": [], "longitude": 8.3591498, "state": "BW", "stars": 2.5, "latitude": 49.0308144, "attributes": {"Parking": {"garage": false, "street": false, "validated": false, "lot": false, "valet": false}, "Accepts Credit Cards": true, "Wheelchair Accessible": true, "Price Range": 2}, "type": "business"}
{"business_id": "INsIrE2YYnYqO3_nmGj4gQ", "full_address": "Steinstr. 23\n76133 Karlsruhe", "hours": {"Friday": {"close": "19:00", "open": "15:00"}, "Wednesday": {"close": "19:00", "open": "15:00"}, "Thursday": {"close": "19:00", "open": "15:00"}, "Saturday": {"close": "14:00", "open": "10:00"}}, "open": true, "categories": ["Sporting Goods", "Bikes", "Shopping"], "city": "Karlsruhe", "review_count": 4, "name": "Radler-Martin", "neighborhoods": [], "longitude": 8.4074855, "state": "BW", "stars": 3.0, "latitude": 49.0070298, "attributes": {"Parking": {"garage": false, "validated": false, "street": false, "lot": false, "valet": false}, "Accepts Credit Cards": false, "Price Range": 1}, "type": "business"}
{"business_id": "y4Y_PFthmrdSZuJH6Jl9GQ", "full_address": "Kaiserstra\u00dfe 181\n76133 Karlsruhe", "hours": {}, "open": true, "categories": ["Sporting Goods", "Fashion", "Shopping", "Shoe Stores"], "city": "Karlsruhe", "review_count": 6, "name": "Foot Locker", "neighborhoods": [], "longitude": 8.3990525, "state": "BW", "stars": 4.0, "latitude": 49.0096384, "attributes": {"Wheelchair Accessible": true, "Price Range": 3}, "type": "business"}
{"business_id": "zd79xkJ8xqQcU26zsf8IrQ", "full_address": "Pfinztalstr. 12\n76227 Karlsruhe", "hours": {"Monday": {"close": "18:30", "open": "06:30"}, "Tuesday": {"close": "18:30", "open": "06:30"}, "Friday": {"close": "18:30", "open": "06:30"}, "Wednesday": {"close": "18:30", "open": "06:30"}, "Thursday": {"close": "18:30", "open": "06:30"}, "Saturday": {"close": "13:00", "open": "06:30"}}, "open": true, "categories": ["Bakeries", "Food", "Sporting Goods", "Shopping"], "city": "Karlsruhe", "review_count": 5, "name": "B\u00e4ckerei Weber", "neighborhoods": [], "longitude": 8.474428, "state": "BW", "stars": 4.0, "latitude": 48.9993023, "attributes": {"Parking": {"garage": false, "validated": false, "street": false, "lot": false, "valet": false}, "Price Range": 1}, "type": "business"}
{"business_id": "MYaAu_O2PSecDRS8WqX5mw", "full_address": "Erbprinzenstr. 4-12\n76133 Karlsruhe", "hours": {}, "open": true, "categories": ["Sporting Goods", "Bikes", "Shopping"], "city": "Karlsruhe", "review_count": 5, "name": "S\u00fcdstern Fahrrad", "neighborhoods": [], "longitude": 8.40278, "state": "BW", "stars": 3.5, "latitude": 49.0073, "attributes": {"Price Range": 3}, "type": "business"}
{"business_id": "ujJhvCkk_fhmRCwn7W1rSw", "full_address": "Ettlinger Str. 43\n76137 Karlsruhe", "hours": {"Monday": {"close": "18:30", "open": "14:00"}, "Tuesday": {"close": "18:30", "open": "14:00"}, "Friday": {"close": "18:30", "open": "14:00"}, "Wednesday": {"close": "18:30", "open": "14:00"}, "Thursday": {"close": "18:30", "open": "14:00"}, "Saturday": {"close": "15:00", "open": "10:00"}}, "open": true, "categories": ["Sporting Goods", "Bikes", "Shopping"], "city": "Karlsruhe", "review_count": 3, "name": "Bike Lager", "neighborhoods": [], "longitude": 8.40459, "state": "BW", "stars": 3.5, "latitude": 48.9974, "attributes": {"Parking": {"garage": false, "street": false, "validated": false, "lot": false, "valet": false}, "Accepts Credit Cards": false, "Price Range": 3}, "type": "business"}
{"business_id": "n7-VcjUylQ94Zte3mWqLJg", "full_address": "Georg-Friedrich-Str. 11\n76131 Karlsruhe", "hours": {"Monday": {"close": "18:00", "open": "14:00"}, "Tuesday": {"close": "18:00", "open": "14:00"}, "Friday": {"close": "18:00", "open": "14:00"}, "Wednesday": {"close": "18:00", "open": "14:00"}, "Thursday": {"close": "18:00", "open": "14:00"}, "Saturday": {"close": "00:00", "open": "00:00"}}, "open": true, "categories": ["Sporting Goods", "Bikes", "Shopping"], "city": "Karlsruhe", "review_count": 6, "name": "Madame V\u00e9lo", "neighborhoods": [], "longitude": 8.42398, "state": "BW", "stars": 3.0, "latitude": 49.0092, "attributes": {"Parking": {"garage": false, "validated": false, "street": false, "lot": false, "valet": false}, "Accepts Credit Cards": false, "Wheelchair Accessible": false, "Price Range": 1}, "type": "business"}
{"business_id": "gy26G9TuzHCF5pEOswcBtA", "full_address": "Zirkel 27\n76131 Karlsruhe", "hours": {"Monday": {"close": "18:30", "open": "14:00"}, "Tuesday": {"close": "18:30", "open": "14:00"}, "Friday": {"close": "18:30", "open": "14:00"}, "Wednesday": {"close": "00:00", "open": "00:00"}, "Thursday": {"close": "18:30", "open": "14:00"}, "Saturday": {"close": "00:00", "open": "00:00"}}, "open": true, "categories": ["Active Life", "Sporting Goods", "Bikes", "Shopping", "Bike Rentals"], "city": "Karlsruhe", "review_count": 4, "name": "Fahrr\u00e4der und Zubeh\u00f6r Peter Fahrrad Fachgesch\u00e4ft Strebel &", "neighborhoods": [], "longitude": 8.40164, "state": "BW", "stars": 4.0, "latitude": 49.0105, "attributes": {"Parking": {"garage": false, "street": false, "validated": false, "lot": false, "valet": false}, "Accepts Credit Cards": false, "Wheelchair Accessible": true, "Price Range": 4}, "type": "business"}
{"business_id": "LudeITL-wiw883I4Nqq0Fg", "full_address": "Passagehof 24\n76133 Karlsruhe", "hours": {"Monday": {"close": "19:30", "open": "10:30"}, "Tuesday": {"close": "19:30", "open": "10:30"}, "Friday": {"close": "19:30", "open": "10:30"}, "Wednesday": {"close": "19:30", "open": "10:30"}, "Thursday": {"close": "19:30", "open": "10:30"}, "Saturday": {"close": "19:30", "open": "10:30"}}, "open": true, "categories": ["Sporting Goods", "Fashion", "Shopping", "Outdoor Gear"], "city": "Karlsruhe", "review_count": 6, "name": "GRiP Boardshop Karlsruhe", "neighborhoods": [], "longitude": 8.39640182740027, "state": "BW", "stars": 5.0, "latitude": 49.0106767352139, "attributes": {"Parking": {"garage": true, "street": true, "validated": false, "lot": false, "valet": false}, "Accepts Credit Cards": true, "Price Range": 2}, "type": "business"}
{"business_id": "uAbMtNpZiRDqf61PRX4bDw", "full_address": "Carl-Metz-Str. 3\n76185 Karlsruhe", "hours": {"Monday": {"close": "19:00", "open": "10:00"}, "Tuesday": {"close": "19:00", "open": "10:00"}, "Friday": {"close": "19:00", "open": "10:00"}, "Wednesday": {"close": "19:00", "open": "10:00"}, "Thursday": {"close": "19:00", "open": "10:00"}, "Saturday": {"close": "18:00", "open": "10:00"}}, "open": true, "categories": ["Fashion", "Shopping", "Sporting Goods", "Local Services", "Bikes", "Sports Wear", "Bike Repair/Maintenance"], "city": "Karlsruhe", "review_count": 9, "name": "B.O.C.", "neighborhoods": [], "longitude": 8.35423, "state": "BW", "stars": 3.0, "latitude": 49.00984, "attributes": {"Parking": {"garage": false, "street": false, "validated": false, "lot": true, "valet": false}, "Accepts Credit Cards": false, "Wheelchair Accessible": true, "Price Range": 2}, "type": "business"}
{"business_id": "-YUFxZVqO5i-LlqVjsGwPQ", "full_address": "Waldstra\u00dfe 58\n76133 Karlsruhe", "hours": {"Monday": {"close": "19:00", "open": "10:00"}, "Tuesday": {"close": "19:00", "open": "10:00"}, "Friday": {"close": "19:00", "open": "10:00"}, "Wednesday": {"close": "19:00", "open": "10:00"}, "Thursday": {"close": "19:00", "open": "10:00"}, "Saturday": {"close": "16:00", "open": "10:00"}}, "open": true, "categories": ["Sporting Goods", "Bikes", "Shopping"], "city": "Karlsruhe", "review_count": 10, "name": "Rad & Tat Fahrradhandlung", "neighborhoods": [], "longitude": 8.392423, "state": "BW", "stars": 2.5, "latitude": 49.0071347, "attributes": {"Parking": {"garage": false, "validated": false, "street": false, "lot": false, "valet": false}, "Accepts Credit Cards": false, "Wheelchair Accessible": true, "Price Range": 2}, "type": "business"}
{"business_id": "1FQtU5Wa-POL8Mfyc1uIpg", "full_address": "Veilchenstr. 12\n76131 Karlsruhe", "hours": {"Monday": {"close": "23:00", "open": "15:00"}, "Tuesday": {"close": "20:00", "open": "15:00"}, "Friday": {"close": "20:00", "open": "15:00"}, "Wednesday": {"close": "20:00", "open": "15:00"}, "Thursday": {"close": "23:00", "open": "15:00"}, "Saturday": {"close": "20:00", "open": "15:00"}}, "open": true, "categories": ["Sporting Goods", "Bikes", "Shopping"], "city": "Karlsruhe", "review_count": 4, "name": "only highend", "neighborhoods": [], "longitude": 8.4279636, "state": "BW", "stars": 5.0, "latitude": 49.0102513, "attributes": {"Parking": {"garage": false, "validated": false, "street": false, "lot": false, "valet": false}}, "type": "business"}
{"business_id": "O_8KPbCJpKSuFeqgmY0rHQ", "full_address": "Kaiserstr. 231\n76133 Karlsruhe", "hours": {"Monday": {"close": "19:00", "open": "10:00"}, "Tuesday": {"close": "19:00", "open": "10:00"}, "Friday": {"close": "19:00", "open": "10:00"}, "Wednesday": {"close": "19:00", "open": "10:00"}, "Thursday": {"close": "19:00", "open": "10:00"}, "Saturday": {"close": "19:00", "open": "10:00"}}, "open": true, "categories": ["Sporting Goods", "Shopping", "Outdoor Gear"], "city": "Karlsruhe", "review_count": 14, "name": "Basislager", "neighborhoods": [], "longitude": 8.3914972, "state": "BW", "stars": 4.5, "latitude": 49.0100738, "attributes": {"Parking": {"garage": true, "street": false, "validated": false, "lot": false, "valet": false}, "Accepts Credit Cards": true, "Dogs Allowed": true, "Price Range": 3}, "type": "business"}
