{"business_id": "rCYEy0Cg109fhpnXn1vDBw", "full_address": "Renckstrasse 2\n76137 Karlsruhe", "hours": {}, "open": true, "categories": ["Middle Schools & High Schools", "Elementary Schools", "Education"], "city": "Karlsruhe", "review_count": 3, "name": "Goethe Gymnasium", "neighborhoods": [], "longitude": 8.3964755, "state": "BW", "stars": 4.5, "latitude": 49.0040892, "attributes": {}, "type": "business"}
{"business_id": "VP_gLCwB9tfiatdz2m0zPA", "full_address": "Haid-und-Neustr. 9\n76131 Karlsruhe", "hours": {}, "open": true, "categories": ["Colleges & Universities", "Education"], "city": "Karlsruhe", "review_count": 3, "name": "Max Rubner-Institut", "neighborhoods": [], "longitude": 8.42662, "state": "BW", "stars": 4.5, "latitude": 49.01416, "attributes": {}, "type": "business"}
{"business_id": "RdTksJbfVwDbuOqvpv3zZQ", "full_address": "Am R\u00fcppurer Schloss 40\n76199 Karlsruhe", "hours": {}, "open": true, "categories": ["Hotels & Travel", "Education", "Adult Education", "Event Planning & Services", "Hotels"], "city": "Karlsruhe", "review_count": 3, "name": "Akademiehotel", "neighborhoods": [], "longitude": 8.4133683, "state": "BW", "stars": 4.0, "latitude": 48.9817494, "attributes": {"Wi-Fi": "free", "Price Range": 2, "Has TV": true, "Parking": {"garage": false, "validated": false, "street": false, "lot": false, "valet": false}, "Smoking": "outdoor", "Accepts Credit Cards": true, "Wheelchair Accessible": true}, "type": "business"}
{"business_id": "r6_hgwcSv_YSLRtn8F3M8Q", "full_address": "Gr\u00f6tzinger Str. 42-44\n76227 Karlsruhe", "hours": {}, "open": true, "categories": ["Specialty Schools", "Education", "Cooking Schools"], "city": "Karlsruhe", "review_count": 7, "name": "Meine Pestoria", "neighborhoods": [], "longitude": 8.4812932, "state": "BW", "stars": 4.5, "latitude": 49.0010024, "attributes": {"Parking": {"garage": false, "validated": false, "street": false, "lot": false, "valet": false}, "Wheelchair Accessible": true, "Price Range": 2}, "type": "business"}
{"business_id": "AaTTeaibNRevU2o_JbiYOg", "full_address": "Schnetzlerstrasse 2\n76137 Karlsruhe", "hours": {}, "open": true, "categories": ["Colleges & Universities", "Education"], "city": "Karlsruhe", "review_count": 3, "name": "me-di-kom Privatinstitut f\u00fcr medizinische und psychologische Bil", "neighborhoods": [], "longitude": 8.39918, "state": "BW", "stars": 5.0, "latitude": 48.99595, "attributes": {}, "type": "business"}
{"business_id": "rCYEy0Cg109fhpnXn1vDBw", "full_address": "Renckstrasse 2\n76137 Karlsruhe", "hours": {}, "open": true, "categories": ["Middle Schools & High Schools", "Elementary Schools", "Education"], "city": "Karlsruhe", "review_count": 3, "name": "Goethe Gymnasium", "neighborhoods": [], "longitude": 8.3964755, "state": "BW", "stars": 4.5, "latitude": 49.0040892, "attributes": {}, "type": "business"}
{"business_id": "VP_gLCwB9tfiatdz2m0zPA", "full_address": "Haid-und-Neustr. 9\n76131 Karlsruhe", "hours": {}, "open": true, "categories": ["Colleges & Universities", "Education"], "city": "Karlsruhe", "review_count": 3, "name": "Max Rubner-Institut", "neighborhoods": [], "longitude": 8.42662, "state": "BW", "stars": 4.5, "latitude": 49.01416, "attributes": {}, "type": "business"}
{"business_id": "RdTksJbfVwDbuOqvpv3zZQ", "full_address": "Am R\u00fcppurer Schloss 40\n76199 Karlsruhe", "hours": {}, "open": true, "categories": ["Hotels & Travel", "Education", "Adult Education", "Event Planning & Services", "Hotels"], "city": "Karlsruhe", "review_count": 3, "name": "Akademiehotel", "neighborhoods": [], "longitude": 8.4133683, "state": "BW", "stars": 4.0, "latitude": 48.9817494, "attributes": {"Wi-Fi": "free", "Price Range": 2, "Has TV": true, "Parking": {"garage": false, "validated": false, "street": false, "lot": false, "valet": false}, "Smoking": "outdoor", "Accepts Credit Cards": true, "Wheelchair Accessible": true}, "type": "business"}
{"business_id": "r6_hgwcSv_YSLRtn8F3M8Q", "full_address": "Gr\u00f6tzinger Str. 42-44\n76227 Karlsruhe", "hours": {}, "open": true, "categories": ["Specialty Schools", "Education", "Cooking Schools"], "city": "Karlsruhe", "review_count": 7, "name": "Meine Pestoria", "neighborhoods": [], "longitude": 8.4812932, "state": "BW", "stars": 4.5, "latitude": 49.0010024, "attributes": {"Parking": {"garage": false, "validated": false, "street": false, "lot": false, "valet": false}, "Wheelchair Accessible": true, "Price Range": 2}, "type": "business"}
{"business_id": "AaTTeaibNRevU2o_JbiYOg", "full_address": "Schnetzlerstrasse 2\n76137 Karlsruhe", "hours": {}, "open": true, "categories": ["Colleges & Universities", "Education"], "city": "Karlsruhe", "review_count": 3, "name": "me-di-kom Privatinstitut f\u00fcr medizinische und psychologische Bil", "neighborhoods": [], "longitude": 8.39918, "state": "BW", "stars": 5.0, "latitude": 48.99595, "attributes": {}, "type": "business"}
{"business_id": "rCYEy0Cg109fhpnXn1vDBw", "full_address": "Renckstrasse 2\n76137 Karlsruhe", "hours": {}, "open": true, "categories": ["Middle Schools & High Schools", "Elementary Schools", "Education"], "city": "Karlsruhe", "review_count": 3, "name": "Goethe Gymnasium", "neighborhoods": [], "longitude": 8.3964755, "state": "BW", "stars": 4.5, "latitude": 49.0040892, "attributes": {}, "type": "business"}
{"business_id": "VP_gLCwB9tfiatdz2m0zPA", "full_address": "Haid-und-Neustr. 9\n76131 Karlsruhe", "hours": {}, "open": true, "categories": ["Colleges & Universities", "Education"], "city": "Karlsruhe", "review_count": 3, "name": "Max Rubner-Institut", "neighborhoods": [], "longitude": 8.42662, "state": "BW", "stars": 4.5, "latitude": 49.01416, "attributes": {}, "type": "business"}
{"business_id": "RdTksJbfVwDbuOqvpv3zZQ", "full_address": "Am R\u00fcppurer Schloss 40\n76199 Karlsruhe", "hours": {}, "open": true, "categories": ["Hotels & Travel", "Education", "Adult Education", "Event Planning & Services", "Hotels"], "city": "Karlsruhe", "review_count": 3, "name": "Akademiehotel", "neighborhoods": [], "longitude": 8.4133683, "state": "BW", "stars": 4.0, "latitude": 48.9817494, "attributes": {"Wi-Fi": "free", "Price Range": 2, "Has TV": true, "Parking": {"garage": false, "validated": false, "street": false, "lot": false, "valet": false}, "Smoking": "outdoor", "Accepts Credit Cards": true, "Wheelchair Accessible": true}, "type": "business"}
{"business_id": "r6_hgwcSv_YSLRtn8F3M8Q", "full_address": "Gr\u00f6tzinger Str. 42-44\n76227 Karlsruhe", "hours": {}, "open": true, "categories": ["Specialty Schools", "Education", "Cooking Schools"], "city": "Karlsruhe", "review_count": 7, "name": "Meine Pestoria", "neighborhoods": [], "longitude": 8.4812932, "state": "BW", "stars": 4.5, "latitude": 49.0010024, "attributes": {"Parking": {"garage": false, "validated": false, "street": false, "lot": false, "valet": false}, "Wheelchair Accessible": true, "Price Range": 2}, "type": "business"}
{"business_id": "AaTTeaibNRevU2o_JbiYOg", "full_address": "Schnetzlerstrasse 2\n76137 Karlsruhe", "hours": {}, "open": true, "categories": ["Colleges & Universities", "Education"], "city": "Karlsruhe", "review_count": 3, "name": "me-di-kom Privatinstitut f\u00fcr medizinische und psychologische Bil", "neighborhoods": [], "longitude": 8.39918, "state": "BW", "stars": 5.0, "latitude": 48.99595, "attributes": {}, "type": "business"}
{"business_id": "rCYEy0Cg109fhpnXn1vDBw", "full_address": "Renckstrasse 2\n76137 Karlsruhe", "hours": {}, "open": true, "categories": ["Middle Schools & High Schools", "Elementary Schools", "Education"], "city": "Karlsruhe", "review_count": 3, "name": "Goethe Gymnasium", "neighborhoods": [], "longitude": 8.3964755, "state": "BW", "stars": 4.5, "latitude": 49.0040892, "attributes": {}, "type": "business"}
{"business_id": "VP_gLCwB9tfiatdz2m0zPA", "full_address": "Haid-und-Neustr. 9\n76131 Karlsruhe", "hours": {}, "open": true, "categories": ["Colleges & Universities", "Education"], "city": "Karlsruhe", "review_count": 3, "name": "Max Rubner-Institut", "neighborhoods": [], "longitude": 8.42662, "state": "BW", "stars": 4.5, "latitude": 49.01416, "attributes": {}, "type": "business"}
{"business_id": "RdTksJbfVwDbuOqvpv3zZQ", "full_address": "Am R\u00fcppurer Schloss 40\n76199 Karlsruhe", "hours": {}, "open": true, "categories": ["Hotels & Travel", "Education", "Adult Education", "Event Planning & Services", "Hotels"], "city": "Karlsruhe", "review_count": 3, "name": "Akademiehotel", "neighborhoods": [], "longitude": 8.4133683, "state": "BW", "stars": 4.0, "latitude": 48.9817494, "attributes": {"Wi-Fi": "free", "Price Range": 2, "Has TV": true, "Parking": {"garage": false, "validated": false, "street": false, "lot": false, "valet": false}, "Smoking": "outdoor", "Accepts Credit Cards": true, "Wheelchair Accessible": true}, "type": "business"}
{"business_id": "r6_hgwcSv_YSLRtn8F3M8Q", "full_address": "Gr\u00f6tzinger Str. 42-44\n76227 Karlsruhe", "hours": {}, "open": true, "categories": ["Specialty Schools", "Education", "Cooking Schools"], "city": "Karlsruhe", "review_count": 7, "name": "Meine Pestoria", "neighborhoods": [], "longitude": 8.4812932, "state": "BW", "stars": 4.5, "latitude": 49.0010024, "attributes": {"Parking": {"garage": false, "validated": false, "street": false, "lot": false, "valet": false}, "Wheelchair Accessible": true, "Price Range": 2}, "type": "business"}
{"business_id": "AaTTeaibNRevU2o_JbiYOg", "full_address": "Schnetzlerstrasse 2\n76137 Karlsruhe", "hours": {}, "open": true, "categories": ["Colleges & Universities", "Education"], "city": "Karlsruhe", "review_count": 3, "name": "me-di-kom Privatinstitut f\u00fcr medizinische und psychologische Bil", "neighborhoods": [], "longitude": 8.39918, "state": "BW", "stars": 5.0, "latitude": 48.99595, "attributes": {}, "type": "business"}
{"business_id": "rCYEy0Cg109fhpnXn1vDBw", "full_address": "Renckstrasse 2\n76137 Karlsruhe", "hours": {}, "open": true, "categories": ["Middle Schools & High Schools", "Elementary Schools", "Education"], "city": "Karlsruhe", "review_count": 3, "name": "Goethe Gymnasium", "neighborhoods": [], "longitude": 8.3964755, "state": "BW", "stars": 4.5, "latitude": 49.0040892, "attributes": {}, "type": "business"}
{"business_id": "VP_gLCwB9tfiatdz2m0zPA", "full_address": "Haid-und-Neustr. 9\n76131 Karlsruhe", "hours": {}, "open": true, "categories": ["Colleges & Universities", "Education"], "city": "Karlsruhe", "review_count": 3, "name": "Max Rubner-Institut", "neighborhoods": [], "longitude": 8.42662, "state": "BW", "stars": 4.5, "latitude": 49.01416, "attributes": {}, "type": "business"}
{"business_id": "RdTksJbfVwDbuOqvpv3zZQ", "full_address": "Am R\u00fcppurer Schloss 40\n76199 Karlsruhe", "hours": {}, "open": true, "categories": ["Hotels & Travel", "Education", "Adult Education", "Event Planning & Services", "Hotels"], "city": "Karlsruhe", "review_count": 3, "name": "Akademiehotel", "neighborhoods": [], "longitude": 8.4133683, "state": "BW", "stars": 4.0, "latitude": 48.9817494, "attributes": {"Wi-Fi": "free", "Price Range": 2, "Has TV": true, "Parking": {"garage": false, "validated": false, "street": false, "lot": false, "valet": false}, "Smoking": "outdoor", "Accepts Credit Cards": true, "Wheelchair Accessible": true}, "type": "business"}
{"business_id": "r6_hgwcSv_YSLRtn8F3M8Q", "full_address": "Gr\u00f6tzinger Str. 42-44\n76227 Karlsruhe", "hours": {}, "open": true, "categories": ["Specialty Schools", "Education", "Cooking Schools"], "city": "Karlsruhe", "review_count": 7, "name": "Meine Pestoria", "neighborhoods": [], "longitude": 8.4812932, "state": "BW", "stars": 4.5, "latitude": 49.0010024, "attributes": {"Parking": {"garage": false, "validated": false, "street": false, "lot": false, "valet": false}, "Wheelchair Accessible": true, "Price Range": 2}, "type": "business"}
{"business_id": "AaTTeaibNRevU2o_JbiYOg", "full_address": "Schnetzlerstrasse 2\n76137 Karlsruhe", "hours": {}, "open": true, "categories": ["Colleges & Universities", "Education"], "city": "Karlsruhe", "review_count": 3, "name": "me-di-kom Privatinstitut f\u00fcr medizinische und psychologische Bil", "neighborhoods": [], "longitude": 8.39918, "state": "BW", "stars": 5.0, "latitude": 48.99595, "attributes": {}, "type": "business"}
{"business_id": "rCYEy0Cg109fhpnXn1vDBw", "full_address": "Renckstrasse 2\n76137 Karlsruhe", "hours": {}, "open": true, "categories": ["Middle Schools & High Schools", "Elementary Schools", "Education"], "city": "Karlsruhe", "review_count": 3, "name": "Goethe Gymnasium", "neighborhoods": [], "longitude": 8.3964755, "state": "BW", "stars": 4.5, "latitude": 49.0040892, "attributes": {}, "type": "business"}
{"business_id": "VP_gLCwB9tfiatdz2m0zPA", "full_address": "Haid-und-Neustr. 9\n76131 Karlsruhe", "hours": {}, "open": true, "categories": ["Colleges & Universities", "Education"], "city": "Karlsruhe", "review_count": 3, "name": "Max Rubner-Institut", "neighborhoods": [], "longitude": 8.42662, "state": "BW", "stars": 4.5, "latitude": 49.01416, "attributes": {}, "type": "business"}
{"business_id": "RdTksJbfVwDbuOqvpv3zZQ", "full_address": "Am R\u00fcppurer Schloss 40\n76199 Karlsruhe", "hours": {}, "open": true, "categories": ["Hotels & Travel", "Education", "Adult Education", "Event Planning & Services", "Hotels"], "city": "Karlsruhe", "review_count": 3, "name": "Akademiehotel", "neighborhoods": [], "longitude": 8.4133683, "state": "BW", "stars": 4.0, "latitude": 48.9817494, "attributes": {"Wi-Fi": "free", "Price Range": 2, "Has TV": true, "Parking": {"garage": false, "validated": false, "street": false, "lot": false, "valet": false}, "Smoking": "outdoor", "Accepts Credit Cards": true, "Wheelchair Accessible": true}, "type": "business"}
{"business_id": "r6_hgwcSv_YSLRtn8F3M8Q", "full_address": "Gr\u00f6tzinger Str. 42-44\n76227 Karlsruhe", "hours": {}, "open": true, "categories": ["Specialty Schools", "Education", "Cooking Schools"], "city": "Karlsruhe", "review_count": 7, "name": "Meine Pestoria", "neighborhoods": [], "longitude": 8.4812932, "state": "BW", "stars": 4.5, "latitude": 49.0010024, "attributes": {"Parking": {"garage": false, "validated": false, "street": false, "lot": false, "valet": false}, "Wheelchair Accessible": true, "Price Range": 2}, "type": "business"}
{"business_id": "AaTTeaibNRevU2o_JbiYOg", "full_address": "Schnetzlerstrasse 2\n76137 Karlsruhe", "hours": {}, "open": true, "categories": ["Colleges & Universities", "Education"], "city": "Karlsruhe", "review_count": 3, "name": "me-di-kom Privatinstitut f\u00fcr medizinische und psychologische Bil", "neighborhoods": [], "longitude": 8.39918, "state": "BW", "stars": 5.0, "latitude": 48.99595, "attributes": {}, "type": "business"}
