{"business_id": "zpMiSnjnr8tiLdQkIExWFw", "full_address": "Hardeckstr. 8\n76185 Karlsruhe", "hours": {}, "open": true, "categories": ["Auto Repair", "Automotive", "Car Wash"], "city": "Karlsruhe", "review_count": 3, "name": "Flott Autowaschbahn Marianne Molter", "neighborhoods": [], "longitude": 8.3618, "state": "BW", "stars": 5.0, "latitude": 48.99888, "attributes": {"Price Range": 2}, "type": "business"}
{"business_id": "PuPi36oN9F0O8LsIK6yMng", "full_address": "Stuttgarter Str. 57\n76137 Karlsruhe", "hours": {}, "open": true, "categories": ["Car Wash", "Automotive"], "city": "Karlsruhe", "review_count": 4, "name": "Imo Autopflege", "neighborhoods": [], "longitude": 8.4228224, "state": "BW", "stars": 3.5, "latitude": 49.0017255, "attributes": {"Price Range": 3}, "type": "business"}
{"business_id": "UEm1wCQvtUlXJJYhV_ckRw", "full_address": "Pulverhausstr. 38\n76135 Karlsruhe", "hours": {}, "open": true, "categories": ["Car Wash", "Automotive"], "city": "Karlsruhe", "review_count": 5, "name": "IMO-Autowaschstra\u00dfe", "neighborhoods": [], "longitude": 8.37151, "state": "BW", "stars": 5.0, "latitude": 48.9906, "attributes": {"Accepts Credit Cards": false, "Wheelchair Accessible": true, "Price Range": 2}, "type": "business"}
{"business_id": "uwlK60hWjozFJULa5etk6A", "full_address": "Ottostr. 6\n76227 Karlsruhe", "hours": {"Monday": {"close": "19:00", "open": "08:00"}, "Tuesday": {"close": "19:00", "open": "08:00"}, "Friday": {"close": "19:00", "open": "08:00"}, "Wednesday": {"close": "19:00", "open": "08:00"}, "Thursday": {"close": "19:00", "open": "08:00"}, "Saturday": {"close": "18:00", "open": "08:00"}}, "open": true, "categories": ["Car Wash", "Automotive"], "city": "Karlsruhe", "review_count": 5, "name": "Waschpark Karlsruhe", "neighborhoods": [], "longitude": 8.44578266143799, "state": "BW", "stars": 4.0, "latitude": 48.9966562813014, "attributes": {}, "type": "business"}
{"business_id": "zpMiSnjnr8tiLdQkIExWFw", "full_address": "Hardeckstr. 8\n76185 Karlsruhe", "hours": {}, "open": true, "categories": ["Auto Repair", "Automotive", "Car Wash"], "city": "Karlsruhe", "review_count": 3, "name": "Flott Autowaschbahn Marianne Molter", "neighborhoods": [], "longitude": 8.3618, "state": "BW", "stars": 5.0, "latitude": 48.99888, "attributes": {"Price Range": 2}, "type": "business"}
{"business_id": "PuPi36oN9F0O8LsIK6yMng", "full_address": "Stuttgarter Str. 57\n76137 Karlsruhe", "hours": {}, "open": true, "categories": ["Car Wash", "Automotive"], "city": "Karlsruhe", "review_count": 4, "name": "Imo Autopflege", "neighborhoods": [], "longitude": 8.4228224, "state": "BW", "stars": 3.5, "latitude": 49.0017255, "attributes": {"Price Range": 3}, "type": "business"}
{"business_id": "UEm1wCQvtUlXJJYhV_ckRw", "full_address": "Pulverhausstr. 38\n76135 Karlsruhe", "hours": {}, "open": true, "categories": ["Car Wash", "Automotive"], "city": "Karlsruhe", "review_count": 5, "name": "IMO-Autowaschstra\u00dfe", "neighborhoods": [], "longitude": 8.37151, "state": "BW", "stars": 5.0, "latitude": 48.9906, "attributes": {"Accepts Credit Cards": false, "Wheelchair Accessible": true, "Price Range": 2}, "type": "business"}
{"business_id": "uwlK60hWjozFJULa5etk6A", "full_address": "Ottostr. 6\n76227 Karlsruhe", "hours": {"Monday": {"close": "19:00", "open": "08:00"}, "Tuesday": {"close": "19:00", "open": "08:00"}, "Friday": {"close": "19:00", "open": "08:00"}, "Wednesday": {"close": "19:00", "open": "08:00"}, "Thursday": {"close": "19:00", "open": "08:00"}, "Saturday": {"close": "18:00", "open": "08:00"}}, "open": true, "categories": ["Car Wash", "Automotive"], "city": "Karlsruhe", "review_count": 5, "name": "Waschpark Karlsruhe", "neighborhoods": [], "longitude": 8.44578266143799, "state": "BW", "stars": 4.0, "latitude": 48.9966562813014, "attributes": {}, "type": "business"}
{"business_id": "zpMiSnjnr8tiLdQkIExWFw", "full_address": "Hardeckstr. 8\n76185 Karlsruhe", "hours": {}, "open": true, "categories": ["Auto Repair", "Automotive", "Car Wash"], "city": "Karlsruhe", "review_count": 3, "name": "Flott Autowaschbahn Marianne Molter", "neighborhoods": [], "longitude": 8.3618, "state": "BW", "stars": 5.0, "latitude": 48.99888, "attributes": {"Price Range": 2}, "type": "business"}
{"business_id": "PuPi36oN9F0O8LsIK6yMng", "full_address": "Stuttgarter Str. 57\n76137 Karlsruhe", "hours": {}, "open": true, "categories": ["Car Wash", "Automotive"], "city": "Karlsruhe", "review_count": 4, "name": "Imo Autopflege", "neighborhoods": [], "longitude": 8.4228224, "state": "BW", "stars": 3.5, "latitude": 49.0017255, "attributes": {"Price Range": 3}, "type": "business"}
{"business_id": "UEm1wCQvtUlXJJYhV_ckRw", "full_address": "Pulverhausstr. 38\n76135 Karlsruhe", "hours": {}, "open": true, "categories": ["Car Wash", "Automotive"], "city": "Karlsruhe", "review_count": 5, "name": "IMO-Autowaschstra\u00dfe", "neighborhoods": [], "longitude": 8.37151, "state": "BW", "stars": 5.0, "latitude": 48.9906, "attributes": {"Accepts Credit Cards": false, "Wheelchair Accessible": true, "Price Range": 2}, "type": "business"}
{"business_id": "uwlK60hWjozFJULa5etk6A", "full_address": "Ottostr. 6\n76227 Karlsruhe", "hours": {"Monday": {"close": "19:00", "open": "08:00"}, "Tuesday": {"close": "19:00", "open": "08:00"}, "Friday": {"close": "19:00", "open": "08:00"}, "Wednesday": {"close": "19:00", "open": "08:00"}, "Thursday": {"close": "19:00", "open": "08:00"}, "Saturday": {"close": "18:00", "open": "08:00"}}, "open": true, "categories": ["Car Wash", "Automotive"], "city": "Karlsruhe", "review_count": 5, "name": "Waschpark Karlsruhe", "neighborhoods": [], "longitude": 8.44578266143799, "state": "BW", "stars": 4.0, "latitude": 48.9966562813014, "attributes": {}, "type": "business"}
{"business_id": "zpMiSnjnr8tiLdQkIExWFw", "full_address": "Hardeckstr. 8\n76185 Karlsruhe", "hours": {}, "open": true, "categories": ["Auto Repair", "Automotive", "Car Wash"], "city": "Karlsruhe", "review_count": 3, "name": "Flott Autowaschbahn Marianne Molter", "neighborhoods": [], "longitude": 8.3618, "state": "BW", "stars": 5.0, "latitude": 48.99888, "attributes": {"Price Range": 2}, "type": "business"}
{"business_id": "PuPi36oN9F0O8LsIK6yMng", "full_address": "Stuttgarter Str. 57\n76137 Karlsruhe", "hours": {}, "open": true, "categories": ["Car Wash", "Automotive"], "city": "Karlsruhe", "review_count": 4, "name": "Imo Autopflege", "neighborhoods": [], "longitude": 8.4228224, "state": "BW", "stars": 3.5, "latitude": 49.0017255, "attributes": {"Price Range": 3}, "type": "business"}
{"business_id": "UEm1wCQvtUlXJJYhV_ckRw", "full_address": "Pulverhausstr. 38\n76135 Karlsruhe", "hours": {}, "open": true, "categories": ["Car Wash", "Automotive"], "city": "Karlsruhe", "review_count": 5, "name": "IMO-Autowaschstra\u00dfe", "neighborhoods": [], "longitude": 8.37151, "state": "BW", "stars": 5.0, "latitude": 48.9906, "attributes": {"Accepts Credit Cards": false, "Wheelchair Accessible": true, "Price Range": 2}, "type": "business"}
{"business_id": "uwlK60hWjozFJULa5etk6A", "full_address": "Ottostr. 6\n76227 Karlsruhe", "hours": {"Monday": {"close": "19:00", "open": "08:00"}, "Tuesday": {"close": "19:00", "open": "08:00"}, "Friday": {"close": "19:00", "open": "08:00"}, "Wednesday": {"close": "19:00", "open": "08:00"}, "Thursday": {"close": "19:00", "open": "08:00"}, "Saturday": {"close": "18:00", "open": "08:00"}}, "open": true, "categories": ["Car Wash", "Automotive"], "city": "Karlsruhe", "review_count": 5, "name": "Waschpark Karlsruhe", "neighborhoods": [], "longitude": 8.44578266143799, "state": "BW", "stars": 4.0, "latitude": 48.9966562813014, "attributes": {}, "type": "business"}
{"business_id": "zpMiSnjnr8tiLdQkIExWFw", "full_address": "Hardeckstr. 8\n76185 Karlsruhe", "hours": {}, "open": true, "categories": ["Auto Repair", "Automotive", "Car Wash"], "city": "Karlsruhe", "review_count": 3, "name": "Flott Autowaschbahn Marianne Molter", "neighborhoods": [], "longitude": 8.3618, "state": "BW", "stars": 5.0, "latitude": 48.99888, "attributes": {"Price Range": 2}, "type": "business"}
{"business_id": "PuPi36oN9F0O8LsIK6yMng", "full_address": "Stuttgarter Str. 57\n76137 Karlsruhe", "hours": {}, "open": true, "categories": ["Car Wash", "Automotive"], "city": "Karlsruhe", "review_count": 4, "name": "Imo Autopflege", "neighborhoods": [], "longitude": 8.4228224, "state": "BW", "stars": 3.5, "latitude": 49.0017255, "attributes": {"Price Range": 3}, "type": "business"}
{"business_id": "UEm1wCQvtUlXJJYhV_ckRw", "full_address": "Pulverhausstr. 38\n76135 Karlsruhe", "hours": {}, "open": true, "categories": ["Car Wash", "Automotive"], "city": "Karlsruhe", "review_count": 5, "name": "IMO-Autowaschstra\u00dfe", "neighborhoods": [], "longitude": 8.37151, "state": "BW", "stars": 5.0, "latitude": 48.9906, "attributes": {"Accepts Credit Cards": false, "Wheelchair Accessible": true, "Price Range": 2}, "type": "business"}
{"business_id": "uwlK60hWjozFJULa5etk6A", "full_address": "Ottostr. 6\n76227 Karlsruhe", "hours": {"Monday": {"close": "19:00", "open": "08:00"}, "Tuesday": {"close": "19:00", "open": "08:00"}, "Friday": {"close": "19:00", "open": "08:00"}, "Wednesday": {"close": "19:00", "open": "08:00"}, "Thursday": {"close": "19:00", "open": "08:00"}, "Saturday": {"close": "18:00", "open": "08:00"}}, "open": true, "categories": ["Car Wash", "Automotive"], "city": "Karlsruhe", "review_count": 5, "name": "Waschpark Karlsruhe", "neighborhoods": [], "longitude": 8.44578266143799, "state": "BW", "stars": 4.0, "latitude": 48.9966562813014, "attributes": {}, "type": "business"}
{"business_id": "zpMiSnjnr8tiLdQkIExWFw", "full_address": "Hardeckstr. 8\n76185 Karlsruhe", "hours": {}, "open": true, "categories": ["Auto Repair", "Automotive", "Car Wash"], "city": "Karlsruhe", "review_count": 3, "name": "Flott Autowaschbahn Marianne Molter", "neighborhoods": [], "longitude": 8.3618, "state": "BW", "stars": 5.0, "latitude": 48.99888, "attributes": {"Price Range": 2}, "type": "business"}
{"business_id": "PuPi36oN9F0O8LsIK6yMng", "full_address": "Stuttgarter Str. 57\n76137 Karlsruhe", "hours": {}, "open": true, "categories": ["Car Wash", "Automotive"], "city": "Karlsruhe", "review_count": 4, "name": "Imo Autopflege", "neighborhoods": [], "longitude": 8.4228224, "state": "BW", "stars": 3.5, "latitude": 49.0017255, "attributes": {"Price Range": 3}, "type": "business"}
{"business_id": "UEm1wCQvtUlXJJYhV_ckRw", "full_address": "Pulverhausstr. 38\n76135 Karlsruhe", "hours": {}, "open": true, "categories": ["Car Wash", "Automotive"], "city": "Karlsruhe", "review_count": 5, "name": "IMO-Autowaschstra\u00dfe", "neighborhoods": [], "longitude": 8.37151, "state": "BW", "stars": 5.0, "latitude": 48.9906, "attributes": {"Accepts Credit Cards": false, "Wheelchair Accessible": true, "Price Range": 2}, "type": "business"}
{"business_id": "uwlK60hWjozFJULa5etk6A", "full_address": "Ottostr. 6\n76227 Karlsruhe", "hours": {"Monday": {"close": "19:00", "open": "08:00"}, "Tuesday": {"close": "19:00", "open": "08:00"}, "Friday": {"close": "19:00", "open": "08:00"}, "Wednesday": {"close": "19:00", "open": "08:00"}, "Thursday": {"close": "19:00", "open": "08:00"}, "Saturday": {"close": "18:00", "open": "08:00"}}, "open": true, "categories": ["Car Wash", "Automotive"], "city": "Karlsruhe", "review_count": 5, "name": "Waschpark Karlsruhe", "neighborhoods": [], "longitude": 8.44578266143799, "state": "BW", "stars": 4.0, "latitude": 48.9966562813014, "attributes": {}, "type": "business"}
