{"business_id": "96DyV1HhsRRPkFIN4zfzPQ", "full_address": "Karlstr. 29\n76133 Karlsruhe", "hours": {"Friday": {"close": "12:30", "open": "08:00"}, "Tuesday": {"close": "17:30", "open": "14:00"}, "Thursday": {"close": "18:00", "open": "14:00"}, "Wednesday": {"close": "14:00", "open": "08:00"}, "Monday": {"close": "17:30", "open": "14:00"}}, "open": true, "categories": ["Doctors", "Ophthalmologists", "Health & Medical"], "city": "Karlsruhe", "review_count": 11, "name": "Dr. Stephan Kaut", "neighborhoods": [], "longitude": 8.39517480535322, "state": "BW", "stars": 4.0, "latitude": 49.0075256107311, "attributes": {"Accepts Credit Cards": true, "Wheelchair Accessible": true}, "type": "business"}
{"business_id": "96DyV1HhsRRPkFIN4zfzPQ", "full_address": "Karlstr. 29\n76133 Karlsruhe", "hours": {"Friday": {"close": "12:30", "open": "08:00"}, "Tuesday": {"close": "17:30", "open": "14:00"}, "Thursday": {"close": "18:00", "open": "14:00"}, "Wednesday": {"close": "14:00", "open": "08:00"}, "Monday": {"close": "17:30", "open": "14:00"}}, "open": true, "categories": ["Doctors", "Ophthalmologists", "Health & Medical"], "city": "Karlsruhe", "review_count": 11, "name": "Dr. Stephan Kaut", "neighborhoods": [], "longitude": 8.39517480535322, "state": "BW", "stars": 4.0, "latitude": 49.0075256107311, "attributes": {"Accepts Credit Cards": true, "Wheelchair Accessible": true}, "type": "business"}
{"business_id": "96DyV1HhsRRPkFIN4zfzPQ", "full_address": "Karlstr. 29\n76133 Karlsruhe", "hours": {"Friday": {"close": "12:30", "open": "08:00"}, "Tuesday": {"close": "17:30", "open": "14:00"}, "Thursday": {"close": "18:00", "open": "14:00"}, "Wednesday": {"close": "14:00", "open": "08:00"}, "Monday": {"close": "17:30", "open": "14:00"}}, "open": true, "categories": ["Doctors", "Ophthalmologists", "Health & Medical"], "city": "Karlsruhe", "review_count": 11, "name": "Dr. Stephan Kaut", "neighborhoods": [], "longitude": 8.39517480535322, "state": "BW", "stars": 4.0, "latitude": 49.0075256107311, "attributes": {"Accepts Credit Cards": true, "Wheelchair Accessible": true}, "type": "business"}
{"business_id": "96DyV1HhsRRPkFIN4zfzPQ", "full_address": "Karlstr. 29\n76133 Karlsruhe", "hours": {"Friday": {"close": "12:30", "open": "08:00"}, "Tuesday": {"close": "17:30", "open": "14:00"}, "Thursday": {"close": "18:00", "open": "14:00"}, "Wednesday": {"close": "14:00", "open": "08:00"}, "Monday": {"close": "17:30", "open": "14:00"}}, "open": true, "categories": ["Doctors", "Ophthalmologists", "Health & Medical"], "city": "Karlsruhe", "review_count": 11, "name": "Dr. Stephan Kaut", "neighborhoods": [], "longitude": 8.39517480535322, "state": "BW", "stars": 4.0, "latitude": 49.0075256107311, "attributes": {"Accepts Credit Cards": true, "Wheelchair Accessible": true}, "type": "business"}
{"business_id": "96DyV1HhsRRPkFIN4zfzPQ", "full_address": "Karlstr. 29\n76133 Karlsruhe", "hours": {"Friday": {"close": "12:30", "open": "08:00"}, "Tuesday": {"close": "17:30", "open": "14:00"}, "Thursday": {"close": "18:00", "open": "14:00"}, "Wednesday": {"close": "14:00", "open": "08:00"}, "Monday": {"close": "17:30", "open": "14:00"}}, "open": true, "categories": ["Doctors", "Ophthalmologists", "Health & Medical"], "city": "Karlsruhe", "review_count": 11, "name": "Dr. Stephan Kaut", "neighborhoods": [], "longitude": 8.39517480535322, "state": "BW", "stars": 4.0, "latitude": 49.0075256107311, "attributes": {"Accepts Credit Cards": true, "Wheelchair Accessible": true}, "type": "business"}
{"business_id": "96DyV1HhsRRPkFIN4zfzPQ", "full_address": "Karlstr. 29\n76133 Karlsruhe", "hours": {"Friday": {"close": "12:30", "open": "08:00"}, "Tuesday": {"close": "17:30", "open": "14:00"}, "Thursday": {"close": "18:00", "open": "14:00"}, "Wednesday": {"close": "14:00", "open": "08:00"}, "Monday": {"close": "17:30", "open": "14:00"}}, "open": true, "categories": ["Doctors", "Ophthalmologists", "Health & Medical"], "city": "Karlsruhe", "review_count": 11, "name": "Dr. Stephan Kaut", "neighborhoods": [], "longitude": 8.39517480535322, "state": "BW", "stars": 4.0, "latitude": 49.0075256107311, "attributes": {"Accepts Credit Cards": true, "Wheelchair Accessible": true}, "type": "business"}
