{"business_id": "gepa_EcPF8raQjJByhbKKw", "full_address": "August-Dosenbach-Str. 7\n76189 Karlsruhe", "hours": {}, "open": true, "categories": ["Serbo Croatian", "German", "Soccer", "Amateur Sports Teams", "Active Life", "Restaurants"], "city": "Karlsruhe", "review_count": 5, "name": "Clubhaus im FV Daxlanden", "neighborhoods": [], "longitude": 8.34102, "state": "BW", "stars": 4.0, "latitude": 48.9994, "attributes": {"Take-out": false, "Delivery": false, "Dogs Allowed": false, "Outdoor Seating": true, "Parking": {"garage": false, "street": false, "validated": false, "lot": false, "valet": false}, "Smoking": "no", "Accepts Credit Cards": false}, "type": "business"}
{"business_id": "5OSRQPqJQ0ilgw25wx_PIg", "full_address": "76297 Stutensee", "hours": {}, "open": true, "categories": ["Active Life", "Soccer", "Lakes", "Amateur Sports Teams"], "city": "Stutensee", "review_count": 3, "name": "Baggersee Staffort", "neighborhoods": [], "longitude": 8.50123, "state": "BW", "stars": 3.0, "latitude": 49.0819, "attributes": {}, "type": "business"}
{"business_id": "OFD83GJxZwmVCEwWjJmwsQ", "full_address": "Adenauerring\n76131 Karlsruhe", "hours": {}, "open": true, "categories": ["Active Life", "Arts & Entertainment", "Soccer", "Stadiums & Arenas"], "city": "Karlsruhe", "review_count": 13, "name": "Wildparkstadion", "neighborhoods": [], "longitude": 8.41312, "state": "BW", "stars": 3.0, "latitude": 49.0201, "attributes": {"Good for Kids": true, "Parking": {"garage": false, "validated": false, "street": false, "lot": false, "valet": false}, "Wheelchair Accessible": true, "Price Range": 2}, "type": "business"}
{"business_id": "gepa_EcPF8raQjJByhbKKw", "full_address": "August-Dosenbach-Str. 7\n76189 Karlsruhe", "hours": {}, "open": true, "categories": ["Serbo Croatian", "German", "Soccer", "Amateur Sports Teams", "Active Life", "Restaurants"], "city": "Karlsruhe", "review_count": 5, "name": "Clubhaus im FV Daxlanden", "neighborhoods": [], "longitude": 8.34102, "state": "BW", "stars": 4.0, "latitude": 48.9994, "attributes": {"Take-out": false, "Delivery": false, "Dogs Allowed": false, "Outdoor Seating": true, "Parking": {"garage": false, "street": false, "validated": false, "lot": false, "valet": false}, "Smoking": "no", "Accepts Credit Cards": false}, "type": "business"}
{"business_id": "5OSRQPqJQ0ilgw25wx_PIg", "full_address": "76297 Stutensee", "hours": {}, "open": true, "categories": ["Active Life", "Soccer", "Lakes", "Amateur Sports Teams"], "city": "Stutensee", "review_count": 3, "name": "Baggersee Staffort", "neighborhoods": [], "longitude": 8.50123, "state": "BW", "stars": 3.0, "latitude": 49.0819, "attributes": {}, "type": "business"}
{"business_id": "OFD83GJxZwmVCEwWjJmwsQ", "full_address": "Adenauerring\n76131 Karlsruhe", "hours": {}, "open": true, "categories": ["Active Life", "Arts & Entertainment", "Soccer", "Stadiums & Arenas"], "city": "Karlsruhe", "review_count": 13, "name": "Wildparkstadion", "neighborhoods": [], "longitude": 8.41312, "state": "BW", "stars": 3.0, "latitude": 49.0201, "attributes": {"Good for Kids": true, "Parking": {"garage": false, "validated": false, "street": false, "lot": false, "valet": false}, "Wheelchair Accessible": true, "Price Range": 2}, "type": "business"}
{"business_id": "gepa_EcPF8raQjJByhbKKw", "full_address": "August-Dosenbach-Str. 7\n76189 Karlsruhe", "hours": {}, "open": true, "categories": ["Serbo Croatian", "German", "Soccer", "Amateur Sports Teams", "Active Life", "Restaurants"], "city": "Karlsruhe", "review_count": 5, "name": "Clubhaus im FV Daxlanden", "neighborhoods": [], "longitude": 8.34102, "state": "BW", "stars": 4.0, "latitude": 48.9994, "attributes": {"Take-out": false, "Delivery": false, "Dogs Allowed": false, "Outdoor Seating": true, "Parking": {"garage": false, "street": false, "validated": false, "lot": false, "valet": false}, "Smoking": "no", "Accepts Credit Cards": false}, "type": "business"}
{"business_id": "5OSRQPqJQ0ilgw25wx_PIg", "full_address": "76297 Stutensee", "hours": {}, "open": true, "categories": ["Active Life", "Soccer", "Lakes", "Amateur Sports Teams"], "city": "Stutensee", "review_count": 3, "name": "Baggersee Staffort", "neighborhoods": [], "longitude": 8.50123, "state": "BW", "stars": 3.0, "latitude": 49.0819, "attributes": {}, "type": "business"}
{"business_id": "OFD83GJxZwmVCEwWjJmwsQ", "full_address": "Adenauerring\n76131 Karlsruhe", "hours": {}, "open": true, "categories": ["Active Life", "Arts & Entertainment", "Soccer", "Stadiums & Arenas"], "city": "Karlsruhe", "review_count": 13, "name": "Wildparkstadion", "neighborhoods": [], "longitude": 8.41312, "state": "BW", "stars": 3.0, "latitude": 49.0201, "attributes": {"Good for Kids": true, "Parking": {"garage": false, "validated": false, "street": false, "lot": false, "valet": false}, "Wheelchair Accessible": true, "Price Range": 2}, "type": "business"}
{"business_id": "gepa_EcPF8raQjJByhbKKw", "full_address": "August-Dosenbach-Str. 7\n76189 Karlsruhe", "hours": {}, "open": true, "categories": ["Serbo Croatian", "German", "Soccer", "Amateur Sports Teams", "Active Life", "Restaurants"], "city": "Karlsruhe", "review_count": 5, "name": "Clubhaus im FV Daxlanden", "neighborhoods": [], "longitude": 8.34102, "state": "BW", "stars": 4.0, "latitude": 48.9994, "attributes": {"Take-out": false, "Delivery": false, "Dogs Allowed": false, "Outdoor Seating": true, "Parking": {"garage": false, "street": false, "validated": false, "lot": false, "valet": false}, "Smoking": "no", "Accepts Credit Cards": false}, "type": "business"}
{"business_id": "5OSRQPqJQ0ilgw25wx_PIg", "full_address": "76297 Stutensee", "hours": {}, "open": true, "categories": ["Active Life", "Soccer", "Lakes", "Amateur Sports Teams"], "city": "Stutensee", "review_count": 3, "name": "Baggersee Staffort", "neighborhoods": [], "longitude": 8.50123, "state": "BW", "stars": 3.0, "latitude": 49.0819, "attributes": {}, "type": "business"}
{"business_id": "OFD83GJxZwmVCEwWjJmwsQ", "full_address": "Adenauerring\n76131 Karlsruhe", "hours": {}, "open": true, "categories": ["Active Life", "Arts & Entertainment", "Soccer", "Stadiums & Arenas"], "city": "Karlsruhe", "review_count": 13, "name": "Wildparkstadion", "neighborhoods": [], "longitude": 8.41312, "state": "BW", "stars": 3.0, "latitude": 49.0201, "attributes": {"Good for Kids": true, "Parking": {"garage": false, "validated": false, "street": false, "lot": false, "valet": false}, "Wheelchair Accessible": true, "Price Range": 2}, "type": "business"}
{"business_id": "gepa_EcPF8raQjJByhbKKw", "full_address": "August-Dosenbach-Str. 7\n76189 Karlsruhe", "hours": {}, "open": true, "categories": ["Serbo Croatian", "German", "Soccer", "Amateur Sports Teams", "Active Life", "Restaurants"], "city": "Karlsruhe", "review_count": 5, "name": "Clubhaus im FV Daxlanden", "neighborhoods": [], "longitude": 8.34102, "state": "BW", "stars": 4.0, "latitude": 48.9994, "attributes": {"Take-out": false, "Delivery": false, "Dogs Allowed": false, "Outdoor Seating": true, "Parking": {"garage": false, "street": false, "validated": false, "lot": false, "valet": false}, "Smoking": "no", "Accepts Credit Cards": false}, "type": "business"}
{"business_id": "5OSRQPqJQ0ilgw25wx_PIg", "full_address": "76297 Stutensee", "hours": {}, "open": true, "categories": ["Active Life", "Soccer", "Lakes", "Amateur Sports Teams"], "city": "Stutensee", "review_count": 3, "name": "Baggersee Staffort", "neighborhoods": [], "longitude": 8.50123, "state": "BW", "stars": 3.0, "latitude": 49.0819, "attributes": {}, "type": "business"}
{"business_id": "OFD83GJxZwmVCEwWjJmwsQ", "full_address": "Adenauerring\n76131 Karlsruhe", "hours": {}, "open": true, "categories": ["Active Life", "Arts & Entertainment", "Soccer", "Stadiums & Arenas"], "city": "Karlsruhe", "review_count": 13, "name": "Wildparkstadion", "neighborhoods": [], "longitude": 8.41312, "state": "BW", "stars": 3.0, "latitude": 49.0201, "attributes": {"Good for Kids": true, "Parking": {"garage": false, "validated": false, "street": false, "lot": false, "valet": false}, "Wheelchair Accessible": true, "Price Range": 2}, "type": "business"}
{"business_id": "gepa_EcPF8raQjJByhbKKw", "full_address": "August-Dosenbach-Str. 7\n76189 Karlsruhe", "hours": {}, "open": true, "categories": ["Serbo Croatian", "German", "Soccer", "Amateur Sports Teams", "Active Life", "Restaurants"], "city": "Karlsruhe", "review_count": 5, "name": "Clubhaus im FV Daxlanden", "neighborhoods": [], "longitude": 8.34102, "state": "BW", "stars": 4.0, "latitude": 48.9994, "attributes": {"Take-out": false, "Delivery": false, "Dogs Allowed": false, "Outdoor Seating": true, "Parking": {"garage": false, "street": false, "validated": false, "lot": false, "valet": false}, "Smoking": "no", "Accepts Credit Cards": false}, "type": "business"}
{"business_id": "5OSRQPqJQ0ilgw25wx_PIg", "full_address": "76297 Stutensee", "hours": {}, "open": true, "categories": ["Active Life", "Soccer", "Lakes", "Amateur Sports Teams"], "city": "Stutensee", "review_count": 3, "name": "Baggersee Staffort", "neighborhoods": [], "longitude": 8.50123, "state": "BW", "stars": 3.0, "latitude": 49.0819, "attributes": {}, "type": "business"}
{"business_id": "OFD83GJxZwmVCEwWjJmwsQ", "full_address": "Adenauerring\n76131 Karlsruhe", "hours": {}, "open": true, "categories": ["Active Life", "Arts & Entertainment", "Soccer", "Stadiums & Arenas"], "city": "Karlsruhe", "review_count": 13, "name": "Wildparkstadion", "neighborhoods": [], "longitude": 8.41312, "state": "BW", "stars": 3.0, "latitude": 49.0201, "attributes": {"Good for Kids": true, "Parking": {"garage": false, "validated": false, "street": false, "lot": false, "valet": false}, "Wheelchair Accessible": true, "Price Range": 2}, "type": "business"}
