{"business_id": "zpMiSnjnr8tiLdQkIExWFw", "full_address": "Hardeckstr. 8\n76185 Karlsruhe", "hours": {}, "open": true, "categories": ["Auto Repair", "Automotive", "Car Wash"], "city": "Karlsruhe", "review_count": 3, "name": "Flott Autowaschbahn Marianne Molter", "neighborhoods": [], "longitude": 8.3618, "state": "BW", "stars": 5.0, "latitude": 48.99888, "attributes": {"Price Range": 2}, "type": "business"}
{"business_id": "YONT5EFwfR0i2St1lU7SpA", "full_address": "Wattstr. 6-8\n76185 Karlsruhe", "hours": {}, "open": true, "categories": ["Auto Repair", "Automotive", "Car Dealers"], "city": "Karlsruhe", "review_count": 3, "name": "Autohaus Streit", "neighborhoods": [], "longitude": 8.3600327, "state": "BW", "stars": 3.0, "latitude": 49.0327945, "attributes": {"Parking": {"garage": false, "validated": false, "street": false, "lot": false, "valet": false}, "Wheelchair Accessible": true, "Price Range": 3}, "type": "business"}
{"business_id": "FZpJfZGc1pGaGXabeJuVHw", "full_address": "Pforzheimer Str. 78-104\n76275 Ettlingen", "hours": {"Monday": {"close": "18:30", "open": "08:30"}, "Tuesday": {"close": "18:30", "open": "08:30"}, "Friday": {"close": "18:30", "open": "08:30"}, "Wednesday": {"close": "18:30", "open": "08:30"}, "Thursday": {"close": "18:30", "open": "08:30"}, "Saturday": {"close": "13:00", "open": "09:00"}}, "open": true, "categories": ["Auto Repair", "Automotive", "Car Dealers"], "city": "Ettlingen", "review_count": 3, "name": "Auto-Krasser", "neighborhoods": [], "longitude": 8.42609, "state": "BW", "stars": 2.5, "latitude": 48.9348, "attributes": {"Wheelchair Accessible": true, "Parking": {"garage": false, "validated": false, "street": false, "lot": false, "valet": false}}, "type": "business"}
{"business_id": "PxfqJwIO-QCB3y96Dw54Vg", "full_address": "Ottostr. 5\n76227 Karlsruhe", "hours": {}, "open": true, "categories": ["Auto Repair", "Automotive", "Car Dealers"], "city": "Karlsruhe", "review_count": 4, "name": "Autohaus J\u00fcttner", "neighborhoods": [], "longitude": 8.44667, "state": "BW", "stars": 2.5, "latitude": 48.99606, "attributes": {"Parking": {"garage": false, "validated": false, "street": false, "lot": false, "valet": false}, "Accepts Credit Cards": false, "Wheelchair Accessible": true, "Price Range": 3}, "type": "business"}
{"business_id": "VPGbUwQa3enU1ic7ntND7A", "full_address": "Gerwigstr. 83\n76131 Karlsruhe", "hours": {}, "open": true, "categories": ["Auto Repair", "Automotive", "Car Dealers"], "city": "Karlsruhe", "review_count": 5, "name": "Audi Zentrum Karlsruhe", "neighborhoods": [], "longitude": 8.44226, "state": "BW", "stars": 2.5, "latitude": 49.0062, "attributes": {"Price Range": 4}, "type": "business"}
{"business_id": "HIlcj33VY5Aa6eOuyu04Og", "full_address": "Dieselstr. 1\n76448 Durmersheim", "hours": {}, "open": true, "categories": ["Auto Repair", "Automotive"], "city": "Durmersheim", "review_count": 3, "name": "Autoservice Maier", "neighborhoods": [], "longitude": 8.262, "state": "BW", "stars": 3.5, "latitude": 48.9414, "attributes": {"Price Range": 2}, "type": "business"}
{"business_id": "NEYJeDUNiWVHJY2jQ8AbUA", "full_address": "Ottostr. 22\n76227 Karlsruhe", "hours": {}, "open": true, "categories": ["Auto Repair", "Automotive", "Car Rental", "Car Dealers", "Hotels & Travel"], "city": "Karlsruhe", "review_count": 4, "name": "Ungeheuer Automobile Bmw Vertragsh\u00e4ndler Autohaus", "neighborhoods": [], "longitude": 8.43545, "state": "BW", "stars": 1.0, "latitude": 48.9966, "attributes": {"Price Range": 4}, "type": "business"}
{"business_id": "zM5wAxEDbOMxDHllgDkTyg", "full_address": "Windeckstr. 9\n76135 Karlsruhe", "hours": {"Monday": {"close": "19:00", "open": "07:30"}, "Tuesday": {"close": "19:00", "open": "07:30"}, "Friday": {"close": "19:00", "open": "07:30"}, "Wednesday": {"close": "19:00", "open": "07:30"}, "Thursday": {"close": "19:00", "open": "07:30"}, "Saturday": {"close": "16:00", "open": "08:00"}}, "open": true, "categories": ["Auto Repair", "Automotive", "Auto Parts & Supplies"], "city": "Karlsruhe", "review_count": 9, "name": "A.t.u", "neighborhoods": [], "longitude": 8.3747485, "state": "BW", "stars": 2.5, "latitude": 48.9894598, "attributes": {"Price Range": 3}, "type": "business"}
{"business_id": "zpMiSnjnr8tiLdQkIExWFw", "full_address": "Hardeckstr. 8\n76185 Karlsruhe", "hours": {}, "open": true, "categories": ["Auto Repair", "Automotive", "Car Wash"], "city": "Karlsruhe", "review_count": 3, "name": "Flott Autowaschbahn Marianne Molter", "neighborhoods": [], "longitude": 8.3618, "state": "BW", "stars": 5.0, "latitude": 48.99888, "attributes": {"Price Range": 2}, "type": "business"}
{"business_id": "YONT5EFwfR0i2St1lU7SpA", "full_address": "Wattstr. 6-8\n76185 Karlsruhe", "hours": {}, "open": true, "categories": ["Auto Repair", "Automotive", "Car Dealers"], "city": "Karlsruhe", "review_count": 3, "name": "Autohaus Streit", "neighborhoods": [], "longitude": 8.3600327, "state": "BW", "stars": 3.0, "latitude": 49.0327945, "attributes": {"Parking": {"garage": false, "validated": false, "street": false, "lot": false, "valet": false}, "Wheelchair Accessible": true, "Price Range": 3}, "type": "business"}
{"business_id": "FZpJfZGc1pGaGXabeJuVHw", "full_address": "Pforzheimer Str. 78-104\n76275 Ettlingen", "hours": {"Monday": {"close": "18:30", "open": "08:30"}, "Tuesday": {"close": "18:30", "open": "08:30"}, "Friday": {"close": "18:30", "open": "08:30"}, "Wednesday": {"close": "18:30", "open": "08:30"}, "Thursday": {"close": "18:30", "open": "08:30"}, "Saturday": {"close": "13:00", "open": "09:00"}}, "open": true, "categories": ["Auto Repair", "Automotive", "Car Dealers"], "city": "Ettlingen", "review_count": 3, "name": "Auto-Krasser", "neighborhoods": [], "longitude": 8.42609, "state": "BW", "stars": 2.5, "latitude": 48.9348, "attributes": {"Wheelchair Accessible": true, "Parking": {"garage": false, "validated": false, "street": false, "lot": false, "valet": false}}, "type": "business"}
{"business_id": "PxfqJwIO-QCB3y96Dw54Vg", "full_address": "Ottostr. 5\n76227 Karlsruhe", "hours": {}, "open": true, "categories": ["Auto Repair", "Automotive", "Car Dealers"], "city": "Karlsruhe", "review_count": 4, "name": "Autohaus J\u00fcttner", "neighborhoods": [], "longitude": 8.44667, "state": "BW", "stars": 2.5, "latitude": 48.99606, "attributes": {"Parking": {"garage": false, "validated": false, "street": false, "lot": false, "valet": false}, "Accepts Credit Cards": false, "Wheelchair Accessible": true, "Price Range": 3}, "type": "business"}
{"business_id": "VPGbUwQa3enU1ic7ntND7A", "full_address": "Gerwigstr. 83\n76131 Karlsruhe", "hours": {}, "open": true, "categories": ["Auto Repair", "Automotive", "Car Dealers"], "city": "Karlsruhe", "review_count": 5, "name": "Audi Zentrum Karlsruhe", "neighborhoods": [], "longitude": 8.44226, "state": "BW", "stars": 2.5, "latitude": 49.0062, "attributes": {"Price Range": 4}, "type": "business"}
{"business_id": "HIlcj33VY5Aa6eOuyu04Og", "full_address": "Dieselstr. 1\n76448 Durmersheim", "hours": {}, "open": true, "categories": ["Auto Repair", "Automotive"], "city": "Durmersheim", "review_count": 3, "name": "Autoservice Maier", "neighborhoods": [], "longitude": 8.262, "state": "BW", "stars": 3.5, "latitude": 48.9414, "attributes": {"Price Range": 2}, "type": "business"}
{"business_id": "NEYJeDUNiWVHJY2jQ8AbUA", "full_address": "Ottostr. 22\n76227 Karlsruhe", "hours": {}, "open": true, "categories": ["Auto Repair", "Automotive", "Car Rental", "Car Dealers", "Hotels & Travel"], "city": "Karlsruhe", "review_count": 4, "name": "Ungeheuer Automobile Bmw Vertragsh\u00e4ndler Autohaus", "neighborhoods": [], "longitude": 8.43545, "state": "BW", "stars": 1.0, "latitude": 48.9966, "attributes": {"Price Range": 4}, "type": "business"}
{"business_id": "zM5wAxEDbOMxDHllgDkTyg", "full_address": "Windeckstr. 9\n76135 Karlsruhe", "hours": {"Monday": {"close": "19:00", "open": "07:30"}, "Tuesday": {"close": "19:00", "open": "07:30"}, "Friday": {"close": "19:00", "open": "07:30"}, "Wednesday": {"close": "19:00", "open": "07:30"}, "Thursday": {"close": "19:00", "open": "07:30"}, "Saturday": {"close": "16:00", "open": "08:00"}}, "open": true, "categories": ["Auto Repair", "Automotive", "Auto Parts & Supplies"], "city": "Karlsruhe", "review_count": 9, "name": "A.t.u", "neighborhoods": [], "longitude": 8.3747485, "state": "BW", "stars": 2.5, "latitude": 48.9894598, "attributes": {"Price Range": 3}, "type": "business"}
{"business_id": "zpMiSnjnr8tiLdQkIExWFw", "full_address": "Hardeckstr. 8\n76185 Karlsruhe", "hours": {}, "open": true, "categories": ["Auto Repair", "Automotive", "Car Wash"], "city": "Karlsruhe", "review_count": 3, "name": "Flott Autowaschbahn Marianne Molter", "neighborhoods": [], "longitude": 8.3618, "state": "BW", "stars": 5.0, "latitude": 48.99888, "attributes": {"Price Range": 2}, "type": "business"}
{"business_id": "YONT5EFwfR0i2St1lU7SpA", "full_address": "Wattstr. 6-8\n76185 Karlsruhe", "hours": {}, "open": true, "categories": ["Auto Repair", "Automotive", "Car Dealers"], "city": "Karlsruhe", "review_count": 3, "name": "Autohaus Streit", "neighborhoods": [], "longitude": 8.3600327, "state": "BW", "stars": 3.0, "latitude": 49.0327945, "attributes": {"Parking": {"garage": false, "validated": false, "street": false, "lot": false, "valet": false}, "Wheelchair Accessible": true, "Price Range": 3}, "type": "business"}
{"business_id": "FZpJfZGc1pGaGXabeJuVHw", "full_address": "Pforzheimer Str. 78-104\n76275 Ettlingen", "hours": {"Monday": {"close": "18:30", "open": "08:30"}, "Tuesday": {"close": "18:30", "open": "08:30"}, "Friday": {"close": "18:30", "open": "08:30"}, "Wednesday": {"close": "18:30", "open": "08:30"}, "Thursday": {"close": "18:30", "open": "08:30"}, "Saturday": {"close": "13:00", "open": "09:00"}}, "open": true, "categories": ["Auto Repair", "Automotive", "Car Dealers"], "city": "Ettlingen", "review_count": 3, "name": "Auto-Krasser", "neighborhoods": [], "longitude": 8.42609, "state": "BW", "stars": 2.5, "latitude": 48.9348, "attributes": {"Wheelchair Accessible": true, "Parking": {"garage": false, "validated": false, "street": false, "lot": false, "valet": false}}, "type": "business"}
{"business_id": "PxfqJwIO-QCB3y96Dw54Vg", "full_address": "Ottostr. 5\n76227 Karlsruhe", "hours": {}, "open": true, "categories": ["Auto Repair", "Automotive", "Car Dealers"], "city": "Karlsruhe", "review_count": 4, "name": "Autohaus J\u00fcttner", "neighborhoods": [], "longitude": 8.44667, "state": "BW", "stars": 2.5, "latitude": 48.99606, "attributes": {"Parking": {"garage": false, "validated": false, "street": false, "lot": false, "valet": false}, "Accepts Credit Cards": false, "Wheelchair Accessible": true, "Price Range": 3}, "type": "business"}
{"business_id": "VPGbUwQa3enU1ic7ntND7A", "full_address": "Gerwigstr. 83\n76131 Karlsruhe", "hours": {}, "open": true, "categories": ["Auto Repair", "Automotive", "Car Dealers"], "city": "Karlsruhe", "review_count": 5, "name": "Audi Zentrum Karlsruhe", "neighborhoods": [], "longitude": 8.44226, "state": "BW", "stars": 2.5, "latitude": 49.0062, "attributes": {"Price Range": 4}, "type": "business"}
{"business_id": "HIlcj33VY5Aa6eOuyu04Og", "full_address": "Dieselstr. 1\n76448 Durmersheim", "hours": {}, "open": true, "categories": ["Auto Repair", "Automotive"], "city": "Durmersheim", "review_count": 3, "name": "Autoservice Maier", "neighborhoods": [], "longitude": 8.262, "state": "BW", "stars": 3.5, "latitude": 48.9414, "attributes": {"Price Range": 2}, "type": "business"}
{"business_id": "NEYJeDUNiWVHJY2jQ8AbUA", "full_address": "Ottostr. 22\n76227 Karlsruhe", "hours": {}, "open": true, "categories": ["Auto Repair", "Automotive", "Car Rental", "Car Dealers", "Hotels & Travel"], "city": "Karlsruhe", "review_count": 4, "name": "Ungeheuer Automobile Bmw Vertragsh\u00e4ndler Autohaus", "neighborhoods": [], "longitude": 8.43545, "state": "BW", "stars": 1.0, "latitude": 48.9966, "attributes": {"Price Range": 4}, "type": "business"}
{"business_id": "zM5wAxEDbOMxDHllgDkTyg", "full_address": "Windeckstr. 9\n76135 Karlsruhe", "hours": {"Monday": {"close": "19:00", "open": "07:30"}, "Tuesday": {"close": "19:00", "open": "07:30"}, "Friday": {"close": "19:00", "open": "07:30"}, "Wednesday": {"close": "19:00", "open": "07:30"}, "Thursday": {"close": "19:00", "open": "07:30"}, "Saturday": {"close": "16:00", "open": "08:00"}}, "open": true, "categories": ["Auto Repair", "Automotive", "Auto Parts & Supplies"], "city": "Karlsruhe", "review_count": 9, "name": "A.t.u", "neighborhoods": [], "longitude": 8.3747485, "state": "BW", "stars": 2.5, "latitude": 48.9894598, "attributes": {"Price Range": 3}, "type": "business"}
{"business_id": "zpMiSnjnr8tiLdQkIExWFw", "full_address": "Hardeckstr. 8\n76185 Karlsruhe", "hours": {}, "open": true, "categories": ["Auto Repair", "Automotive", "Car Wash"], "city": "Karlsruhe", "review_count": 3, "name": "Flott Autowaschbahn Marianne Molter", "neighborhoods": [], "longitude": 8.3618, "state": "BW", "stars": 5.0, "latitude": 48.99888, "attributes": {"Price Range": 2}, "type": "business"}
{"business_id": "YONT5EFwfR0i2St1lU7SpA", "full_address": "Wattstr. 6-8\n76185 Karlsruhe", "hours": {}, "open": true, "categories": ["Auto Repair", "Automotive", "Car Dealers"], "city": "Karlsruhe", "review_count": 3, "name": "Autohaus Streit", "neighborhoods": [], "longitude": 8.3600327, "state": "BW", "stars": 3.0, "latitude": 49.0327945, "attributes": {"Parking": {"garage": false, "validated": false, "street": false, "lot": false, "valet": false}, "Wheelchair Accessible": true, "Price Range": 3}, "type": "business"}
{"business_id": "FZpJfZGc1pGaGXabeJuVHw", "full_address": "Pforzheimer Str. 78-104\n76275 Ettlingen", "hours": {"Monday": {"close": "18:30", "open": "08:30"}, "Tuesday": {"close": "18:30", "open": "08:30"}, "Friday": {"close": "18:30", "open": "08:30"}, "Wednesday": {"close": "18:30", "open": "08:30"}, "Thursday": {"close": "18:30", "open": "08:30"}, "Saturday": {"close": "13:00", "open": "09:00"}}, "open": true, "categories": ["Auto Repair", "Automotive", "Car Dealers"], "city": "Ettlingen", "review_count": 3, "name": "Auto-Krasser", "neighborhoods": [], "longitude": 8.42609, "state": "BW", "stars": 2.5, "latitude": 48.9348, "attributes": {"Wheelchair Accessible": true, "Parking": {"garage": false, "validated": false, "street": false, "lot": false, "valet": false}}, "type": "business"}
{"business_id": "PxfqJwIO-QCB3y96Dw54Vg", "full_address": "Ottostr. 5\n76227 Karlsruhe", "hours": {}, "open": true, "categories": ["Auto Repair", "Automotive", "Car Dealers"], "city": "Karlsruhe", "review_count": 4, "name": "Autohaus J\u00fcttner", "neighborhoods": [], "longitude": 8.44667, "state": "BW", "stars": 2.5, "latitude": 48.99606, "attributes": {"Parking": {"garage": false, "validated": false, "street": false, "lot": false, "valet": false}, "Accepts Credit Cards": false, "Wheelchair Accessible": true, "Price Range": 3}, "type": "business"}
{"business_id": "VPGbUwQa3enU1ic7ntND7A", "full_address": "Gerwigstr. 83\n76131 Karlsruhe", "hours": {}, "open": true, "categories": ["Auto Repair", "Automotive", "Car Dealers"], "city": "Karlsruhe", "review_count": 5, "name": "Audi Zentrum Karlsruhe", "neighborhoods": [], "longitude": 8.44226, "state": "BW", "stars": 2.5, "latitude": 49.0062, "attributes": {"Price Range": 4}, "type": "business"}
{"business_id": "HIlcj33VY5Aa6eOuyu04Og", "full_address": "Dieselstr. 1\n76448 Durmersheim", "hours": {}, "open": true, "categories": ["Auto Repair", "Automotive"], "city": "Durmersheim", "review_count": 3, "name": "Autoservice Maier", "neighborhoods": [], "longitude": 8.262, "state": "BW", "stars": 3.5, "latitude": 48.9414, "attributes": {"Price Range": 2}, "type": "business"}
{"business_id": "NEYJeDUNiWVHJY2jQ8AbUA", "full_address": "Ottostr. 22\n76227 Karlsruhe", "hours": {}, "open": true, "categories": ["Auto Repair", "Automotive", "Car Rental", "Car Dealers", "Hotels & Travel"], "city": "Karlsruhe", "review_count": 4, "name": "Ungeheuer Automobile Bmw Vertragsh\u00e4ndler Autohaus", "neighborhoods": [], "longitude": 8.43545, "state": "BW", "stars": 1.0, "latitude": 48.9966, "attributes": {"Price Range": 4}, "type": "business"}
{"business_id": "zM5wAxEDbOMxDHllgDkTyg", "full_address": "Windeckstr. 9\n76135 Karlsruhe", "hours": {"Monday": {"close": "19:00", "open": "07:30"}, "Tuesday": {"close": "19:00", "open": "07:30"}, "Friday": {"close": "19:00", "open": "07:30"}, "Wednesday": {"close": "19:00", "open": "07:30"}, "Thursday": {"close": "19:00", "open": "07:30"}, "Saturday": {"close": "16:00", "open": "08:00"}}, "open": true, "categories": ["Auto Repair", "Automotive", "Auto Parts & Supplies"], "city": "Karlsruhe", "review_count": 9, "name": "A.t.u", "neighborhoods": [], "longitude": 8.3747485, "state": "BW", "stars": 2.5, "latitude": 48.9894598, "attributes": {"Price Range": 3}, "type": "business"}
{"business_id": "zpMiSnjnr8tiLdQkIExWFw", "full_address": "Hardeckstr. 8\n76185 Karlsruhe", "hours": {}, "open": true, "categories": ["Auto Repair", "Automotive", "Car Wash"], "city": "Karlsruhe", "review_count": 3, "name": "Flott Autowaschbahn Marianne Molter", "neighborhoods": [], "longitude": 8.3618, "state": "BW", "stars": 5.0, "latitude": 48.99888, "attributes": {"Price Range": 2}, "type": "business"}
{"business_id": "YONT5EFwfR0i2St1lU7SpA", "full_address": "Wattstr. 6-8\n76185 Karlsruhe", "hours": {}, "open": true, "categories": ["Auto Repair", "Automotive", "Car Dealers"], "city": "Karlsruhe", "review_count": 3, "name": "Autohaus Streit", "neighborhoods": [], "longitude": 8.3600327, "state": "BW", "stars": 3.0, "latitude": 49.0327945, "attributes": {"Parking": {"garage": false, "validated": false, "street": false, "lot": false, "valet": false}, "Wheelchair Accessible": true, "Price Range": 3}, "type": "business"}
{"business_id": "FZpJfZGc1pGaGXabeJuVHw", "full_address": "Pforzheimer Str. 78-104\n76275 Ettlingen", "hours": {"Monday": {"close": "18:30", "open": "08:30"}, "Tuesday": {"close": "18:30", "open": "08:30"}, "Friday": {"close": "18:30", "open": "08:30"}, "Wednesday": {"close": "18:30", "open": "08:30"}, "Thursday": {"close": "18:30", "open": "08:30"}, "Saturday": {"close": "13:00", "open": "09:00"}}, "open": true, "categories": ["Auto Repair", "Automotive", "Car Dealers"], "city": "Ettlingen", "review_count": 3, "name": "Auto-Krasser", "neighborhoods": [], "longitude": 8.42609, "state": "BW", "stars": 2.5, "latitude": 48.9348, "attributes": {"Wheelchair Accessible": true, "Parking": {"garage": false, "validated": false, "street": false, "lot": false, "valet": false}}, "type": "business"}
{"business_id": "PxfqJwIO-QCB3y96Dw54Vg", "full_address": "Ottostr. 5\n76227 Karlsruhe", "hours": {}, "open": true, "categories": ["Auto Repair", "Automotive", "Car Dealers"], "city": "Karlsruhe", "review_count": 4, "name": "Autohaus J\u00fcttner", "neighborhoods": [], "longitude": 8.44667, "state": "BW", "stars": 2.5, "latitude": 48.99606, "attributes": {"Parking": {"garage": false, "validated": false, "street": false, "lot": false, "valet": false}, "Accepts Credit Cards": false, "Wheelchair Accessible": true, "Price Range": 3}, "type": "business"}
{"business_id": "VPGbUwQa3enU1ic7ntND7A", "full_address": "Gerwigstr. 83\n76131 Karlsruhe", "hours": {}, "open": true, "categories": ["Auto Repair", "Automotive", "Car Dealers"], "city": "Karlsruhe", "review_count": 5, "name": "Audi Zentrum Karlsruhe", "neighborhoods": [], "longitude": 8.44226, "state": "BW", "stars": 2.5, "latitude": 49.0062, "attributes": {"Price Range": 4}, "type": "business"}
{"business_id": "HIlcj33VY5Aa6eOuyu04Og", "full_address": "Dieselstr. 1\n76448 Durmersheim", "hours": {}, "open": true, "categories": ["Auto Repair", "Automotive"], "city": "Durmersheim", "review_count": 3, "name": "Autoservice Maier", "neighborhoods": [], "longitude": 8.262, "state": "BW", "stars": 3.5, "latitude": 48.9414, "attributes": {"Price Range": 2}, "type": "business"}
{"business_id": "NEYJeDUNiWVHJY2jQ8AbUA", "full_address": "Ottostr. 22\n76227 Karlsruhe", "hours": {}, "open": true, "categories": ["Auto Repair", "Automotive", "Car Rental", "Car Dealers", "Hotels & Travel"], "city": "Karlsruhe", "review_count": 4, "name": "Ungeheuer Automobile Bmw Vertragsh\u00e4ndler Autohaus", "neighborhoods": [], "longitude": 8.43545, "state": "BW", "stars": 1.0, "latitude": 48.9966, "attributes": {"Price Range": 4}, "type": "business"}
{"business_id": "zM5wAxEDbOMxDHllgDkTyg", "full_address": "Windeckstr. 9\n76135 Karlsruhe", "hours": {"Monday": {"close": "19:00", "open": "07:30"}, "Tuesday": {"close": "19:00", "open": "07:30"}, "Friday": {"close": "19:00", "open": "07:30"}, "Wednesday": {"close": "19:00", "open": "07:30"}, "Thursday": {"close": "19:00", "open": "07:30"}, "Saturday": {"close": "16:00", "open": "08:00"}}, "open": true, "categories": ["Auto Repair", "Automotive", "Auto Parts & Supplies"], "city": "Karlsruhe", "review_count": 9, "name": "A.t.u", "neighborhoods": [], "longitude": 8.3747485, "state": "BW", "stars": 2.5, "latitude": 48.9894598, "attributes": {"Price Range": 3}, "type": "business"}
{"business_id": "zpMiSnjnr8tiLdQkIExWFw", "full_address": "Hardeckstr. 8\n76185 Karlsruhe", "hours": {}, "open": true, "categories": ["Auto Repair", "Automotive", "Car Wash"], "city": "Karlsruhe", "review_count": 3, "name": "Flott Autowaschbahn Marianne Molter", "neighborhoods": [], "longitude": 8.3618, "state": "BW", "stars": 5.0, "latitude": 48.99888, "attributes": {"Price Range": 2}, "type": "business"}
{"business_id": "YONT5EFwfR0i2St1lU7SpA", "full_address": "Wattstr. 6-8\n76185 Karlsruhe", "hours": {}, "open": true, "categories": ["Auto Repair", "Automotive", "Car Dealers"], "city": "Karlsruhe", "review_count": 3, "name": "Autohaus Streit", "neighborhoods": [], "longitude": 8.3600327, "state": "BW", "stars": 3.0, "latitude": 49.0327945, "attributes": {"Parking": {"garage": false, "validated": false, "street": false, "lot": false, "valet": false}, "Wheelchair Accessible": true, "Price Range": 3}, "type": "business"}
{"business_id": "FZpJfZGc1pGaGXabeJuVHw", "full_address": "Pforzheimer Str. 78-104\n76275 Ettlingen", "hours": {"Monday": {"close": "18:30", "open": "08:30"}, "Tuesday": {"close": "18:30", "open": "08:30"}, "Friday": {"close": "18:30", "open": "08:30"}, "Wednesday": {"close": "18:30", "open": "08:30"}, "Thursday": {"close": "18:30", "open": "08:30"}, "Saturday": {"close": "13:00", "open": "09:00"}}, "open": true, "categories": ["Auto Repair", "Automotive", "Car Dealers"], "city": "Ettlingen", "review_count": 3, "name": "Auto-Krasser", "neighborhoods": [], "longitude": 8.42609, "state": "BW", "stars": 2.5, "latitude": 48.9348, "attributes": {"Wheelchair Accessible": true, "Parking": {"garage": false, "validated": false, "street": false, "lot": false, "valet": false}}, "type": "business"}
{"business_id": "PxfqJwIO-QCB3y96Dw54Vg", "full_address": "Ottostr. 5\n76227 Karlsruhe", "hours": {}, "open": true, "categories": ["Auto Repair", "Automotive", "Car Dealers"], "city": "Karlsruhe", "review_count": 4, "name": "Autohaus J\u00fcttner", "neighborhoods": [], "longitude": 8.44667, "state": "BW", "stars": 2.5, "latitude": 48.99606, "attributes": {"Parking": {"garage": false, "validated": false, "street": false, "lot": false, "valet": false}, "Accepts Credit Cards": false, "Wheelchair Accessible": true, "Price Range": 3}, "type": "business"}
{"business_id": "VPGbUwQa3enU1ic7ntND7A", "full_address": "Gerwigstr. 83\n76131 Karlsruhe", "hours": {}, "open": true, "categories": ["Auto Repair", "Automotive", "Car Dealers"], "city": "Karlsruhe", "review_count": 5, "name": "Audi Zentrum Karlsruhe", "neighborhoods": [], "longitude": 8.44226, "state": "BW", "stars": 2.5, "latitude": 49.0062, "attributes": {"Price Range": 4}, "type": "business"}
{"business_id": "HIlcj33VY5Aa6eOuyu04Og", "full_address": "Dieselstr. 1\n76448 Durmersheim", "hours": {}, "open": true, "categories": ["Auto Repair", "Automotive"], "city": "Durmersheim", "review_count": 3, "name": "Autoservice Maier", "neighborhoods": [], "longitude": 8.262, "state": "BW", "stars": 3.5, "latitude": 48.9414, "attributes": {"Price Range": 2}, "type": "business"}
{"business_id": "NEYJeDUNiWVHJY2jQ8AbUA", "full_address": "Ottostr. 22\n76227 Karlsruhe", "hours": {}, "open": true, "categories": ["Auto Repair", "Automotive", "Car Rental", "Car Dealers", "Hotels & Travel"], "city": "Karlsruhe", "review_count": 4, "name": "Ungeheuer Automobile Bmw Vertragsh\u00e4ndler Autohaus", "neighborhoods": [], "longitude": 8.43545, "state": "BW", "stars": 1.0, "latitude": 48.9966, "attributes": {"Price Range": 4}, "type": "business"}
{"business_id": "zM5wAxEDbOMxDHllgDkTyg", "full_address": "Windeckstr. 9\n76135 Karlsruhe", "hours": {"Monday": {"close": "19:00", "open": "07:30"}, "Tuesday": {"close": "19:00", "open": "07:30"}, "Friday": {"close": "19:00", "open": "07:30"}, "Wednesday": {"close": "19:00", "open": "07:30"}, "Thursday": {"close": "19:00", "open": "07:30"}, "Saturday": {"close": "16:00", "open": "08:00"}}, "open": true, "categories": ["Auto Repair", "Automotive", "Auto Parts & Supplies"], "city": "Karlsruhe", "review_count": 9, "name": "A.t.u", "neighborhoods": [], "longitude": 8.3747485, "state": "BW", "stars": 2.5, "latitude": 48.9894598, "attributes": {"Price Range": 3}, "type": "business"}
