{"business_id": "JACNqt4si0ciKrnKWfBKRw", "full_address": "Daimlerstr. 7\n76185 Karlsruhe", "hours": {}, "open": true, "categories": ["Active Life", "Kids Activities", "Event Planning & Services", "Party & Event Planning"], "city": "Karlsruhe", "review_count": 7, "name": "Kindorado", "neighborhoods": [], "longitude": 8.35607, "state": "BW", "stars": 3.0, "latitude": 49.0258, "attributes": {"Wheelchair Accessible": true, "Parking": {"garage": false, "validated": false, "street": false, "lot": false, "valet": false}}, "type": "business"}
{"business_id": "JACNqt4si0ciKrnKWfBKRw", "full_address": "Daimlerstr. 7\n76185 Karlsruhe", "hours": {}, "open": true, "categories": ["Active Life", "Kids Activities", "Event Planning & Services", "Party & Event Planning"], "city": "Karlsruhe", "review_count": 7, "name": "Kindorado", "neighborhoods": [], "longitude": 8.35607, "state": "BW", "stars": 3.0, "latitude": 49.0258, "attributes": {"Wheelchair Accessible": true, "Parking": {"garage": false, "validated": false, "street": false, "lot": false, "valet": false}}, "type": "business"}
{"business_id": "JACNqt4si0ciKrnKWfBKRw", "full_address": "Daimlerstr. 7\n76185 Karlsruhe", "hours": {}, "open": true, "categories": ["Active Life", "Kids Activities", "Event Planning & Services", "Party & Event Planning"], "city": "Karlsruhe", "review_count": 7, "name": "Kindorado", "neighborhoods": [], "longitude": 8.35607, "state": "BW", "stars": 3.0, "latitude": 49.0258, "attributes": {"Wheelchair Accessible": true, "Parking": {"garage": false, "validated": false, "street": false, "lot": false, "valet": false}}, "type": "business"}
{"business_id": "JACNqt4si0ciKrnKWfBKRw", "full_address": "Daimlerstr. 7\n76185 Karlsruhe", "hours": {}, "open": true, "categories": ["Active Life", "Kids Activities", "Event Planning & Services", "Party & Event Planning"], "city": "Karlsruhe", "review_count": 7, "name": "Kindorado", "neighborhoods": [], "longitude": 8.35607, "state": "BW", "stars": 3.0, "latitude": 49.0258, "attributes": {"Wheelchair Accessible": true, "Parking": {"garage": false, "validated": false, "street": false, "lot": false, "valet": false}}, "type": "business"}
{"business_id": "JACNqt4si0ciKrnKWfBKRw", "full_address": "Daimlerstr. 7\n76185 Karlsruhe", "hours": {}, "open": true, "categories": ["Active Life", "Kids Activities", "Event Planning & Services", "Party & Event Planning"], "city": "Karlsruhe", "review_count": 7, "name": "Kindorado", "neighborhoods": [], "longitude": 8.35607, "state": "BW", "stars": 3.0, "latitude": 49.0258, "attributes": {"Wheelchair Accessible": true, "Parking": {"garage": false, "validated": false, "street": false, "lot": false, "valet": false}}, "type": "business"}
{"business_id": "JACNqt4si0ciKrnKWfBKRw", "full_address": "Daimlerstr. 7\n76185 Karlsruhe", "hours": {}, "open": true, "categories": ["Active Life", "Kids Activities", "Event Planning & Services", "Party & Event Planning"], "city": "Karlsruhe", "review_count": 7, "name": "Kindorado", "neighborhoods": [], "longitude": 8.35607, "state": "BW", "stars": 3.0, "latitude": 49.0258, "attributes": {"Wheelchair Accessible": true, "Parking": {"garage": false, "validated": false, "street": false, "lot": false, "valet": false}}, "type": "business"}
