{"business_id": "Kl4KJn41-jTkO5g_o9J2bQ", "full_address": "Herrenstra\u00dfe\n76133 Karlsruhe", "hours": {}, "open": true, "categories": ["Local Services", "Shoe Repair"], "city": "Karlsruhe", "review_count": 3, "name": "schuhreparatur", "neighborhoods": [], "longitude": 8.3990264, "state": "BW", "stars": 3.5, "latitude": 49.0098249, "attributes": {}, "type": "business"}
{"business_id": "Kl4KJn41-jTkO5g_o9J2bQ", "full_address": "Herrenstra\u00dfe\n76133 Karlsruhe", "hours": {}, "open": true, "categories": ["Local Services", "Shoe Repair"], "city": "Karlsruhe", "review_count": 3, "name": "schuhreparatur", "neighborhoods": [], "longitude": 8.3990264, "state": "BW", "stars": 3.5, "latitude": 49.0098249, "attributes": {}, "type": "business"}
{"business_id": "Kl4KJn41-jTkO5g_o9J2bQ", "full_address": "Herrenstra\u00dfe\n76133 Karlsruhe", "hours": {}, "open": true, "categories": ["Local Services", "Shoe Repair"], "city": "Karlsruhe", "review_count": 3, "name": "schuhreparatur", "neighborhoods": [], "longitude": 8.3990264, "state": "BW", "stars": 3.5, "latitude": 49.0098249, "attributes": {}, "type": "business"}
{"business_id": "Kl4KJn41-jTkO5g_o9J2bQ", "full_address": "Herrenstra\u00dfe\n76133 Karlsruhe", "hours": {}, "open": true, "categories": ["Local Services", "Shoe Repair"], "city": "Karlsruhe", "review_count": 3, "name": "schuhreparatur", "neighborhoods": [], "longitude": 8.3990264, "state": "BW", "stars": 3.5, "latitude": 49.0098249, "attributes": {}, "type": "business"}
{"business_id": "Kl4KJn41-jTkO5g_o9J2bQ", "full_address": "Herrenstra\u00dfe\n76133 Karlsruhe", "hours": {}, "open": true, "categories": ["Local Services", "Shoe Repair"], "city": "Karlsruhe", "review_count": 3, "name": "schuhreparatur", "neighborhoods": [], "longitude": 8.3990264, "state": "BW", "stars": 3.5, "latitude": 49.0098249, "attributes": {}, "type": "business"}
{"business_id": "Kl4KJn41-jTkO5g_o9J2bQ", "full_address": "Herrenstra\u00dfe\n76133 Karlsruhe", "hours": {}, "open": true, "categories": ["Local Services", "Shoe Repair"], "city": "Karlsruhe", "review_count": 3, "name": "schuhreparatur", "neighborhoods": [], "longitude": 8.3990264, "state": "BW", "stars": 3.5, "latitude": 49.0098249, "attributes": {}, "type": "business"}
