{"business_id": "oZpN9T996T1M3eDiATfOCg", "full_address": "Quergasse 2\n76275 Ettlingen", "hours": {}, "open": true, "categories": ["Modern European", "International", "Swiss Food", "Restaurants"], "city": "Ettlingen", "review_count": 10, "name": "z Fondue", "neighborhoods": [], "longitude": 8.40788, "state": "BW", "stars": 4.5, "latitude": 48.9421, "attributes": {"Take-out": false, "Delivery": false, "Dogs Allowed": false, "Outdoor Seating": true, "Parking": {"garage": false, "street": false, "validated": false, "lot": false, "valet": false}, "Smoking": "no", "Accepts Credit Cards": true}, "type": "business"}
{"business_id": "oZpN9T996T1M3eDiATfOCg", "full_address": "Quergasse 2\n76275 Ettlingen", "hours": {}, "open": true, "categories": ["Modern European", "International", "Swiss Food", "Restaurants"], "city": "Ettlingen", "review_count": 10, "name": "z Fondue", "neighborhoods": [], "longitude": 8.40788, "state": "BW", "stars": 4.5, "latitude": 48.9421, "attributes": {"Take-out": false, "Delivery": false, "Dogs Allowed": false, "Outdoor Seating": true, "Parking": {"garage": false, "street": false, "validated": false, "lot": false, "valet": false}, "Smoking": "no", "Accepts Credit Cards": true}, "type": "business"}
{"business_id": "oZpN9T996T1M3eDiATfOCg", "full_address": "Quergasse 2\n76275 Ettlingen", "hours": {}, "open": true, "categories": ["Modern European", "International", "Swiss Food", "Restaurants"], "city": "Ettlingen", "review_count": 10, "name": "z Fondue", "neighborhoods": [], "longitude": 8.40788, "state": "BW", "stars": 4.5, "latitude": 48.9421, "attributes": {"Take-out": false, "Delivery": false, "Dogs Allowed": false, "Outdoor Seating": true, "Parking": {"garage": false, "street": false, "validated": false, "lot": false, "valet": false}, "Smoking": "no", "Accepts Credit Cards": true}, "type": "business"}
{"business_id": "oZpN9T996T1M3eDiATfOCg", "full_address": "Quergasse 2\n76275 Ettlingen", "hours": {}, "open": true, "categories": ["Modern European", "International", "Swiss Food", "Restaurants"], "city": "Ettlingen", "review_count": 10, "name": "z Fondue", "neighborhoods": [], "longitude": 8.40788, "state": "BW", "stars": 4.5, "latitude": 48.9421, "attributes": {"Take-out": false, "Delivery": false, "Dogs Allowed": false, "Outdoor Seating": true, "Parking": {"garage": false, "street": false, "validated": false, "lot": false, "valet": false}, "Smoking": "no", "Accepts Credit Cards": true}, "type": "business"}
{"business_id": "oZpN9T996T1M3eDiATfOCg", "full_address": "Quergasse 2\n76275 Ettlingen", "hours": {}, "open": true, "categories": ["Modern European", "International", "Swiss Food", "Restaurants"], "city": "Ettlingen", "review_count": 10, "name": "z Fondue", "neighborhoods": [], "longitude": 8.40788, "state": "BW", "stars": 4.5, "latitude": 48.9421, "attributes": {"Take-out": false, "Delivery": false, "Dogs Allowed": false, "Outdoor Seating": true, "Parking": {"garage": false, "street": false, "validated": false, "lot": false, "valet": false}, "Smoking": "no", "Accepts Credit Cards": true}, "type": "business"}
{"business_id": "oZpN9T996T1M3eDiATfOCg", "full_address": "Quergasse 2\n76275 Ettlingen", "hours": {}, "open": true, "categories": ["Modern European", "International", "Swiss Food", "Restaurants"], "city": "Ettlingen", "review_count": 10, "name": "z Fondue", "neighborhoods": [], "longitude": 8.40788, "state": "BW", "stars": 4.5, "latitude": 48.9421, "attributes": {"Take-out": false, "Delivery": false, "Dogs Allowed": false, "Outdoor Seating": true, "Parking": {"garage": false, "street": false, "validated": false, "lot": false, "valet": false}, "Smoking": "no", "Accepts Credit Cards": true}, "type": "business"}
