{"business_id": "rCYEy0Cg109fhpnXn1vDBw", "full_address": "Renckstrasse 2\n76137 Karlsruhe", "hours": {}, "open": true, "categories": ["Middle Schools & High Schools", "Elementary Schools", "Education"], "city": "Karlsruhe", "review_count": 3, "name": "Goethe Gymnasium", "neighborhoods": [], "longitude": 8.3964755, "state": "BW", "stars": 4.5, "latitude": 49.0040892, "attributes": {}, "type": "business"}
{"business_id": "rCYEy0Cg109fhpnXn1vDBw", "full_address": "Renckstrasse 2\n76137 Karlsruhe", "hours": {}, "open": true, "categories": ["Middle Schools & High Schools", "Elementary Schools", "Education"], "city": "Karlsruhe", "review_count": 3, "name": "Goethe Gymnasium", "neighborhoods": [], "longitude": 8.3964755, "state": "BW", "stars": 4.5, "latitude": 49.0040892, "attributes": {}, "type": "business"}
{"business_id": "rCYEy0Cg109fhpnXn1vDBw", "full_address": "Renckstrasse 2\n76137 Karlsruhe", "hours": {}, "open": true, "categories": ["Middle Schools & High Schools", "Elementary Schools", "Education"], "city": "Karlsruhe", "review_count": 3, "name": "Goethe Gymnasium", "neighborhoods": [], "longitude": 8.3964755, "state": "BW", "stars": 4.5, "latitude": 49.0040892, "attributes": {}, "type": "business"}
{"business_id": "rCYEy0Cg109fhpnXn1vDBw", "full_address": "Renckstrasse 2\n76137 Karlsruhe", "hours": {}, "open": true, "categories": ["Middle Schools & High Schools", "Elementary Schools", "Education"], "city": "Karlsruhe", "review_count": 3, "name": "Goethe Gymnasium", "neighborhoods": [], "longitude": 8.3964755, "state": "BW", "stars": 4.5, "latitude": 49.0040892, "attributes": {}, "type": "business"}
{"business_id": "rCYEy0Cg109fhpnXn1vDBw", "full_address": "Renckstrasse 2\n76137 Karlsruhe", "hours": {}, "open": true, "categories": ["Middle Schools & High Schools", "Elementary Schools", "Education"], "city": "Karlsruhe", "review_count": 3, "name": "Goethe Gymnasium", "neighborhoods": [], "longitude": 8.3964755, "state": "BW", "stars": 4.5, "latitude": 49.0040892, "attributes": {}, "type": "business"}
{"business_id": "rCYEy0Cg109fhpnXn1vDBw", "full_address": "Renckstrasse 2\n76137 Karlsruhe", "hours": {}, "open": true, "categories": ["Middle Schools & High Schools", "Elementary Schools", "Education"], "city": "Karlsruhe", "review_count": 3, "name": "Goethe Gymnasium", "neighborhoods": [], "longitude": 8.3964755, "state": "BW", "stars": 4.5, "latitude": 49.0040892, "attributes": {}, "type": "business"}
