{"business_id": "IdkXYNl84sM8g84RL-euQA", "full_address": "Kaiserallee 139\n76185 Karlsruhe", "hours": {}, "open": true, "categories": ["Veterinarians", "Pets"], "city": "Karlsruhe", "review_count": 3, "name": "Dr. Eberhard G\u00f6tze", "neighborhoods": [], "longitude": 8.36654, "state": "BW", "stars": 3.5, "latitude": 49.0112, "attributes": {"Price Range": 2}, "type": "business"}
{"business_id": "NSvI23_bSqDLEIyZ6CG7Fg", "full_address": "Amthausstr. 16\n76227 Karlsruhe", "hours": {"Monday": {"close": "18:00", "open": "15:00"}, "Tuesday": {"close": "19:00", "open": "17:00"}, "Friday": {"close": "18:00", "open": "15:00"}, "Wednesday": {"close": "11:30", "open": "10:00"}, "Thursday": {"close": "18:00", "open": "15:00"}, "Saturday": {"close": "11:30", "open": "10:00"}}, "open": true, "categories": ["Veterinarians", "Pets"], "city": "Karlsruhe", "review_count": 5, "name": "Kleintierpraxis H. Sp\u00f6rle", "neighborhoods": [], "longitude": 8.471, "state": "BW", "stars": 4.0, "latitude": 48.9979, "attributes": {"Price Range": 3}, "type": "business"}
{"business_id": "M_O7vlWxe0GTzqnAhjXuHQ", "full_address": "Reinmuthstr. 47\n76187 Karlsruhe", "hours": {}, "open": true, "categories": ["Veterinarians", "Pets"], "city": "Karlsruhe", "review_count": 8, "name": "Tierarzt Stefan Petri", "neighborhoods": [], "longitude": 8.3433, "state": "BW", "stars": 3.5, "latitude": 49.0319, "attributes": {"Parking": {"garage": false, "validated": false, "street": false, "lot": false, "valet": false}, "Accepts Credit Cards": true, "Price Range": 3}, "type": "business"}
{"business_id": "iI-JzHYx0SQrnW3jBE2ZPQ", "full_address": "M\u00fchlstr. 8\n76229 Karlsruhe", "hours": {}, "open": true, "categories": ["Veterinarians", "Pets"], "city": "Karlsruhe", "review_count": 4, "name": "Dr. med. vet. H. Wessbecher", "neighborhoods": [], "longitude": 8.49661, "state": "BW", "stars": 5.0, "latitude": 49.0064, "attributes": {"Parking": {"garage": false, "validated": false, "street": false, "lot": false, "valet": false}, "Accepts Credit Cards": false, "Wheelchair Accessible": false, "Price Range": 2}, "type": "business"}
{"business_id": "tCsJHnJ43IqCl-1iIccZYQ", "full_address": "Sternbergstr.  4\n76131 Karlsruhe", "hours": {}, "open": true, "categories": ["Veterinarians", "Pets"], "city": "Karlsruhe", "review_count": 4, "name": "Kleintierpraxis Sch\u00fctz", "neighborhoods": [], "longitude": 8.4254961, "state": "BW", "stars": 3.0, "latitude": 49.0105893, "attributes": {}, "type": "business"}
{"business_id": "nCiqlnIu7pNmnRkQFibKsg", "full_address": "Hoffstr. 6\n76133 Karlsruhe", "hours": {}, "open": true, "categories": ["Veterinarians", "Pets"], "city": "Karlsruhe", "review_count": 4, "name": "Tierarzt Marcus Erben", "neighborhoods": [], "longitude": 8.38676, "state": "BW", "stars": 3.5, "latitude": 49.0126, "attributes": {}, "type": "business"}
{"business_id": "IdkXYNl84sM8g84RL-euQA", "full_address": "Kaiserallee 139\n76185 Karlsruhe", "hours": {}, "open": true, "categories": ["Veterinarians", "Pets"], "city": "Karlsruhe", "review_count": 3, "name": "Dr. Eberhard G\u00f6tze", "neighborhoods": [], "longitude": 8.36654, "state": "BW", "stars": 3.5, "latitude": 49.0112, "attributes": {"Price Range": 2}, "type": "business"}
{"business_id": "NSvI23_bSqDLEIyZ6CG7Fg", "full_address": "Amthausstr. 16\n76227 Karlsruhe", "hours": {"Monday": {"close": "18:00", "open": "15:00"}, "Tuesday": {"close": "19:00", "open": "17:00"}, "Friday": {"close": "18:00", "open": "15:00"}, "Wednesday": {"close": "11:30", "open": "10:00"}, "Thursday": {"close": "18:00", "open": "15:00"}, "Saturday": {"close": "11:30", "open": "10:00"}}, "open": true, "categories": ["Veterinarians", "Pets"], "city": "Karlsruhe", "review_count": 5, "name": "Kleintierpraxis H. Sp\u00f6rle", "neighborhoods": [], "longitude": 8.471, "state": "BW", "stars": 4.0, "latitude": 48.9979, "attributes": {"Price Range": 3}, "type": "business"}
{"business_id": "M_O7vlWxe0GTzqnAhjXuHQ", "full_address": "Reinmuthstr. 47\n76187 Karlsruhe", "hours": {}, "open": true, "categories": ["Veterinarians", "Pets"], "city": "Karlsruhe", "review_count": 8, "name": "Tierarzt Stefan Petri", "neighborhoods": [], "longitude": 8.3433, "state": "BW", "stars": 3.5, "latitude": 49.0319, "attributes": {"Parking": {"garage": false, "validated": false, "street": false, "lot": false, "valet": false}, "Accepts Credit Cards": true, "Price Range": 3}, "type": "business"}
{"business_id": "iI-JzHYx0SQrnW3jBE2ZPQ", "full_address": "M\u00fchlstr. 8\n76229 Karlsruhe", "hours": {}, "open": true, "categories": ["Veterinarians", "Pets"], "city": "Karlsruhe", "review_count": 4, "name": "Dr. med. vet. H. Wessbecher", "neighborhoods": [], "longitude": 8.49661, "state": "BW", "stars": 5.0, "latitude": 49.0064, "attributes": {"Parking": {"garage": false, "validated": false, "street": false, "lot": false, "valet": false}, "Accepts Credit Cards": false, "Wheelchair Accessible": false, "Price Range": 2}, "type": "business"}
{"business_id": "tCsJHnJ43IqCl-1iIccZYQ", "full_address": "Sternbergstr.  4\n76131 Karlsruhe", "hours": {}, "open": true, "categories": ["Veterinarians", "Pets"], "city": "Karlsruhe", "review_count": 4, "name": "Kleintierpraxis Sch\u00fctz", "neighborhoods": [], "longitude": 8.4254961, "state": "BW", "stars": 3.0, "latitude": 49.0105893, "attributes": {}, "type": "business"}
{"business_id": "nCiqlnIu7pNmnRkQFibKsg", "full_address": "Hoffstr. 6\n76133 Karlsruhe", "hours": {}, "open": true, "categories": ["Veterinarians", "Pets"], "city": "Karlsruhe", "review_count": 4, "name": "Tierarzt Marcus Erben", "neighborhoods": [], "longitude": 8.38676, "state": "BW", "stars": 3.5, "latitude": 49.0126, "attributes": {}, "type": "business"}
{"business_id": "IdkXYNl84sM8g84RL-euQA", "full_address": "Kaiserallee 139\n76185 Karlsruhe", "hours": {}, "open": true, "categories": ["Veterinarians", "Pets"], "city": "Karlsruhe", "review_count": 3, "name": "Dr. Eberhard G\u00f6tze", "neighborhoods": [], "longitude": 8.36654, "state": "BW", "stars": 3.5, "latitude": 49.0112, "attributes": {"Price Range": 2}, "type": "business"}
{"business_id": "NSvI23_bSqDLEIyZ6CG7Fg", "full_address": "Amthausstr. 16\n76227 Karlsruhe", "hours": {"Monday": {"close": "18:00", "open": "15:00"}, "Tuesday": {"close": "19:00", "open": "17:00"}, "Friday": {"close": "18:00", "open": "15:00"}, "Wednesday": {"close": "11:30", "open": "10:00"}, "Thursday": {"close": "18:00", "open": "15:00"}, "Saturday": {"close": "11:30", "open": "10:00"}}, "open": true, "categories": ["Veterinarians", "Pets"], "city": "Karlsruhe", "review_count": 5, "name": "Kleintierpraxis H. Sp\u00f6rle", "neighborhoods": [], "longitude": 8.471, "state": "BW", "stars": 4.0, "latitude": 48.9979, "attributes": {"Price Range": 3}, "type": "business"}
{"business_id": "M_O7vlWxe0GTzqnAhjXuHQ", "full_address": "Reinmuthstr. 47\n76187 Karlsruhe", "hours": {}, "open": true, "categories": ["Veterinarians", "Pets"], "city": "Karlsruhe", "review_count": 8, "name": "Tierarzt Stefan Petri", "neighborhoods": [], "longitude": 8.3433, "state": "BW", "stars": 3.5, "latitude": 49.0319, "attributes": {"Parking": {"garage": false, "validated": false, "street": false, "lot": false, "valet": false}, "Accepts Credit Cards": true, "Price Range": 3}, "type": "business"}
{"business_id": "iI-JzHYx0SQrnW3jBE2ZPQ", "full_address": "M\u00fchlstr. 8\n76229 Karlsruhe", "hours": {}, "open": true, "categories": ["Veterinarians", "Pets"], "city": "Karlsruhe", "review_count": 4, "name": "Dr. med. vet. H. Wessbecher", "neighborhoods": [], "longitude": 8.49661, "state": "BW", "stars": 5.0, "latitude": 49.0064, "attributes": {"Parking": {"garage": false, "validated": false, "street": false, "lot": false, "valet": false}, "Accepts Credit Cards": false, "Wheelchair Accessible": false, "Price Range": 2}, "type": "business"}
{"business_id": "tCsJHnJ43IqCl-1iIccZYQ", "full_address": "Sternbergstr.  4\n76131 Karlsruhe", "hours": {}, "open": true, "categories": ["Veterinarians", "Pets"], "city": "Karlsruhe", "review_count": 4, "name": "Kleintierpraxis Sch\u00fctz", "neighborhoods": [], "longitude": 8.4254961, "state": "BW", "stars": 3.0, "latitude": 49.0105893, "attributes": {}, "type": "business"}
{"business_id": "nCiqlnIu7pNmnRkQFibKsg", "full_address": "Hoffstr. 6\n76133 Karlsruhe", "hours": {}, "open": true, "categories": ["Veterinarians", "Pets"], "city": "Karlsruhe", "review_count": 4, "name": "Tierarzt Marcus Erben", "neighborhoods": [], "longitude": 8.38676, "state": "BW", "stars": 3.5, "latitude": 49.0126, "attributes": {}, "type": "business"}
{"business_id": "IdkXYNl84sM8g84RL-euQA", "full_address": "Kaiserallee 139\n76185 Karlsruhe", "hours": {}, "open": true, "categories": ["Veterinarians", "Pets"], "city": "Karlsruhe", "review_count": 3, "name": "Dr. Eberhard G\u00f6tze", "neighborhoods": [], "longitude": 8.36654, "state": "BW", "stars": 3.5, "latitude": 49.0112, "attributes": {"Price Range": 2}, "type": "business"}
{"business_id": "NSvI23_bSqDLEIyZ6CG7Fg", "full_address": "Amthausstr. 16\n76227 Karlsruhe", "hours": {"Monday": {"close": "18:00", "open": "15:00"}, "Tuesday": {"close": "19:00", "open": "17:00"}, "Friday": {"close": "18:00", "open": "15:00"}, "Wednesday": {"close": "11:30", "open": "10:00"}, "Thursday": {"close": "18:00", "open": "15:00"}, "Saturday": {"close": "11:30", "open": "10:00"}}, "open": true, "categories": ["Veterinarians", "Pets"], "city": "Karlsruhe", "review_count": 5, "name": "Kleintierpraxis H. Sp\u00f6rle", "neighborhoods": [], "longitude": 8.471, "state": "BW", "stars": 4.0, "latitude": 48.9979, "attributes": {"Price Range": 3}, "type": "business"}
{"business_id": "M_O7vlWxe0GTzqnAhjXuHQ", "full_address": "Reinmuthstr. 47\n76187 Karlsruhe", "hours": {}, "open": true, "categories": ["Veterinarians", "Pets"], "city": "Karlsruhe", "review_count": 8, "name": "Tierarzt Stefan Petri", "neighborhoods": [], "longitude": 8.3433, "state": "BW", "stars": 3.5, "latitude": 49.0319, "attributes": {"Parking": {"garage": false, "validated": false, "street": false, "lot": false, "valet": false}, "Accepts Credit Cards": true, "Price Range": 3}, "type": "business"}
{"business_id": "iI-JzHYx0SQrnW3jBE2ZPQ", "full_address": "M\u00fchlstr. 8\n76229 Karlsruhe", "hours": {}, "open": true, "categories": ["Veterinarians", "Pets"], "city": "Karlsruhe", "review_count": 4, "name": "Dr. med. vet. H. Wessbecher", "neighborhoods": [], "longitude": 8.49661, "state": "BW", "stars": 5.0, "latitude": 49.0064, "attributes": {"Parking": {"garage": false, "validated": false, "street": false, "lot": false, "valet": false}, "Accepts Credit Cards": false, "Wheelchair Accessible": false, "Price Range": 2}, "type": "business"}
{"business_id": "tCsJHnJ43IqCl-1iIccZYQ", "full_address": "Sternbergstr.  4\n76131 Karlsruhe", "hours": {}, "open": true, "categories": ["Veterinarians", "Pets"], "city": "Karlsruhe", "review_count": 4, "name": "Kleintierpraxis Sch\u00fctz", "neighborhoods": [], "longitude": 8.4254961, "state": "BW", "stars": 3.0, "latitude": 49.0105893, "attributes": {}, "type": "business"}
{"business_id": "nCiqlnIu7pNmnRkQFibKsg", "full_address": "Hoffstr. 6\n76133 Karlsruhe", "hours": {}, "open": true, "categories": ["Veterinarians", "Pets"], "city": "Karlsruhe", "review_count": 4, "name": "Tierarzt Marcus Erben", "neighborhoods": [], "longitude": 8.38676, "state": "BW", "stars": 3.5, "latitude": 49.0126, "attributes": {}, "type": "business"}
{"business_id": "IdkXYNl84sM8g84RL-euQA", "full_address": "Kaiserallee 139\n76185 Karlsruhe", "hours": {}, "open": true, "categories": ["Veterinarians", "Pets"], "city": "Karlsruhe", "review_count": 3, "name": "Dr. Eberhard G\u00f6tze", "neighborhoods": [], "longitude": 8.36654, "state": "BW", "stars": 3.5, "latitude": 49.0112, "attributes": {"Price Range": 2}, "type": "business"}
{"business_id": "NSvI23_bSqDLEIyZ6CG7Fg", "full_address": "Amthausstr. 16\n76227 Karlsruhe", "hours": {"Monday": {"close": "18:00", "open": "15:00"}, "Tuesday": {"close": "19:00", "open": "17:00"}, "Friday": {"close": "18:00", "open": "15:00"}, "Wednesday": {"close": "11:30", "open": "10:00"}, "Thursday": {"close": "18:00", "open": "15:00"}, "Saturday": {"close": "11:30", "open": "10:00"}}, "open": true, "categories": ["Veterinarians", "Pets"], "city": "Karlsruhe", "review_count": 5, "name": "Kleintierpraxis H. Sp\u00f6rle", "neighborhoods": [], "longitude": 8.471, "state": "BW", "stars": 4.0, "latitude": 48.9979, "attributes": {"Price Range": 3}, "type": "business"}
{"business_id": "M_O7vlWxe0GTzqnAhjXuHQ", "full_address": "Reinmuthstr. 47\n76187 Karlsruhe", "hours": {}, "open": true, "categories": ["Veterinarians", "Pets"], "city": "Karlsruhe", "review_count": 8, "name": "Tierarzt Stefan Petri", "neighborhoods": [], "longitude": 8.3433, "state": "BW", "stars": 3.5, "latitude": 49.0319, "attributes": {"Parking": {"garage": false, "validated": false, "street": false, "lot": false, "valet": false}, "Accepts Credit Cards": true, "Price Range": 3}, "type": "business"}
{"business_id": "iI-JzHYx0SQrnW3jBE2ZPQ", "full_address": "M\u00fchlstr. 8\n76229 Karlsruhe", "hours": {}, "open": true, "categories": ["Veterinarians", "Pets"], "city": "Karlsruhe", "review_count": 4, "name": "Dr. med. vet. H. Wessbecher", "neighborhoods": [], "longitude": 8.49661, "state": "BW", "stars": 5.0, "latitude": 49.0064, "attributes": {"Parking": {"garage": false, "validated": false, "street": false, "lot": false, "valet": false}, "Accepts Credit Cards": false, "Wheelchair Accessible": false, "Price Range": 2}, "type": "business"}
{"business_id": "tCsJHnJ43IqCl-1iIccZYQ", "full_address": "Sternbergstr.  4\n76131 Karlsruhe", "hours": {}, "open": true, "categories": ["Veterinarians", "Pets"], "city": "Karlsruhe", "review_count": 4, "name": "Kleintierpraxis Sch\u00fctz", "neighborhoods": [], "longitude": 8.4254961, "state": "BW", "stars": 3.0, "latitude": 49.0105893, "attributes": {}, "type": "business"}
{"business_id": "nCiqlnIu7pNmnRkQFibKsg", "full_address": "Hoffstr. 6\n76133 Karlsruhe", "hours": {}, "open": true, "categories": ["Veterinarians", "Pets"], "city": "Karlsruhe", "review_count": 4, "name": "Tierarzt Marcus Erben", "neighborhoods": [], "longitude": 8.38676, "state": "BW", "stars": 3.5, "latitude": 49.0126, "attributes": {}, "type": "business"}
{"business_id": "IdkXYNl84sM8g84RL-euQA", "full_address": "Kaiserallee 139\n76185 Karlsruhe", "hours": {}, "open": true, "categories": ["Veterinarians", "Pets"], "city": "Karlsruhe", "review_count": 3, "name": "Dr. Eberhard G\u00f6tze", "neighborhoods": [], "longitude": 8.36654, "state": "BW", "stars": 3.5, "latitude": 49.0112, "attributes": {"Price Range": 2}, "type": "business"}
{"business_id": "NSvI23_bSqDLEIyZ6CG7Fg", "full_address": "Amthausstr. 16\n76227 Karlsruhe", "hours": {"Monday": {"close": "18:00", "open": "15:00"}, "Tuesday": {"close": "19:00", "open": "17:00"}, "Friday": {"close": "18:00", "open": "15:00"}, "Wednesday": {"close": "11:30", "open": "10:00"}, "Thursday": {"close": "18:00", "open": "15:00"}, "Saturday": {"close": "11:30", "open": "10:00"}}, "open": true, "categories": ["Veterinarians", "Pets"], "city": "Karlsruhe", "review_count": 5, "name": "Kleintierpraxis H. Sp\u00f6rle", "neighborhoods": [], "longitude": 8.471, "state": "BW", "stars": 4.0, "latitude": 48.9979, "attributes": {"Price Range": 3}, "type": "business"}
{"business_id": "M_O7vlWxe0GTzqnAhjXuHQ", "full_address": "Reinmuthstr. 47\n76187 Karlsruhe", "hours": {}, "open": true, "categories": ["Veterinarians", "Pets"], "city": "Karlsruhe", "review_count": 8, "name": "Tierarzt Stefan Petri", "neighborhoods": [], "longitude": 8.3433, "state": "BW", "stars": 3.5, "latitude": 49.0319, "attributes": {"Parking": {"garage": false, "validated": false, "street": false, "lot": false, "valet": false}, "Accepts Credit Cards": true, "Price Range": 3}, "type": "business"}
{"business_id": "iI-JzHYx0SQrnW3jBE2ZPQ", "full_address": "M\u00fchlstr. 8\n76229 Karlsruhe", "hours": {}, "open": true, "categories": ["Veterinarians", "Pets"], "city": "Karlsruhe", "review_count": 4, "name": "Dr. med. vet. H. Wessbecher", "neighborhoods": [], "longitude": 8.49661, "state": "BW", "stars": 5.0, "latitude": 49.0064, "attributes": {"Parking": {"garage": false, "validated": false, "street": false, "lot": false, "valet": false}, "Accepts Credit Cards": false, "Wheelchair Accessible": false, "Price Range": 2}, "type": "business"}
{"business_id": "tCsJHnJ43IqCl-1iIccZYQ", "full_address": "Sternbergstr.  4\n76131 Karlsruhe", "hours": {}, "open": true, "categories": ["Veterinarians", "Pets"], "city": "Karlsruhe", "review_count": 4, "name": "Kleintierpraxis Sch\u00fctz", "neighborhoods": [], "longitude": 8.4254961, "state": "BW", "stars": 3.0, "latitude": 49.0105893, "attributes": {}, "type": "business"}
{"business_id": "nCiqlnIu7pNmnRkQFibKsg", "full_address": "Hoffstr. 6\n76133 Karlsruhe", "hours": {}, "open": true, "categories": ["Veterinarians", "Pets"], "city": "Karlsruhe", "review_count": 4, "name": "Tierarzt Marcus Erben", "neighborhoods": [], "longitude": 8.38676, "state": "BW", "stars": 3.5, "latitude": 49.0126, "attributes": {}, "type": "business"}
