{"business_id": "W2RFJg1N_MzuI8I42MQ2VA", "full_address": "Windeckstr. 15\n76135 Karlsruhe", "hours": {}, "open": true, "categories": ["Department Stores", "Fashion", "Shopping"], "city": "Karlsruhe", "review_count": 5, "name": "Heinrich Heine", "neighborhoods": [], "longitude": 8.37332, "state": "BW", "stars": 3.0, "latitude": 48.98807, "attributes": {"Price Range": 3}, "type": "business"}
{"business_id": "rJZRC9dVdsHuIeQmDdp3rA", "full_address": "Kaiserstr. 96\n76133 Karlsruhe", "hours": {"Monday": {"close": "20:00", "open": "10:00"}, "Tuesday": {"close": "20:00", "open": "10:00"}, "Friday": {"close": "20:00", "open": "10:00"}, "Wednesday": {"close": "20:00", "open": "10:00"}, "Thursday": {"close": "20:00", "open": "10:00"}, "Saturday": {"close": "20:00", "open": "10:00"}}, "open": true, "categories": ["Department Stores", "Fashion", "Shopping"], "city": "Karlsruhe", "review_count": 13, "name": "E. Breuninger", "neighborhoods": [], "longitude": 8.4005128, "state": "BW", "stars": 4.5, "latitude": 49.009768, "attributes": {"Parking": {"garage": false, "street": false, "validated": false, "lot": false, "valet": false}, "Accepts Credit Cards": true, "Wheelchair Accessible": true, "Price Range": 3}, "type": "business"}
{"business_id": "4svxTJsNoi1P6zt93_sGTg", "full_address": "Ortenbergstr. 8\n76135 Karlsruhe", "hours": {}, "open": true, "categories": ["Department Stores", "Fashion", "Shopping"], "city": "Karlsruhe", "review_count": 4, "name": "real,- SB Warenhaus", "neighborhoods": [], "longitude": 8.37562, "state": "BW", "stars": 2.5, "latitude": 48.9917, "attributes": {"Parking": {"garage": false, "street": false, "validated": false, "lot": false, "valet": false}, "Accepts Credit Cards": true, "Price Range": 2}, "type": "business"}
{"business_id": "YWp1E5ZBJQhlbgbDhS6zcw", "full_address": "Kaiserstr. 92\n76133 Karlsruhe", "hours": {"Monday": {"close": "20:00", "open": "10:00"}, "Tuesday": {"close": "20:00", "open": "10:00"}, "Friday": {"close": "20:00", "open": "10:00"}, "Wednesday": {"close": "20:00", "open": "10:00"}, "Thursday": {"close": "20:00", "open": "10:00"}, "Saturday": {"close": "20:00", "open": "10:00"}}, "open": true, "categories": ["Department Stores", "Fashion", "Shopping"], "city": "Karlsruhe", "review_count": 5, "name": "Karstadt sports", "neighborhoods": [], "longitude": 8.3946101, "state": "BW", "stars": 2.5, "latitude": 49.0099888, "attributes": {"Accepts Credit Cards": true, "Price Range": 3}, "type": "business"}
{"business_id": "WFvTk1sfSHMLCQkxzk0jlg", "full_address": "Kaiserstr. 147-159\n76133 Karlsruhe", "hours": {"Monday": {"close": "20:00", "open": "09:30"}, "Tuesday": {"close": "20:00", "open": "09:30"}, "Friday": {"close": "20:00", "open": "09:30"}, "Wednesday": {"close": "20:00", "open": "09:30"}, "Thursday": {"close": "20:00", "open": "09:30"}, "Saturday": {"close": "20:00", "open": "09:30"}}, "open": true, "categories": ["Department Stores", "Fashion", "Shopping"], "city": "Karlsruhe", "review_count": 15, "name": "Karstadt", "neighborhoods": [], "longitude": 8.40234, "state": "BW", "stars": 4.0, "latitude": 49.0095, "attributes": {"Parking": {"garage": true, "street": false, "validated": false, "lot": false, "valet": false}, "Accepts Credit Cards": true, "Wheelchair Accessible": true, "Price Range": 2}, "type": "business"}
{"business_id": "W2RFJg1N_MzuI8I42MQ2VA", "full_address": "Windeckstr. 15\n76135 Karlsruhe", "hours": {}, "open": true, "categories": ["Department Stores", "Fashion", "Shopping"], "city": "Karlsruhe", "review_count": 5, "name": "Heinrich Heine", "neighborhoods": [], "longitude": 8.37332, "state": "BW", "stars": 3.0, "latitude": 48.98807, "attributes": {"Price Range": 3}, "type": "business"}
{"business_id": "rJZRC9dVdsHuIeQmDdp3rA", "full_address": "Kaiserstr. 96\n76133 Karlsruhe", "hours": {"Monday": {"close": "20:00", "open": "10:00"}, "Tuesday": {"close": "20:00", "open": "10:00"}, "Friday": {"close": "20:00", "open": "10:00"}, "Wednesday": {"close": "20:00", "open": "10:00"}, "Thursday": {"close": "20:00", "open": "10:00"}, "Saturday": {"close": "20:00", "open": "10:00"}}, "open": true, "categories": ["Department Stores", "Fashion", "Shopping"], "city": "Karlsruhe", "review_count": 13, "name": "E. Breuninger", "neighborhoods": [], "longitude": 8.4005128, "state": "BW", "stars": 4.5, "latitude": 49.009768, "attributes": {"Parking": {"garage": false, "street": false, "validated": false, "lot": false, "valet": false}, "Accepts Credit Cards": true, "Wheelchair Accessible": true, "Price Range": 3}, "type": "business"}
{"business_id": "4svxTJsNoi1P6zt93_sGTg", "full_address": "Ortenbergstr. 8\n76135 Karlsruhe", "hours": {}, "open": true, "categories": ["Department Stores", "Fashion", "Shopping"], "city": "Karlsruhe", "review_count": 4, "name": "real,- SB Warenhaus", "neighborhoods": [], "longitude": 8.37562, "state": "BW", "stars": 2.5, "latitude": 48.9917, "attributes": {"Parking": {"garage": false, "street": false, "validated": false, "lot": false, "valet": false}, "Accepts Credit Cards": true, "Price Range": 2}, "type": "business"}
{"business_id": "YWp1E5ZBJQhlbgbDhS6zcw", "full_address": "Kaiserstr. 92\n76133 Karlsruhe", "hours": {"Monday": {"close": "20:00", "open": "10:00"}, "Tuesday": {"close": "20:00", "open": "10:00"}, "Friday": {"close": "20:00", "open": "10:00"}, "Wednesday": {"close": "20:00", "open": "10:00"}, "Thursday": {"close": "20:00", "open": "10:00"}, "Saturday": {"close": "20:00", "open": "10:00"}}, "open": true, "categories": ["Department Stores", "Fashion", "Shopping"], "city": "Karlsruhe", "review_count": 5, "name": "Karstadt sports", "neighborhoods": [], "longitude": 8.3946101, "state": "BW", "stars": 2.5, "latitude": 49.0099888, "attributes": {"Accepts Credit Cards": true, "Price Range": 3}, "type": "business"}
{"business_id": "WFvTk1sfSHMLCQkxzk0jlg", "full_address": "Kaiserstr. 147-159\n76133 Karlsruhe", "hours": {"Monday": {"close": "20:00", "open": "09:30"}, "Tuesday": {"close": "20:00", "open": "09:30"}, "Friday": {"close": "20:00", "open": "09:30"}, "Wednesday": {"close": "20:00", "open": "09:30"}, "Thursday": {"close": "20:00", "open": "09:30"}, "Saturday": {"close": "20:00", "open": "09:30"}}, "open": true, "categories": ["Department Stores", "Fashion", "Shopping"], "city": "Karlsruhe", "review_count": 15, "name": "Karstadt", "neighborhoods": [], "longitude": 8.40234, "state": "BW", "stars": 4.0, "latitude": 49.0095, "attributes": {"Parking": {"garage": true, "street": false, "validated": false, "lot": false, "valet": false}, "Accepts Credit Cards": true, "Wheelchair Accessible": true, "Price Range": 2}, "type": "business"}
{"business_id": "W2RFJg1N_MzuI8I42MQ2VA", "full_address": "Windeckstr. 15\n76135 Karlsruhe", "hours": {}, "open": true, "categories": ["Department Stores", "Fashion", "Shopping"], "city": "Karlsruhe", "review_count": 5, "name": "Heinrich Heine", "neighborhoods": [], "longitude": 8.37332, "state": "BW", "stars": 3.0, "latitude": 48.98807, "attributes": {"Price Range": 3}, "type": "business"}
{"business_id": "rJZRC9dVdsHuIeQmDdp3rA", "full_address": "Kaiserstr. 96\n76133 Karlsruhe", "hours": {"Monday": {"close": "20:00", "open": "10:00"}, "Tuesday": {"close": "20:00", "open": "10:00"}, "Friday": {"close": "20:00", "open": "10:00"}, "Wednesday": {"close": "20:00", "open": "10:00"}, "Thursday": {"close": "20:00", "open": "10:00"}, "Saturday": {"close": "20:00", "open": "10:00"}}, "open": true, "categories": ["Department Stores", "Fashion", "Shopping"], "city": "Karlsruhe", "review_count": 13, "name": "E. Breuninger", "neighborhoods": [], "longitude": 8.4005128, "state": "BW", "stars": 4.5, "latitude": 49.009768, "attributes": {"Parking": {"garage": false, "street": false, "validated": false, "lot": false, "valet": false}, "Accepts Credit Cards": true, "Wheelchair Accessible": true, "Price Range": 3}, "type": "business"}
{"business_id": "4svxTJsNoi1P6zt93_sGTg", "full_address": "Ortenbergstr. 8\n76135 Karlsruhe", "hours": {}, "open": true, "categories": ["Department Stores", "Fashion", "Shopping"], "city": "Karlsruhe", "review_count": 4, "name": "real,- SB Warenhaus", "neighborhoods": [], "longitude": 8.37562, "state": "BW", "stars": 2.5, "latitude": 48.9917, "attributes": {"Parking": {"garage": false, "street": false, "validated": false, "lot": false, "valet": false}, "Accepts Credit Cards": true, "Price Range": 2}, "type": "business"}
{"business_id": "YWp1E5ZBJQhlbgbDhS6zcw", "full_address": "Kaiserstr. 92\n76133 Karlsruhe", "hours": {"Monday": {"close": "20:00", "open": "10:00"}, "Tuesday": {"close": "20:00", "open": "10:00"}, "Friday": {"close": "20:00", "open": "10:00"}, "Wednesday": {"close": "20:00", "open": "10:00"}, "Thursday": {"close": "20:00", "open": "10:00"}, "Saturday": {"close": "20:00", "open": "10:00"}}, "open": true, "categories": ["Department Stores", "Fashion", "Shopping"], "city": "Karlsruhe", "review_count": 5, "name": "Karstadt sports", "neighborhoods": [], "longitude": 8.3946101, "state": "BW", "stars": 2.5, "latitude": 49.0099888, "attributes": {"Accepts Credit Cards": true, "Price Range": 3}, "type": "business"}
{"business_id": "WFvTk1sfSHMLCQkxzk0jlg", "full_address": "Kaiserstr. 147-159\n76133 Karlsruhe", "hours": {"Monday": {"close": "20:00", "open": "09:30"}, "Tuesday": {"close": "20:00", "open": "09:30"}, "Friday": {"close": "20:00", "open": "09:30"}, "Wednesday": {"close": "20:00", "open": "09:30"}, "Thursday": {"close": "20:00", "open": "09:30"}, "Saturday": {"close": "20:00", "open": "09:30"}}, "open": true, "categories": ["Department Stores", "Fashion", "Shopping"], "city": "Karlsruhe", "review_count": 15, "name": "Karstadt", "neighborhoods": [], "longitude": 8.40234, "state": "BW", "stars": 4.0, "latitude": 49.0095, "attributes": {"Parking": {"garage": true, "street": false, "validated": false, "lot": false, "valet": false}, "Accepts Credit Cards": true, "Wheelchair Accessible": true, "Price Range": 2}, "type": "business"}
{"business_id": "W2RFJg1N_MzuI8I42MQ2VA", "full_address": "Windeckstr. 15\n76135 Karlsruhe", "hours": {}, "open": true, "categories": ["Department Stores", "Fashion", "Shopping"], "city": "Karlsruhe", "review_count": 5, "name": "Heinrich Heine", "neighborhoods": [], "longitude": 8.37332, "state": "BW", "stars": 3.0, "latitude": 48.98807, "attributes": {"Price Range": 3}, "type": "business"}
{"business_id": "rJZRC9dVdsHuIeQmDdp3rA", "full_address": "Kaiserstr. 96\n76133 Karlsruhe", "hours": {"Monday": {"close": "20:00", "open": "10:00"}, "Tuesday": {"close": "20:00", "open": "10:00"}, "Friday": {"close": "20:00", "open": "10:00"}, "Wednesday": {"close": "20:00", "open": "10:00"}, "Thursday": {"close": "20:00", "open": "10:00"}, "Saturday": {"close": "20:00", "open": "10:00"}}, "open": true, "categories": ["Department Stores", "Fashion", "Shopping"], "city": "Karlsruhe", "review_count": 13, "name": "E. Breuninger", "neighborhoods": [], "longitude": 8.4005128, "state": "BW", "stars": 4.5, "latitude": 49.009768, "attributes": {"Parking": {"garage": false, "street": false, "validated": false, "lot": false, "valet": false}, "Accepts Credit Cards": true, "Wheelchair Accessible": true, "Price Range": 3}, "type": "business"}
{"business_id": "4svxTJsNoi1P6zt93_sGTg", "full_address": "Ortenbergstr. 8\n76135 Karlsruhe", "hours": {}, "open": true, "categories": ["Department Stores", "Fashion", "Shopping"], "city": "Karlsruhe", "review_count": 4, "name": "real,- SB Warenhaus", "neighborhoods": [], "longitude": 8.37562, "state": "BW", "stars": 2.5, "latitude": 48.9917, "attributes": {"Parking": {"garage": false, "street": false, "validated": false, "lot": false, "valet": false}, "Accepts Credit Cards": true, "Price Range": 2}, "type": "business"}
{"business_id": "YWp1E5ZBJQhlbgbDhS6zcw", "full_address": "Kaiserstr. 92\n76133 Karlsruhe", "hours": {"Monday": {"close": "20:00", "open": "10:00"}, "Tuesday": {"close": "20:00", "open": "10:00"}, "Friday": {"close": "20:00", "open": "10:00"}, "Wednesday": {"close": "20:00", "open": "10:00"}, "Thursday": {"close": "20:00", "open": "10:00"}, "Saturday": {"close": "20:00", "open": "10:00"}}, "open": true, "categories": ["Department Stores", "Fashion", "Shopping"], "city": "Karlsruhe", "review_count": 5, "name": "Karstadt sports", "neighborhoods": [], "longitude": 8.3946101, "state": "BW", "stars": 2.5, "latitude": 49.0099888, "attributes": {"Accepts Credit Cards": true, "Price Range": 3}, "type": "business"}
{"business_id": "WFvTk1sfSHMLCQkxzk0jlg", "full_address": "Kaiserstr. 147-159\n76133 Karlsruhe", "hours": {"Monday": {"close": "20:00", "open": "09:30"}, "Tuesday": {"close": "20:00", "open": "09:30"}, "Friday": {"close": "20:00", "open": "09:30"}, "Wednesday": {"close": "20:00", "open": "09:30"}, "Thursday": {"close": "20:00", "open": "09:30"}, "Saturday": {"close": "20:00", "open": "09:30"}}, "open": true, "categories": ["Department Stores", "Fashion", "Shopping"], "city": "Karlsruhe", "review_count": 15, "name": "Karstadt", "neighborhoods": [], "longitude": 8.40234, "state": "BW", "stars": 4.0, "latitude": 49.0095, "attributes": {"Parking": {"garage": true, "street": false, "validated": false, "lot": false, "valet": false}, "Accepts Credit Cards": true, "Wheelchair Accessible": true, "Price Range": 2}, "type": "business"}
{"business_id": "W2RFJg1N_MzuI8I42MQ2VA", "full_address": "Windeckstr. 15\n76135 Karlsruhe", "hours": {}, "open": true, "categories": ["Department Stores", "Fashion", "Shopping"], "city": "Karlsruhe", "review_count": 5, "name": "Heinrich Heine", "neighborhoods": [], "longitude": 8.37332, "state": "BW", "stars": 3.0, "latitude": 48.98807, "attributes": {"Price Range": 3}, "type": "business"}
{"business_id": "rJZRC9dVdsHuIeQmDdp3rA", "full_address": "Kaiserstr. 96\n76133 Karlsruhe", "hours": {"Monday": {"close": "20:00", "open": "10:00"}, "Tuesday": {"close": "20:00", "open": "10:00"}, "Friday": {"close": "20:00", "open": "10:00"}, "Wednesday": {"close": "20:00", "open": "10:00"}, "Thursday": {"close": "20:00", "open": "10:00"}, "Saturday": {"close": "20:00", "open": "10:00"}}, "open": true, "categories": ["Department Stores", "Fashion", "Shopping"], "city": "Karlsruhe", "review_count": 13, "name": "E. Breuninger", "neighborhoods": [], "longitude": 8.4005128, "state": "BW", "stars": 4.5, "latitude": 49.009768, "attributes": {"Parking": {"garage": false, "street": false, "validated": false, "lot": false, "valet": false}, "Accepts Credit Cards": true, "Wheelchair Accessible": true, "Price Range": 3}, "type": "business"}
{"business_id": "4svxTJsNoi1P6zt93_sGTg", "full_address": "Ortenbergstr. 8\n76135 Karlsruhe", "hours": {}, "open": true, "categories": ["Department Stores", "Fashion", "Shopping"], "city": "Karlsruhe", "review_count": 4, "name": "real,- SB Warenhaus", "neighborhoods": [], "longitude": 8.37562, "state": "BW", "stars": 2.5, "latitude": 48.9917, "attributes": {"Parking": {"garage": false, "street": false, "validated": false, "lot": false, "valet": false}, "Accepts Credit Cards": true, "Price Range": 2}, "type": "business"}
{"business_id": "YWp1E5ZBJQhlbgbDhS6zcw", "full_address": "Kaiserstr. 92\n76133 Karlsruhe", "hours": {"Monday": {"close": "20:00", "open": "10:00"}, "Tuesday": {"close": "20:00", "open": "10:00"}, "Friday": {"close": "20:00", "open": "10:00"}, "Wednesday": {"close": "20:00", "open": "10:00"}, "Thursday": {"close": "20:00", "open": "10:00"}, "Saturday": {"close": "20:00", "open": "10:00"}}, "open": true, "categories": ["Department Stores", "Fashion", "Shopping"], "city": "Karlsruhe", "review_count": 5, "name": "Karstadt sports", "neighborhoods": [], "longitude": 8.3946101, "state": "BW", "stars": 2.5, "latitude": 49.0099888, "attributes": {"Accepts Credit Cards": true, "Price Range": 3}, "type": "business"}
{"business_id": "WFvTk1sfSHMLCQkxzk0jlg", "full_address": "Kaiserstr. 147-159\n76133 Karlsruhe", "hours": {"Monday": {"close": "20:00", "open": "09:30"}, "Tuesday": {"close": "20:00", "open": "09:30"}, "Friday": {"close": "20:00", "open": "09:30"}, "Wednesday": {"close": "20:00", "open": "09:30"}, "Thursday": {"close": "20:00", "open": "09:30"}, "Saturday": {"close": "20:00", "open": "09:30"}}, "open": true, "categories": ["Department Stores", "Fashion", "Shopping"], "city": "Karlsruhe", "review_count": 15, "name": "Karstadt", "neighborhoods": [], "longitude": 8.40234, "state": "BW", "stars": 4.0, "latitude": 49.0095, "attributes": {"Parking": {"garage": true, "street": false, "validated": false, "lot": false, "valet": false}, "Accepts Credit Cards": true, "Wheelchair Accessible": true, "Price Range": 2}, "type": "business"}
{"business_id": "W2RFJg1N_MzuI8I42MQ2VA", "full_address": "Windeckstr. 15\n76135 Karlsruhe", "hours": {}, "open": true, "categories": ["Department Stores", "Fashion", "Shopping"], "city": "Karlsruhe", "review_count": 5, "name": "Heinrich Heine", "neighborhoods": [], "longitude": 8.37332, "state": "BW", "stars": 3.0, "latitude": 48.98807, "attributes": {"Price Range": 3}, "type": "business"}
{"business_id": "rJZRC9dVdsHuIeQmDdp3rA", "full_address": "Kaiserstr. 96\n76133 Karlsruhe", "hours": {"Monday": {"close": "20:00", "open": "10:00"}, "Tuesday": {"close": "20:00", "open": "10:00"}, "Friday": {"close": "20:00", "open": "10:00"}, "Wednesday": {"close": "20:00", "open": "10:00"}, "Thursday": {"close": "20:00", "open": "10:00"}, "Saturday": {"close": "20:00", "open": "10:00"}}, "open": true, "categories": ["Department Stores", "Fashion", "Shopping"], "city": "Karlsruhe", "review_count": 13, "name": "E. Breuninger", "neighborhoods": [], "longitude": 8.4005128, "state": "BW", "stars": 4.5, "latitude": 49.009768, "attributes": {"Parking": {"garage": false, "street": false, "validated": false, "lot": false, "valet": false}, "Accepts Credit Cards": true, "Wheelchair Accessible": true, "Price Range": 3}, "type": "business"}
{"business_id": "4svxTJsNoi1P6zt93_sGTg", "full_address": "Ortenbergstr. 8\n76135 Karlsruhe", "hours": {}, "open": true, "categories": ["Department Stores", "Fashion", "Shopping"], "city": "Karlsruhe", "review_count": 4, "name": "real,- SB Warenhaus", "neighborhoods": [], "longitude": 8.37562, "state": "BW", "stars": 2.5, "latitude": 48.9917, "attributes": {"Parking": {"garage": false, "street": false, "validated": false, "lot": false, "valet": false}, "Accepts Credit Cards": true, "Price Range": 2}, "type": "business"}
{"business_id": "YWp1E5ZBJQhlbgbDhS6zcw", "full_address": "Kaiserstr. 92\n76133 Karlsruhe", "hours": {"Monday": {"close": "20:00", "open": "10:00"}, "Tuesday": {"close": "20:00", "open": "10:00"}, "Friday": {"close": "20:00", "open": "10:00"}, "Wednesday": {"close": "20:00", "open": "10:00"}, "Thursday": {"close": "20:00", "open": "10:00"}, "Saturday": {"close": "20:00", "open": "10:00"}}, "open": true, "categories": ["Department Stores", "Fashion", "Shopping"], "city": "Karlsruhe", "review_count": 5, "name": "Karstadt sports", "neighborhoods": [], "longitude": 8.3946101, "state": "BW", "stars": 2.5, "latitude": 49.0099888, "attributes": {"Accepts Credit Cards": true, "Price Range": 3}, "type": "business"}
{"business_id": "WFvTk1sfSHMLCQkxzk0jlg", "full_address": "Kaiserstr. 147-159\n76133 Karlsruhe", "hours": {"Monday": {"close": "20:00", "open": "09:30"}, "Tuesday": {"close": "20:00", "open": "09:30"}, "Friday": {"close": "20:00", "open": "09:30"}, "Wednesday": {"close": "20:00", "open": "09:30"}, "Thursday": {"close": "20:00", "open": "09:30"}, "Saturday": {"close": "20:00", "open": "09:30"}}, "open": true, "categories": ["Department Stores", "Fashion", "Shopping"], "city": "Karlsruhe", "review_count": 15, "name": "Karstadt", "neighborhoods": [], "longitude": 8.40234, "state": "BW", "stars": 4.0, "latitude": 49.0095, "attributes": {"Parking": {"garage": true, "street": false, "validated": false, "lot": false, "valet": false}, "Accepts Credit Cards": true, "Wheelchair Accessible": true, "Price Range": 2}, "type": "business"}
