{"business_id": "qb9ZA9SvLJ4Lhi4LQclseQ", "full_address": "Junker-und-Ruh-Weg\n76135 Karlsruhe", "hours": {}, "open": true, "categories": ["Active Life", "Hotels & Travel", "Parks", "Kids Activities"], "city": "Karlsruhe", "review_count": 15, "name": "G\u00fcnther-Klotz-Anlage", "neighborhoods": [], "longitude": 8.37373, "state": "BW", "stars": 4.5, "latitude": 48.9988, "attributes": {"Good for Kids": true, "Parking": {"garage": false, "validated": false, "street": false, "lot": false, "valet": false}, "Wheelchair Accessible": true, "Price Range": 1}, "type": "business"}
{"business_id": "CpURBK7JfC1j_UzcBiLJgQ", "full_address": "Schlo\u00dfbezirk\n76131 Karlsruhe", "hours": {}, "open": true, "categories": ["Active Life", "Parks"], "city": "Karlsruhe", "review_count": 26, "name": "Schlossgarten", "neighborhoods": [], "longitude": 8.4029521, "state": "BW", "stars": 4.5, "latitude": 49.013063, "attributes": {"Wheelchair Accessible": true, "Good for Kids": true, "Parking": {"garage": false, "validated": false, "street": false, "lot": false, "valet": false}}, "type": "business"}
{"business_id": "4KDLhTvuO9lMyYndr-m5Lw", "full_address": "Hans-Thoma-Stra\u00dfe 6\nBotanischer Garten\n76133 Karlsruhe", "hours": {}, "open": true, "categories": ["Active Life", "Parks"], "city": "Karlsruhe", "review_count": 8, "name": "Botanischer Garten", "neighborhoods": [], "longitude": 8.4002493, "state": "BW", "stars": 5.0, "latitude": 49.0115823, "attributes": {"Good for Kids": true, "Parking": {"garage": false, "validated": false, "street": false, "lot": false, "valet": false}}, "type": "business"}
{"business_id": "qb9ZA9SvLJ4Lhi4LQclseQ", "full_address": "Junker-und-Ruh-Weg\n76135 Karlsruhe", "hours": {}, "open": true, "categories": ["Active Life", "Hotels & Travel", "Parks", "Kids Activities"], "city": "Karlsruhe", "review_count": 15, "name": "G\u00fcnther-Klotz-Anlage", "neighborhoods": [], "longitude": 8.37373, "state": "BW", "stars": 4.5, "latitude": 48.9988, "attributes": {"Good for Kids": true, "Parking": {"garage": false, "validated": false, "street": false, "lot": false, "valet": false}, "Wheelchair Accessible": true, "Price Range": 1}, "type": "business"}
{"business_id": "CpURBK7JfC1j_UzcBiLJgQ", "full_address": "Schlo\u00dfbezirk\n76131 Karlsruhe", "hours": {}, "open": true, "categories": ["Active Life", "Parks"], "city": "Karlsruhe", "review_count": 26, "name": "Schlossgarten", "neighborhoods": [], "longitude": 8.4029521, "state": "BW", "stars": 4.5, "latitude": 49.013063, "attributes": {"Wheelchair Accessible": true, "Good for Kids": true, "Parking": {"garage": false, "validated": false, "street": false, "lot": false, "valet": false}}, "type": "business"}
{"business_id": "4KDLhTvuO9lMyYndr-m5Lw", "full_address": "Hans-Thoma-Stra\u00dfe 6\nBotanischer Garten\n76133 Karlsruhe", "hours": {}, "open": true, "categories": ["Active Life", "Parks"], "city": "Karlsruhe", "review_count": 8, "name": "Botanischer Garten", "neighborhoods": [], "longitude": 8.4002493, "state": "BW", "stars": 5.0, "latitude": 49.0115823, "attributes": {"Good for Kids": true, "Parking": {"garage": false, "validated": false, "street": false, "lot": false, "valet": false}}, "type": "business"}
{"business_id": "qb9ZA9SvLJ4Lhi4LQclseQ", "full_address": "Junker-und-Ruh-Weg\n76135 Karlsruhe", "hours": {}, "open": true, "categories": ["Active Life", "Hotels & Travel", "Parks", "Kids Activities"], "city": "Karlsruhe", "review_count": 15, "name": "G\u00fcnther-Klotz-Anlage", "neighborhoods": [], "longitude": 8.37373, "state": "BW", "stars": 4.5, "latitude": 48.9988, "attributes": {"Good for Kids": true, "Parking": {"garage": false, "validated": false, "street": false, "lot": false, "valet": false}, "Wheelchair Accessible": true, "Price Range": 1}, "type": "business"}
{"business_id": "CpURBK7JfC1j_UzcBiLJgQ", "full_address": "Schlo\u00dfbezirk\n76131 Karlsruhe", "hours": {}, "open": true, "categories": ["Active Life", "Parks"], "city": "Karlsruhe", "review_count": 26, "name": "Schlossgarten", "neighborhoods": [], "longitude": 8.4029521, "state": "BW", "stars": 4.5, "latitude": 49.013063, "attributes": {"Wheelchair Accessible": true, "Good for Kids": true, "Parking": {"garage": false, "validated": false, "street": false, "lot": false, "valet": false}}, "type": "business"}
{"business_id": "4KDLhTvuO9lMyYndr-m5Lw", "full_address": "Hans-Thoma-Stra\u00dfe 6\nBotanischer Garten\n76133 Karlsruhe", "hours": {}, "open": true, "categories": ["Active Life", "Parks"], "city": "Karlsruhe", "review_count": 8, "name": "Botanischer Garten", "neighborhoods": [], "longitude": 8.4002493, "state": "BW", "stars": 5.0, "latitude": 49.0115823, "attributes": {"Good for Kids": true, "Parking": {"garage": false, "validated": false, "street": false, "lot": false, "valet": false}}, "type": "business"}
{"business_id": "qb9ZA9SvLJ4Lhi4LQclseQ", "full_address": "Junker-und-Ruh-Weg\n76135 Karlsruhe", "hours": {}, "open": true, "categories": ["Active Life", "Hotels & Travel", "Parks", "Kids Activities"], "city": "Karlsruhe", "review_count": 15, "name": "G\u00fcnther-Klotz-Anlage", "neighborhoods": [], "longitude": 8.37373, "state": "BW", "stars": 4.5, "latitude": 48.9988, "attributes": {"Good for Kids": true, "Parking": {"garage": false, "validated": false, "street": false, "lot": false, "valet": false}, "Wheelchair Accessible": true, "Price Range": 1}, "type": "business"}
{"business_id": "CpURBK7JfC1j_UzcBiLJgQ", "full_address": "Schlo\u00dfbezirk\n76131 Karlsruhe", "hours": {}, "open": true, "categories": ["Active Life", "Parks"], "city": "Karlsruhe", "review_count": 26, "name": "Schlossgarten", "neighborhoods": [], "longitude": 8.4029521, "state": "BW", "stars": 4.5, "latitude": 49.013063, "attributes": {"Wheelchair Accessible": true, "Good for Kids": true, "Parking": {"garage": false, "validated": false, "street": false, "lot": false, "valet": false}}, "type": "business"}
{"business_id": "4KDLhTvuO9lMyYndr-m5Lw", "full_address": "Hans-Thoma-Stra\u00dfe 6\nBotanischer Garten\n76133 Karlsruhe", "hours": {}, "open": true, "categories": ["Active Life", "Parks"], "city": "Karlsruhe", "review_count": 8, "name": "Botanischer Garten", "neighborhoods": [], "longitude": 8.4002493, "state": "BW", "stars": 5.0, "latitude": 49.0115823, "attributes": {"Good for Kids": true, "Parking": {"garage": false, "validated": false, "street": false, "lot": false, "valet": false}}, "type": "business"}
{"business_id": "qb9ZA9SvLJ4Lhi4LQclseQ", "full_address": "Junker-und-Ruh-Weg\n76135 Karlsruhe", "hours": {}, "open": true, "categories": ["Active Life", "Hotels & Travel", "Parks", "Kids Activities"], "city": "Karlsruhe", "review_count": 15, "name": "G\u00fcnther-Klotz-Anlage", "neighborhoods": [], "longitude": 8.37373, "state": "BW", "stars": 4.5, "latitude": 48.9988, "attributes": {"Good for Kids": true, "Parking": {"garage": false, "validated": false, "street": false, "lot": false, "valet": false}, "Wheelchair Accessible": true, "Price Range": 1}, "type": "business"}
{"business_id": "CpURBK7JfC1j_UzcBiLJgQ", "full_address": "Schlo\u00dfbezirk\n76131 Karlsruhe", "hours": {}, "open": true, "categories": ["Active Life", "Parks"], "city": "Karlsruhe", "review_count": 26, "name": "Schlossgarten", "neighborhoods": [], "longitude": 8.4029521, "state": "BW", "stars": 4.5, "latitude": 49.013063, "attributes": {"Wheelchair Accessible": true, "Good for Kids": true, "Parking": {"garage": false, "validated": false, "street": false, "lot": false, "valet": false}}, "type": "business"}
{"business_id": "4KDLhTvuO9lMyYndr-m5Lw", "full_address": "Hans-Thoma-Stra\u00dfe 6\nBotanischer Garten\n76133 Karlsruhe", "hours": {}, "open": true, "categories": ["Active Life", "Parks"], "city": "Karlsruhe", "review_count": 8, "name": "Botanischer Garten", "neighborhoods": [], "longitude": 8.4002493, "state": "BW", "stars": 5.0, "latitude": 49.0115823, "attributes": {"Good for Kids": true, "Parking": {"garage": false, "validated": false, "street": false, "lot": false, "valet": false}}, "type": "business"}
{"business_id": "qb9ZA9SvLJ4Lhi4LQclseQ", "full_address": "Junker-und-Ruh-Weg\n76135 Karlsruhe", "hours": {}, "open": true, "categories": ["Active Life", "Hotels & Travel", "Parks", "Kids Activities"], "city": "Karlsruhe", "review_count": 15, "name": "G\u00fcnther-Klotz-Anlage", "neighborhoods": [], "longitude": 8.37373, "state": "BW", "stars": 4.5, "latitude": 48.9988, "attributes": {"Good for Kids": true, "Parking": {"garage": false, "validated": false, "street": false, "lot": false, "valet": false}, "Wheelchair Accessible": true, "Price Range": 1}, "type": "business"}
{"business_id": "CpURBK7JfC1j_UzcBiLJgQ", "full_address": "Schlo\u00dfbezirk\n76131 Karlsruhe", "hours": {}, "open": true, "categories": ["Active Life", "Parks"], "city": "Karlsruhe", "review_count": 26, "name": "Schlossgarten", "neighborhoods": [], "longitude": 8.4029521, "state": "BW", "stars": 4.5, "latitude": 49.013063, "attributes": {"Wheelchair Accessible": true, "Good for Kids": true, "Parking": {"garage": false, "validated": false, "street": false, "lot": false, "valet": false}}, "type": "business"}
{"business_id": "4KDLhTvuO9lMyYndr-m5Lw", "full_address": "Hans-Thoma-Stra\u00dfe 6\nBotanischer Garten\n76133 Karlsruhe", "hours": {}, "open": true, "categories": ["Active Life", "Parks"], "city": "Karlsruhe", "review_count": 8, "name": "Botanischer Garten", "neighborhoods": [], "longitude": 8.4002493, "state": "BW", "stars": 5.0, "latitude": 49.0115823, "attributes": {"Good for Kids": true, "Parking": {"garage": false, "validated": false, "street": false, "lot": false, "valet": false}}, "type": "business"}
