{"business_id": "5bxJ4vlqgYcY4YphULphsQ", "full_address": "Gerwigstr. 41\n76131 Karlsruhe", "hours": {}, "open": true, "categories": ["Food", "Specialty Food", "Meat Shops"], "city": "Karlsruhe", "review_count": 5, "name": "Heinz B\u00e4\u00dfler", "neighborhoods": [], "longitude": 8.42966, "state": "BW", "stars": 3.5, "latitude": 49.0086, "attributes": {"Parking": {"garage": false, "validated": false, "street": false, "lot": false, "valet": false}, "Wheelchair Accessible": false, "Price Range": 1}, "type": "business"}
{"business_id": "VEa1bofX2Lx1Tucw0zEg3Q", "full_address": "Klauprechtstr. 25\n76137 Karlsruhe", "hours": {"Tuesday": {"close": "18:30", "open": "15:00"}, "Friday": {"close": "18:30", "open": "15:00"}, "Wednesday": {"close": "18:30", "open": "15:00"}, "Thursday": {"close": "18:30", "open": "15:00"}, "Saturday": {"close": "12:30", "open": "07:30"}}, "open": true, "categories": ["Food", "Specialty Food", "Caterers", "Meat Shops", "Event Planning & Services"], "city": "Karlsruhe", "review_count": 13, "name": "Metzgerei Heiko Brath", "neighborhoods": [], "longitude": 8.39112, "state": "BW", "stars": 5.0, "latitude": 49.0009, "attributes": {"Accepts Credit Cards": false, "Price Range": 2}, "type": "business"}
{"business_id": "PFEdj4zy3rD0wbHeEVaCDw", "full_address": "Schillerstr. 35\nUngarische Spezialit\u00e4ten\n76135 Karlsruhe", "hours": {}, "open": true, "categories": ["Food", "Specialty Food", "Meat Shops"], "city": "Karlsruhe", "review_count": 4, "name": "Fleischerfachgesch\u00e4ft Konrad Floc", "neighborhoods": [], "longitude": 8.3831667, "state": "BW", "stars": 5.0, "latitude": 48.9922913, "attributes": {"Parking": {"garage": false, "validated": false, "street": false, "lot": false, "valet": false}, "Wheelchair Accessible": false, "Price Range": 1}, "type": "business"}
{"business_id": "Jlj-EGnDvkcEpS3k2AX9QQ", "full_address": "N\u00fcrnberger Str. 11\n76199 Karlsruhe", "hours": {}, "open": true, "categories": ["Food", "Specialty Food", "Meat Shops"], "city": "Karlsruhe", "review_count": 3, "name": "Sack Metzgerei", "neighborhoods": [], "longitude": 8.40076, "state": "BW", "stars": 4.5, "latitude": 48.9846, "attributes": {"Price Range": 3}, "type": "business"}
{"business_id": "JxsRmp1bIRA9YAJYYrvFqg", "full_address": "Erbprinzenstr. 23\n76133 Karlsruhe", "hours": {}, "open": true, "categories": ["Food", "Specialty Food", "Meat Shops"], "city": "Karlsruhe", "review_count": 6, "name": "Metzgerei F\u00e4chergrill Alfred Windt", "neighborhoods": [], "longitude": 8.39761, "state": "BW", "stars": 4.0, "latitude": 49.0087, "attributes": {}, "type": "business"}
{"business_id": "hZQU4GhAG2WrJmNAZ0_gxg", "full_address": "Nelkenstr. 31\n76135 Karlsruhe", "hours": {"Monday": {"close": "18:00", "open": "15:00"}, "Tuesday": {"close": "18:00", "open": "15:00"}, "Friday": {"close": "18:00", "open": "15:00"}, "Wednesday": {"close": "13:00", "open": "08:00"}, "Thursday": {"close": "18:00", "open": "15:00"}, "Saturday": {"close": "13:00", "open": "08:00"}}, "open": true, "categories": ["Food", "Specialty Food", "Meat Shops"], "city": "Karlsruhe", "review_count": 10, "name": "Zehnbauer", "neighborhoods": [], "longitude": 8.37607, "state": "BW", "stars": 4.0, "latitude": 49.0086, "attributes": {"Price Range": 4}, "type": "business"}
{"business_id": "gD8p1LEbAwxtIQM5vrGBYw", "full_address": "Marktplatz 6\n76356 Weingarten", "hours": {}, "open": true, "categories": ["Food", "Specialty Food", "Meat Shops"], "city": "Weingarten", "review_count": 3, "name": "Metzgerei Wolfgang Dittes", "neighborhoods": [], "longitude": 8.5317, "state": "BW", "stars": 3.5, "latitude": 49.0514, "attributes": {"Parking": {"garage": false, "validated": false, "street": false, "lot": false, "valet": false}, "Wheelchair Accessible": true, "Price Range": 4}, "type": "business"}
{"business_id": "YEFiDsEOdEBbbQVgkIg8_g", "full_address": "Karlstr. 61\n76133 Karlsruhe", "hours": {"Monday": {"close": "18:00", "open": "08:30"}, "Friday": {"close": "18:00", "open": "08:30"}, "Wednesday": {"close": "18:00", "open": "08:30"}, "Thursday": {"close": "18:00", "open": "08:30"}, "Sunday": {"close": "18:00", "open": "10:00"}, "Saturday": {"close": "18:00", "open": "08:30"}}, "open": true, "categories": ["Food", "Desserts", "Specialty Food", "Chocolatiers & Shops"], "city": "Karlsruhe", "review_count": 11, "name": "Caf\u00e9 Brenner", "neighborhoods": [], "longitude": 8.39495, "state": "BW", "stars": 3.0, "latitude": 49.0031, "attributes": {"Take-out": true, "Price Range": 2, "Delivery": false, "Dogs Allowed": false, "Outdoor Seating": true, "Parking": {"garage": false, "validated": false, "street": false, "lot": false, "valet": false}, "Smoking": "outdoor", "Accepts Credit Cards": false, "Wheelchair Accessible": true}, "type": "business"}
{"business_id": "jDX_bbjZ-4qHyKY8IE2vvQ", "full_address": "Pfinztalstr. 13\n76227 Karlsruhe", "hours": {}, "open": true, "categories": ["Food", "Specialty Food", "Meat Shops"], "city": "Karlsruhe", "review_count": 4, "name": "Metzgerei Sack", "neighborhoods": [], "longitude": 8.4727895, "state": "BW", "stars": 5.0, "latitude": 48.9991, "attributes": {"Parking": {"garage": false, "street": false, "validated": false, "lot": false, "valet": false}, "Price Range": 3}, "type": "business"}
{"business_id": "V2sfga9fwgmwpFELSWrQCw", "full_address": "Bahnhofstr. 5\n76356 Weingarten", "hours": {}, "open": true, "categories": ["Children's Clothing", "Fashion", "Shopping", "Food", "Chocolatiers & Shops", "Specialty Food"], "city": "Weingarten", "review_count": 4, "name": "La Casetta del Caff\u00e9", "neighborhoods": [], "longitude": 8.53132, "state": "BW", "stars": 4.0, "latitude": 49.0515, "attributes": {"Parking": {"garage": false, "validated": false, "street": false, "lot": false, "valet": false}, "Price Range": 1}, "type": "business"}
{"business_id": "MOM_hUdqkA7rCN0Tg6c7GQ", "full_address": "Erbprinzenstr. 27\n76133 Karlsruhe", "hours": {}, "open": true, "categories": ["Health Markets", "Food", "Specialty Food"], "city": "Karlsruhe", "review_count": 7, "name": "F\u00fcllhorn Karlsruhe Naturkost u. Naturwaren Handels", "neighborhoods": [], "longitude": 8.39705, "state": "BW", "stars": 4.0, "latitude": 49.00868, "attributes": {"Parking": {"garage": false, "street": false, "validated": false, "lot": false, "valet": false}, "Accepts Credit Cards": true, "Price Range": 3}, "type": "business"}
{"business_id": "l-pMt_YiLJXUGMeQOdtd_g", "full_address": "Werderstr.34\n76137 Karlsruhe", "hours": {}, "open": true, "categories": ["Food", "Specialty Food", "Coffee & Tea", "Desserts", "Chocolatiers & Shops"], "city": "Karlsruhe", "review_count": 7, "name": "Zuckerbecker", "neighborhoods": [], "longitude": 8.406358, "state": "BW", "stars": 5.0, "latitude": 49.0013779, "attributes": {"Price Range": 3}, "type": "business"}
{"business_id": "vuczGNr6J88hTboUQQSh_w", "full_address": "Ettlinger-Tor-Platz 1\nErdgeschoss im Ece\n76133 Karlsruhe", "hours": {}, "open": true, "categories": ["Food", "Specialty Food", "Meat Shops"], "city": "Karlsruhe", "review_count": 5, "name": "Knolli - Chicken & Chips", "neighborhoods": [], "longitude": 8.393843, "state": "BW", "stars": 2.0, "latitude": 49.0067498, "attributes": {"Parking": {"garage": false, "street": false, "validated": false, "lot": false, "valet": false}, "Accepts Credit Cards": false, "Price Range": 1}, "type": "business"}
{"business_id": "QX4eqLqfkmBVPGQana7Y4g", "full_address": "Am Rathausplatz 3\n76356 Weingarten", "hours": {}, "open": true, "categories": ["Food", "Specialty Food", "Caterers", "Meat Shops", "Event Planning & Services"], "city": "Weingarten", "review_count": 7, "name": "Metzgerei Kunzmann", "neighborhoods": [], "longitude": 8.53058, "state": "BW", "stars": 4.5, "latitude": 49.052, "attributes": {"Wheelchair Accessible": true, "Price Range": 4}, "type": "business"}
{"business_id": "XJGMtkWT1d-SFYQlkYOXJA", "full_address": "Kaiserstra\u00dfe 223 223c\nSparkassengeb\u00e4ude\n76133 Karlsruhe", "hours": {"Monday": {"close": "19:00", "open": "10:00"}, "Tuesday": {"close": "19:00", "open": "10:00"}, "Friday": {"close": "19:00", "open": "10:00"}, "Wednesday": {"close": "19:00", "open": "10:00"}, "Thursday": {"close": "19:00", "open": "10:00"}, "Saturday": {"close": "18:00", "open": "10:00"}}, "open": true, "categories": ["Food", "Specialty Food", "Chocolatiers & Shops"], "city": "Karlsruhe", "review_count": 4, "name": "Gummi-B\u00e4ren-Land", "neighborhoods": [], "longitude": 8.393843, "state": "BW", "stars": 5.0, "latitude": 49.0067498, "attributes": {"Parking": {"garage": false, "validated": false, "street": false, "lot": false, "valet": false}, "Wheelchair Accessible": true, "Price Range": 1}, "type": "business"}
{"business_id": "41tFQSXt68OyPDbm3GAQdQ", "full_address": "Douglasstr. 12-14\n76133 Karlsruhe", "hours": {"Monday": {"close": "22:00", "open": "11:00"}, "Tuesday": {"close": "22:00", "open": "11:00"}, "Friday": {"close": "22:00", "open": "11:00"}, "Wednesday": {"close": "22:00", "open": "11:00"}, "Thursday": {"close": "22:00", "open": "11:00"}, "Saturday": {"close": "22:00", "open": "12:00"}}, "open": true, "categories": ["Food", "Specialty Food", "Thai", "Asian Fusion", "Restaurants"], "city": "Karlsruhe", "review_count": 34, "name": "Bangkok Foodland", "neighborhoods": [], "longitude": 8.393407, "state": "BW", "stars": 4.0, "latitude": 49.010514, "attributes": {"Take-out": true, "Wi-Fi": "no", "Good For": {"dessert": false, "latenight": false, "lunch": false, "dinner": false, "brunch": false, "breakfast": false}, "Noise Level": "average", "Takes Reservations": true, "Has TV": true, "Smoking": "outdoor", "Delivery": false, "Ambience": {"romantic": false, "intimate": false, "classy": false, "upscale": false, "touristy": false, "trendy": false, "hipster": false, "casual": false}, "Parking": {"garage": false, "validated": false, "street": false, "lot": false, "valet": false}, "Wheelchair Accessible": false, "Outdoor Seating": false, "Attire": "casual", "Alcohol": "full_bar", "Waiter Service": true, "Accepts Credit Cards": false, "Good for Kids": true, "Good For Groups": true, "Price Range": 1}, "type": "business"}
{"business_id": "k3anEHyapYdF6w8AlGYTzA", "full_address": "Kaiserstr. 82\n76133 Karlsruhe", "hours": {}, "open": true, "categories": ["Food", "Specialty Food", "Chocolatiers & Shops"], "city": "Karlsruhe", "review_count": 3, "name": "L\u00e4derach", "neighborhoods": [], "longitude": 8.40318, "state": "BW", "stars": 3.5, "latitude": 49.0097, "attributes": {"Price Range": 4}, "type": "business"}
{"business_id": "4yesmwc2ySsEetCAcDvv4Q", "full_address": "Hebelstr. 21\n76133 Karlsruhe", "hours": {}, "open": true, "categories": ["Food", "Specialty Food", "Chocolatiers & Shops"], "city": "Karlsruhe", "review_count": 4, "name": "Pralina", "neighborhoods": [], "longitude": 8.40257, "state": "BW", "stars": 5.0, "latitude": 49.0082, "attributes": {"Price Range": 3}, "type": "business"}
{"business_id": "5bxJ4vlqgYcY4YphULphsQ", "full_address": "Gerwigstr. 41\n76131 Karlsruhe", "hours": {}, "open": true, "categories": ["Food", "Specialty Food", "Meat Shops"], "city": "Karlsruhe", "review_count": 5, "name": "Heinz B\u00e4\u00dfler", "neighborhoods": [], "longitude": 8.42966, "state": "BW", "stars": 3.5, "latitude": 49.0086, "attributes": {"Parking": {"garage": false, "validated": false, "street": false, "lot": false, "valet": false}, "Wheelchair Accessible": false, "Price Range": 1}, "type": "business"}
{"business_id": "VEa1bofX2Lx1Tucw0zEg3Q", "full_address": "Klauprechtstr. 25\n76137 Karlsruhe", "hours": {"Tuesday": {"close": "18:30", "open": "15:00"}, "Friday": {"close": "18:30", "open": "15:00"}, "Wednesday": {"close": "18:30", "open": "15:00"}, "Thursday": {"close": "18:30", "open": "15:00"}, "Saturday": {"close": "12:30", "open": "07:30"}}, "open": true, "categories": ["Food", "Specialty Food", "Caterers", "Meat Shops", "Event Planning & Services"], "city": "Karlsruhe", "review_count": 13, "name": "Metzgerei Heiko Brath", "neighborhoods": [], "longitude": 8.39112, "state": "BW", "stars": 5.0, "latitude": 49.0009, "attributes": {"Accepts Credit Cards": false, "Price Range": 2}, "type": "business"}
{"business_id": "PFEdj4zy3rD0wbHeEVaCDw", "full_address": "Schillerstr. 35\nUngarische Spezialit\u00e4ten\n76135 Karlsruhe", "hours": {}, "open": true, "categories": ["Food", "Specialty Food", "Meat Shops"], "city": "Karlsruhe", "review_count": 4, "name": "Fleischerfachgesch\u00e4ft Konrad Floc", "neighborhoods": [], "longitude": 8.3831667, "state": "BW", "stars": 5.0, "latitude": 48.9922913, "attributes": {"Parking": {"garage": false, "validated": false, "street": false, "lot": false, "valet": false}, "Wheelchair Accessible": false, "Price Range": 1}, "type": "business"}
{"business_id": "Jlj-EGnDvkcEpS3k2AX9QQ", "full_address": "N\u00fcrnberger Str. 11\n76199 Karlsruhe", "hours": {}, "open": true, "categories": ["Food", "Specialty Food", "Meat Shops"], "city": "Karlsruhe", "review_count": 3, "name": "Sack Metzgerei", "neighborhoods": [], "longitude": 8.40076, "state": "BW", "stars": 4.5, "latitude": 48.9846, "attributes": {"Price Range": 3}, "type": "business"}
{"business_id": "JxsRmp1bIRA9YAJYYrvFqg", "full_address": "Erbprinzenstr. 23\n76133 Karlsruhe", "hours": {}, "open": true, "categories": ["Food", "Specialty Food", "Meat Shops"], "city": "Karlsruhe", "review_count": 6, "name": "Metzgerei F\u00e4chergrill Alfred Windt", "neighborhoods": [], "longitude": 8.39761, "state": "BW", "stars": 4.0, "latitude": 49.0087, "attributes": {}, "type": "business"}
{"business_id": "hZQU4GhAG2WrJmNAZ0_gxg", "full_address": "Nelkenstr. 31\n76135 Karlsruhe", "hours": {"Monday": {"close": "18:00", "open": "15:00"}, "Tuesday": {"close": "18:00", "open": "15:00"}, "Friday": {"close": "18:00", "open": "15:00"}, "Wednesday": {"close": "13:00", "open": "08:00"}, "Thursday": {"close": "18:00", "open": "15:00"}, "Saturday": {"close": "13:00", "open": "08:00"}}, "open": true, "categories": ["Food", "Specialty Food", "Meat Shops"], "city": "Karlsruhe", "review_count": 10, "name": "Zehnbauer", "neighborhoods": [], "longitude": 8.37607, "state": "BW", "stars": 4.0, "latitude": 49.0086, "attributes": {"Price Range": 4}, "type": "business"}
{"business_id": "gD8p1LEbAwxtIQM5vrGBYw", "full_address": "Marktplatz 6\n76356 Weingarten", "hours": {}, "open": true, "categories": ["Food", "Specialty Food", "Meat Shops"], "city": "Weingarten", "review_count": 3, "name": "Metzgerei Wolfgang Dittes", "neighborhoods": [], "longitude": 8.5317, "state": "BW", "stars": 3.5, "latitude": 49.0514, "attributes": {"Parking": {"garage": false, "validated": false, "street": false, "lot": false, "valet": false}, "Wheelchair Accessible": true, "Price Range": 4}, "type": "business"}
{"business_id": "YEFiDsEOdEBbbQVgkIg8_g", "full_address": "Karlstr. 61\n76133 Karlsruhe", "hours": {"Monday": {"close": "18:00", "open": "08:30"}, "Friday": {"close": "18:00", "open": "08:30"}, "Wednesday": {"close": "18:00", "open": "08:30"}, "Thursday": {"close": "18:00", "open": "08:30"}, "Sunday": {"close": "18:00", "open": "10:00"}, "Saturday": {"close": "18:00", "open": "08:30"}}, "open": true, "categories": ["Food", "Desserts", "Specialty Food", "Chocolatiers & Shops"], "city": "Karlsruhe", "review_count": 11, "name": "Caf\u00e9 Brenner", "neighborhoods": [], "longitude": 8.39495, "state": "BW", "stars": 3.0, "latitude": 49.0031, "attributes": {"Take-out": true, "Price Range": 2, "Delivery": false, "Dogs Allowed": false, "Outdoor Seating": true, "Parking": {"garage": false, "validated": false, "street": false, "lot": false, "valet": false}, "Smoking": "outdoor", "Accepts Credit Cards": false, "Wheelchair Accessible": true}, "type": "business"}
{"business_id": "jDX_bbjZ-4qHyKY8IE2vvQ", "full_address": "Pfinztalstr. 13\n76227 Karlsruhe", "hours": {}, "open": true, "categories": ["Food", "Specialty Food", "Meat Shops"], "city": "Karlsruhe", "review_count": 4, "name": "Metzgerei Sack", "neighborhoods": [], "longitude": 8.4727895, "state": "BW", "stars": 5.0, "latitude": 48.9991, "attributes": {"Parking": {"garage": false, "street": false, "validated": false, "lot": false, "valet": false}, "Price Range": 3}, "type": "business"}
{"business_id": "V2sfga9fwgmwpFELSWrQCw", "full_address": "Bahnhofstr. 5\n76356 Weingarten", "hours": {}, "open": true, "categories": ["Children's Clothing", "Fashion", "Shopping", "Food", "Chocolatiers & Shops", "Specialty Food"], "city": "Weingarten", "review_count": 4, "name": "La Casetta del Caff\u00e9", "neighborhoods": [], "longitude": 8.53132, "state": "BW", "stars": 4.0, "latitude": 49.0515, "attributes": {"Parking": {"garage": false, "validated": false, "street": false, "lot": false, "valet": false}, "Price Range": 1}, "type": "business"}
{"business_id": "MOM_hUdqkA7rCN0Tg6c7GQ", "full_address": "Erbprinzenstr. 27\n76133 Karlsruhe", "hours": {}, "open": true, "categories": ["Health Markets", "Food", "Specialty Food"], "city": "Karlsruhe", "review_count": 7, "name": "F\u00fcllhorn Karlsruhe Naturkost u. Naturwaren Handels", "neighborhoods": [], "longitude": 8.39705, "state": "BW", "stars": 4.0, "latitude": 49.00868, "attributes": {"Parking": {"garage": false, "street": false, "validated": false, "lot": false, "valet": false}, "Accepts Credit Cards": true, "Price Range": 3}, "type": "business"}
{"business_id": "l-pMt_YiLJXUGMeQOdtd_g", "full_address": "Werderstr.34\n76137 Karlsruhe", "hours": {}, "open": true, "categories": ["Food", "Specialty Food", "Coffee & Tea", "Desserts", "Chocolatiers & Shops"], "city": "Karlsruhe", "review_count": 7, "name": "Zuckerbecker", "neighborhoods": [], "longitude": 8.406358, "state": "BW", "stars": 5.0, "latitude": 49.0013779, "attributes": {"Price Range": 3}, "type": "business"}
{"business_id": "vuczGNr6J88hTboUQQSh_w", "full_address": "Ettlinger-Tor-Platz 1\nErdgeschoss im Ece\n76133 Karlsruhe", "hours": {}, "open": true, "categories": ["Food", "Specialty Food", "Meat Shops"], "city": "Karlsruhe", "review_count": 5, "name": "Knolli - Chicken & Chips", "neighborhoods": [], "longitude": 8.393843, "state": "BW", "stars": 2.0, "latitude": 49.0067498, "attributes": {"Parking": {"garage": false, "street": false, "validated": false, "lot": false, "valet": false}, "Accepts Credit Cards": false, "Price Range": 1}, "type": "business"}
{"business_id": "QX4eqLqfkmBVPGQana7Y4g", "full_address": "Am Rathausplatz 3\n76356 Weingarten", "hours": {}, "open": true, "categories": ["Food", "Specialty Food", "Caterers", "Meat Shops", "Event Planning & Services"], "city": "Weingarten", "review_count": 7, "name": "Metzgerei Kunzmann", "neighborhoods": [], "longitude": 8.53058, "state": "BW", "stars": 4.5, "latitude": 49.052, "attributes": {"Wheelchair Accessible": true, "Price Range": 4}, "type": "business"}
{"business_id": "XJGMtkWT1d-SFYQlkYOXJA", "full_address": "Kaiserstra\u00dfe 223 223c\nSparkassengeb\u00e4ude\n76133 Karlsruhe", "hours": {"Monday": {"close": "19:00", "open": "10:00"}, "Tuesday": {"close": "19:00", "open": "10:00"}, "Friday": {"close": "19:00", "open": "10:00"}, "Wednesday": {"close": "19:00", "open": "10:00"}, "Thursday": {"close": "19:00", "open": "10:00"}, "Saturday": {"close": "18:00", "open": "10:00"}}, "open": true, "categories": ["Food", "Specialty Food", "Chocolatiers & Shops"], "city": "Karlsruhe", "review_count": 4, "name": "Gummi-B\u00e4ren-Land", "neighborhoods": [], "longitude": 8.393843, "state": "BW", "stars": 5.0, "latitude": 49.0067498, "attributes": {"Parking": {"garage": false, "validated": false, "street": false, "lot": false, "valet": false}, "Wheelchair Accessible": true, "Price Range": 1}, "type": "business"}
{"business_id": "41tFQSXt68OyPDbm3GAQdQ", "full_address": "Douglasstr. 12-14\n76133 Karlsruhe", "hours": {"Monday": {"close": "22:00", "open": "11:00"}, "Tuesday": {"close": "22:00", "open": "11:00"}, "Friday": {"close": "22:00", "open": "11:00"}, "Wednesday": {"close": "22:00", "open": "11:00"}, "Thursday": {"close": "22:00", "open": "11:00"}, "Saturday": {"close": "22:00", "open": "12:00"}}, "open": true, "categories": ["Food", "Specialty Food", "Thai", "Asian Fusion", "Restaurants"], "city": "Karlsruhe", "review_count": 34, "name": "Bangkok Foodland", "neighborhoods": [], "longitude": 8.393407, "state": "BW", "stars": 4.0, "latitude": 49.010514, "attributes": {"Take-out": true, "Wi-Fi": "no", "Good For": {"dessert": false, "latenight": false, "lunch": false, "dinner": false, "brunch": false, "breakfast": false}, "Noise Level": "average", "Takes Reservations": true, "Has TV": true, "Smoking": "outdoor", "Delivery": false, "Ambience": {"romantic": false, "intimate": false, "classy": false, "upscale": false, "touristy": false, "trendy": false, "hipster": false, "casual": false}, "Parking": {"garage": false, "validated": false, "street": false, "lot": false, "valet": false}, "Wheelchair Accessible": false, "Outdoor Seating": false, "Attire": "casual", "Alcohol": "full_bar", "Waiter Service": true, "Accepts Credit Cards": false, "Good for Kids": true, "Good For Groups": true, "Price Range": 1}, "type": "business"}
{"business_id": "k3anEHyapYdF6w8AlGYTzA", "full_address": "Kaiserstr. 82\n76133 Karlsruhe", "hours": {}, "open": true, "categories": ["Food", "Specialty Food", "Chocolatiers & Shops"], "city": "Karlsruhe", "review_count": 3, "name": "L\u00e4derach", "neighborhoods": [], "longitude": 8.40318, "state": "BW", "stars": 3.5, "latitude": 49.0097, "attributes": {"Price Range": 4}, "type": "business"}
{"business_id": "4yesmwc2ySsEetCAcDvv4Q", "full_address": "Hebelstr. 21\n76133 Karlsruhe", "hours": {}, "open": true, "categories": ["Food", "Specialty Food", "Chocolatiers & Shops"], "city": "Karlsruhe", "review_count": 4, "name": "Pralina", "neighborhoods": [], "longitude": 8.40257, "state": "BW", "stars": 5.0, "latitude": 49.0082, "attributes": {"Price Range": 3}, "type": "business"}
{"business_id": "5bxJ4vlqgYcY4YphULphsQ", "full_address": "Gerwigstr. 41\n76131 Karlsruhe", "hours": {}, "open": true, "categories": ["Food", "Specialty Food", "Meat Shops"], "city": "Karlsruhe", "review_count": 5, "name": "Heinz B\u00e4\u00dfler", "neighborhoods": [], "longitude": 8.42966, "state": "BW", "stars": 3.5, "latitude": 49.0086, "attributes": {"Parking": {"garage": false, "validated": false, "street": false, "lot": false, "valet": false}, "Wheelchair Accessible": false, "Price Range": 1}, "type": "business"}
{"business_id": "VEa1bofX2Lx1Tucw0zEg3Q", "full_address": "Klauprechtstr. 25\n76137 Karlsruhe", "hours": {"Tuesday": {"close": "18:30", "open": "15:00"}, "Friday": {"close": "18:30", "open": "15:00"}, "Wednesday": {"close": "18:30", "open": "15:00"}, "Thursday": {"close": "18:30", "open": "15:00"}, "Saturday": {"close": "12:30", "open": "07:30"}}, "open": true, "categories": ["Food", "Specialty Food", "Caterers", "Meat Shops", "Event Planning & Services"], "city": "Karlsruhe", "review_count": 13, "name": "Metzgerei Heiko Brath", "neighborhoods": [], "longitude": 8.39112, "state": "BW", "stars": 5.0, "latitude": 49.0009, "attributes": {"Accepts Credit Cards": false, "Price Range": 2}, "type": "business"}
{"business_id": "PFEdj4zy3rD0wbHeEVaCDw", "full_address": "Schillerstr. 35\nUngarische Spezialit\u00e4ten\n76135 Karlsruhe", "hours": {}, "open": true, "categories": ["Food", "Specialty Food", "Meat Shops"], "city": "Karlsruhe", "review_count": 4, "name": "Fleischerfachgesch\u00e4ft Konrad Floc", "neighborhoods": [], "longitude": 8.3831667, "state": "BW", "stars": 5.0, "latitude": 48.9922913, "attributes": {"Parking": {"garage": false, "validated": false, "street": false, "lot": false, "valet": false}, "Wheelchair Accessible": false, "Price Range": 1}, "type": "business"}
{"business_id": "Jlj-EGnDvkcEpS3k2AX9QQ", "full_address": "N\u00fcrnberger Str. 11\n76199 Karlsruhe", "hours": {}, "open": true, "categories": ["Food", "Specialty Food", "Meat Shops"], "city": "Karlsruhe", "review_count": 3, "name": "Sack Metzgerei", "neighborhoods": [], "longitude": 8.40076, "state": "BW", "stars": 4.5, "latitude": 48.9846, "attributes": {"Price Range": 3}, "type": "business"}
{"business_id": "JxsRmp1bIRA9YAJYYrvFqg", "full_address": "Erbprinzenstr. 23\n76133 Karlsruhe", "hours": {}, "open": true, "categories": ["Food", "Specialty Food", "Meat Shops"], "city": "Karlsruhe", "review_count": 6, "name": "Metzgerei F\u00e4chergrill Alfred Windt", "neighborhoods": [], "longitude": 8.39761, "state": "BW", "stars": 4.0, "latitude": 49.0087, "attributes": {}, "type": "business"}
{"business_id": "hZQU4GhAG2WrJmNAZ0_gxg", "full_address": "Nelkenstr. 31\n76135 Karlsruhe", "hours": {"Monday": {"close": "18:00", "open": "15:00"}, "Tuesday": {"close": "18:00", "open": "15:00"}, "Friday": {"close": "18:00", "open": "15:00"}, "Wednesday": {"close": "13:00", "open": "08:00"}, "Thursday": {"close": "18:00", "open": "15:00"}, "Saturday": {"close": "13:00", "open": "08:00"}}, "open": true, "categories": ["Food", "Specialty Food", "Meat Shops"], "city": "Karlsruhe", "review_count": 10, "name": "Zehnbauer", "neighborhoods": [], "longitude": 8.37607, "state": "BW", "stars": 4.0, "latitude": 49.0086, "attributes": {"Price Range": 4}, "type": "business"}
{"business_id": "gD8p1LEbAwxtIQM5vrGBYw", "full_address": "Marktplatz 6\n76356 Weingarten", "hours": {}, "open": true, "categories": ["Food", "Specialty Food", "Meat Shops"], "city": "Weingarten", "review_count": 3, "name": "Metzgerei Wolfgang Dittes", "neighborhoods": [], "longitude": 8.5317, "state": "BW", "stars": 3.5, "latitude": 49.0514, "attributes": {"Parking": {"garage": false, "validated": false, "street": false, "lot": false, "valet": false}, "Wheelchair Accessible": true, "Price Range": 4}, "type": "business"}
{"business_id": "YEFiDsEOdEBbbQVgkIg8_g", "full_address": "Karlstr. 61\n76133 Karlsruhe", "hours": {"Monday": {"close": "18:00", "open": "08:30"}, "Friday": {"close": "18:00", "open": "08:30"}, "Wednesday": {"close": "18:00", "open": "08:30"}, "Thursday": {"close": "18:00", "open": "08:30"}, "Sunday": {"close": "18:00", "open": "10:00"}, "Saturday": {"close": "18:00", "open": "08:30"}}, "open": true, "categories": ["Food", "Desserts", "Specialty Food", "Chocolatiers & Shops"], "city": "Karlsruhe", "review_count": 11, "name": "Caf\u00e9 Brenner", "neighborhoods": [], "longitude": 8.39495, "state": "BW", "stars": 3.0, "latitude": 49.0031, "attributes": {"Take-out": true, "Price Range": 2, "Delivery": false, "Dogs Allowed": false, "Outdoor Seating": true, "Parking": {"garage": false, "validated": false, "street": false, "lot": false, "valet": false}, "Smoking": "outdoor", "Accepts Credit Cards": false, "Wheelchair Accessible": true}, "type": "business"}
{"business_id": "jDX_bbjZ-4qHyKY8IE2vvQ", "full_address": "Pfinztalstr. 13\n76227 Karlsruhe", "hours": {}, "open": true, "categories": ["Food", "Specialty Food", "Meat Shops"], "city": "Karlsruhe", "review_count": 4, "name": "Metzgerei Sack", "neighborhoods": [], "longitude": 8.4727895, "state": "BW", "stars": 5.0, "latitude": 48.9991, "attributes": {"Parking": {"garage": false, "street": false, "validated": false, "lot": false, "valet": false}, "Price Range": 3}, "type": "business"}
{"business_id": "V2sfga9fwgmwpFELSWrQCw", "full_address": "Bahnhofstr. 5\n76356 Weingarten", "hours": {}, "open": true, "categories": ["Children's Clothing", "Fashion", "Shopping", "Food", "Chocolatiers & Shops", "Specialty Food"], "city": "Weingarten", "review_count": 4, "name": "La Casetta del Caff\u00e9", "neighborhoods": [], "longitude": 8.53132, "state": "BW", "stars": 4.0, "latitude": 49.0515, "attributes": {"Parking": {"garage": false, "validated": false, "street": false, "lot": false, "valet": false}, "Price Range": 1}, "type": "business"}
{"business_id": "MOM_hUdqkA7rCN0Tg6c7GQ", "full_address": "Erbprinzenstr. 27\n76133 Karlsruhe", "hours": {}, "open": true, "categories": ["Health Markets", "Food", "Specialty Food"], "city": "Karlsruhe", "review_count": 7, "name": "F\u00fcllhorn Karlsruhe Naturkost u. Naturwaren Handels", "neighborhoods": [], "longitude": 8.39705, "state": "BW", "stars": 4.0, "latitude": 49.00868, "attributes": {"Parking": {"garage": false, "street": false, "validated": false, "lot": false, "valet": false}, "Accepts Credit Cards": true, "Price Range": 3}, "type": "business"}
{"business_id": "l-pMt_YiLJXUGMeQOdtd_g", "full_address": "Werderstr.34\n76137 Karlsruhe", "hours": {}, "open": true, "categories": ["Food", "Specialty Food", "Coffee & Tea", "Desserts", "Chocolatiers & Shops"], "city": "Karlsruhe", "review_count": 7, "name": "Zuckerbecker", "neighborhoods": [], "longitude": 8.406358, "state": "BW", "stars": 5.0, "latitude": 49.0013779, "attributes": {"Price Range": 3}, "type": "business"}
{"business_id": "vuczGNr6J88hTboUQQSh_w", "full_address": "Ettlinger-Tor-Platz 1\nErdgeschoss im Ece\n76133 Karlsruhe", "hours": {}, "open": true, "categories": ["Food", "Specialty Food", "Meat Shops"], "city": "Karlsruhe", "review_count": 5, "name": "Knolli - Chicken & Chips", "neighborhoods": [], "longitude": 8.393843, "state": "BW", "stars": 2.0, "latitude": 49.0067498, "attributes": {"Parking": {"garage": false, "street": false, "validated": false, "lot": false, "valet": false}, "Accepts Credit Cards": false, "Price Range": 1}, "type": "business"}
{"business_id": "QX4eqLqfkmBVPGQana7Y4g", "full_address": "Am Rathausplatz 3\n76356 Weingarten", "hours": {}, "open": true, "categories": ["Food", "Specialty Food", "Caterers", "Meat Shops", "Event Planning & Services"], "city": "Weingarten", "review_count": 7, "name": "Metzgerei Kunzmann", "neighborhoods": [], "longitude": 8.53058, "state": "BW", "stars": 4.5, "latitude": 49.052, "attributes": {"Wheelchair Accessible": true, "Price Range": 4}, "type": "business"}
{"business_id": "XJGMtkWT1d-SFYQlkYOXJA", "full_address": "Kaiserstra\u00dfe 223 223c\nSparkassengeb\u00e4ude\n76133 Karlsruhe", "hours": {"Monday": {"close": "19:00", "open": "10:00"}, "Tuesday": {"close": "19:00", "open": "10:00"}, "Friday": {"close": "19:00", "open": "10:00"}, "Wednesday": {"close": "19:00", "open": "10:00"}, "Thursday": {"close": "19:00", "open": "10:00"}, "Saturday": {"close": "18:00", "open": "10:00"}}, "open": true, "categories": ["Food", "Specialty Food", "Chocolatiers & Shops"], "city": "Karlsruhe", "review_count": 4, "name": "Gummi-B\u00e4ren-Land", "neighborhoods": [], "longitude": 8.393843, "state": "BW", "stars": 5.0, "latitude": 49.0067498, "attributes": {"Parking": {"garage": false, "validated": false, "street": false, "lot": false, "valet": false}, "Wheelchair Accessible": true, "Price Range": 1}, "type": "business"}
{"business_id": "41tFQSXt68OyPDbm3GAQdQ", "full_address": "Douglasstr. 12-14\n76133 Karlsruhe", "hours": {"Monday": {"close": "22:00", "open": "11:00"}, "Tuesday": {"close": "22:00", "open": "11:00"}, "Friday": {"close": "22:00", "open": "11:00"}, "Wednesday": {"close": "22:00", "open": "11:00"}, "Thursday": {"close": "22:00", "open": "11:00"}, "Saturday": {"close": "22:00", "open": "12:00"}}, "open": true, "categories": ["Food", "Specialty Food", "Thai", "Asian Fusion", "Restaurants"], "city": "Karlsruhe", "review_count": 34, "name": "Bangkok Foodland", "neighborhoods": [], "longitude": 8.393407, "state": "BW", "stars": 4.0, "latitude": 49.010514, "attributes": {"Take-out": true, "Wi-Fi": "no", "Good For": {"dessert": false, "latenight": false, "lunch": false, "dinner": false, "brunch": false, "breakfast": false}, "Noise Level": "average", "Takes Reservations": true, "Has TV": true, "Smoking": "outdoor", "Delivery": false, "Ambience": {"romantic": false, "intimate": false, "classy": false, "upscale": false, "touristy": false, "trendy": false, "hipster": false, "casual": false}, "Parking": {"garage": false, "validated": false, "street": false, "lot": false, "valet": false}, "Wheelchair Accessible": false, "Outdoor Seating": false, "Attire": "casual", "Alcohol": "full_bar", "Waiter Service": true, "Accepts Credit Cards": false, "Good for Kids": true, "Good For Groups": true, "Price Range": 1}, "type": "business"}
{"business_id": "k3anEHyapYdF6w8AlGYTzA", "full_address": "Kaiserstr. 82\n76133 Karlsruhe", "hours": {}, "open": true, "categories": ["Food", "Specialty Food", "Chocolatiers & Shops"], "city": "Karlsruhe", "review_count": 3, "name": "L\u00e4derach", "neighborhoods": [], "longitude": 8.40318, "state": "BW", "stars": 3.5, "latitude": 49.0097, "attributes": {"Price Range": 4}, "type": "business"}
{"business_id": "4yesmwc2ySsEetCAcDvv4Q", "full_address": "Hebelstr. 21\n76133 Karlsruhe", "hours": {}, "open": true, "categories": ["Food", "Specialty Food", "Chocolatiers & Shops"], "city": "Karlsruhe", "review_count": 4, "name": "Pralina", "neighborhoods": [], "longitude": 8.40257, "state": "BW", "stars": 5.0, "latitude": 49.0082, "attributes": {"Price Range": 3}, "type": "business"}
{"business_id": "5bxJ4vlqgYcY4YphULphsQ", "full_address": "Gerwigstr. 41\n76131 Karlsruhe", "hours": {}, "open": true, "categories": ["Food", "Specialty Food", "Meat Shops"], "city": "Karlsruhe", "review_count": 5, "name": "Heinz B\u00e4\u00dfler", "neighborhoods": [], "longitude": 8.42966, "state": "BW", "stars": 3.5, "latitude": 49.0086, "attributes": {"Parking": {"garage": false, "validated": false, "street": false, "lot": false, "valet": false}, "Wheelchair Accessible": false, "Price Range": 1}, "type": "business"}
{"business_id": "VEa1bofX2Lx1Tucw0zEg3Q", "full_address": "Klauprechtstr. 25\n76137 Karlsruhe", "hours": {"Tuesday": {"close": "18:30", "open": "15:00"}, "Friday": {"close": "18:30", "open": "15:00"}, "Wednesday": {"close": "18:30", "open": "15:00"}, "Thursday": {"close": "18:30", "open": "15:00"}, "Saturday": {"close": "12:30", "open": "07:30"}}, "open": true, "categories": ["Food", "Specialty Food", "Caterers", "Meat Shops", "Event Planning & Services"], "city": "Karlsruhe", "review_count": 13, "name": "Metzgerei Heiko Brath", "neighborhoods": [], "longitude": 8.39112, "state": "BW", "stars": 5.0, "latitude": 49.0009, "attributes": {"Accepts Credit Cards": false, "Price Range": 2}, "type": "business"}
{"business_id": "PFEdj4zy3rD0wbHeEVaCDw", "full_address": "Schillerstr. 35\nUngarische Spezialit\u00e4ten\n76135 Karlsruhe", "hours": {}, "open": true, "categories": ["Food", "Specialty Food", "Meat Shops"], "city": "Karlsruhe", "review_count": 4, "name": "Fleischerfachgesch\u00e4ft Konrad Floc", "neighborhoods": [], "longitude": 8.3831667, "state": "BW", "stars": 5.0, "latitude": 48.9922913, "attributes": {"Parking": {"garage": false, "validated": false, "street": false, "lot": false, "valet": false}, "Wheelchair Accessible": false, "Price Range": 1}, "type": "business"}
{"business_id": "Jlj-EGnDvkcEpS3k2AX9QQ", "full_address": "N\u00fcrnberger Str. 11\n76199 Karlsruhe", "hours": {}, "open": true, "categories": ["Food", "Specialty Food", "Meat Shops"], "city": "Karlsruhe", "review_count": 3, "name": "Sack Metzgerei", "neighborhoods": [], "longitude": 8.40076, "state": "BW", "stars": 4.5, "latitude": 48.9846, "attributes": {"Price Range": 3}, "type": "business"}
{"business_id": "JxsRmp1bIRA9YAJYYrvFqg", "full_address": "Erbprinzenstr. 23\n76133 Karlsruhe", "hours": {}, "open": true, "categories": ["Food", "Specialty Food", "Meat Shops"], "city": "Karlsruhe", "review_count": 6, "name": "Metzgerei F\u00e4chergrill Alfred Windt", "neighborhoods": [], "longitude": 8.39761, "state": "BW", "stars": 4.0, "latitude": 49.0087, "attributes": {}, "type": "business"}
{"business_id": "hZQU4GhAG2WrJmNAZ0_gxg", "full_address": "Nelkenstr. 31\n76135 Karlsruhe", "hours": {"Monday": {"close": "18:00", "open": "15:00"}, "Tuesday": {"close": "18:00", "open": "15:00"}, "Friday": {"close": "18:00", "open": "15:00"}, "Wednesday": {"close": "13:00", "open": "08:00"}, "Thursday": {"close": "18:00", "open": "15:00"}, "Saturday": {"close": "13:00", "open": "08:00"}}, "open": true, "categories": ["Food", "Specialty Food", "Meat Shops"], "city": "Karlsruhe", "review_count": 10, "name": "Zehnbauer", "neighborhoods": [], "longitude": 8.37607, "state": "BW", "stars": 4.0, "latitude": 49.0086, "attributes": {"Price Range": 4}, "type": "business"}
{"business_id": "gD8p1LEbAwxtIQM5vrGBYw", "full_address": "Marktplatz 6\n76356 Weingarten", "hours": {}, "open": true, "categories": ["Food", "Specialty Food", "Meat Shops"], "city": "Weingarten", "review_count": 3, "name": "Metzgerei Wolfgang Dittes", "neighborhoods": [], "longitude": 8.5317, "state": "BW", "stars": 3.5, "latitude": 49.0514, "attributes": {"Parking": {"garage": false, "validated": false, "street": false, "lot": false, "valet": false}, "Wheelchair Accessible": true, "Price Range": 4}, "type": "business"}
{"business_id": "YEFiDsEOdEBbbQVgkIg8_g", "full_address": "Karlstr. 61\n76133 Karlsruhe", "hours": {"Monday": {"close": "18:00", "open": "08:30"}, "Friday": {"close": "18:00", "open": "08:30"}, "Wednesday": {"close": "18:00", "open": "08:30"}, "Thursday": {"close": "18:00", "open": "08:30"}, "Sunday": {"close": "18:00", "open": "10:00"}, "Saturday": {"close": "18:00", "open": "08:30"}}, "open": true, "categories": ["Food", "Desserts", "Specialty Food", "Chocolatiers & Shops"], "city": "Karlsruhe", "review_count": 11, "name": "Caf\u00e9 Brenner", "neighborhoods": [], "longitude": 8.39495, "state": "BW", "stars": 3.0, "latitude": 49.0031, "attributes": {"Take-out": true, "Price Range": 2, "Delivery": false, "Dogs Allowed": false, "Outdoor Seating": true, "Parking": {"garage": false, "validated": false, "street": false, "lot": false, "valet": false}, "Smoking": "outdoor", "Accepts Credit Cards": false, "Wheelchair Accessible": true}, "type": "business"}
{"business_id": "jDX_bbjZ-4qHyKY8IE2vvQ", "full_address": "Pfinztalstr. 13\n76227 Karlsruhe", "hours": {}, "open": true, "categories": ["Food", "Specialty Food", "Meat Shops"], "city": "Karlsruhe", "review_count": 4, "name": "Metzgerei Sack", "neighborhoods": [], "longitude": 8.4727895, "state": "BW", "stars": 5.0, "latitude": 48.9991, "attributes": {"Parking": {"garage": false, "street": false, "validated": false, "lot": false, "valet": false}, "Price Range": 3}, "type": "business"}
{"business_id": "V2sfga9fwgmwpFELSWrQCw", "full_address": "Bahnhofstr. 5\n76356 Weingarten", "hours": {}, "open": true, "categories": ["Children's Clothing", "Fashion", "Shopping", "Food", "Chocolatiers & Shops", "Specialty Food"], "city": "Weingarten", "review_count": 4, "name": "La Casetta del Caff\u00e9", "neighborhoods": [], "longitude": 8.53132, "state": "BW", "stars": 4.0, "latitude": 49.0515, "attributes": {"Parking": {"garage": false, "validated": false, "street": false, "lot": false, "valet": false}, "Price Range": 1}, "type": "business"}
{"business_id": "MOM_hUdqkA7rCN0Tg6c7GQ", "full_address": "Erbprinzenstr. 27\n76133 Karlsruhe", "hours": {}, "open": true, "categories": ["Health Markets", "Food", "Specialty Food"], "city": "Karlsruhe", "review_count": 7, "name": "F\u00fcllhorn Karlsruhe Naturkost u. Naturwaren Handels", "neighborhoods": [], "longitude": 8.39705, "state": "BW", "stars": 4.0, "latitude": 49.00868, "attributes": {"Parking": {"garage": false, "street": false, "validated": false, "lot": false, "valet": false}, "Accepts Credit Cards": true, "Price Range": 3}, "type": "business"}
{"business_id": "l-pMt_YiLJXUGMeQOdtd_g", "full_address": "Werderstr.34\n76137 Karlsruhe", "hours": {}, "open": true, "categories": ["Food", "Specialty Food", "Coffee & Tea", "Desserts", "Chocolatiers & Shops"], "city": "Karlsruhe", "review_count": 7, "name": "Zuckerbecker", "neighborhoods": [], "longitude": 8.406358, "state": "BW", "stars": 5.0, "latitude": 49.0013779, "attributes": {"Price Range": 3}, "type": "business"}
{"business_id": "vuczGNr6J88hTboUQQSh_w", "full_address": "Ettlinger-Tor-Platz 1\nErdgeschoss im Ece\n76133 Karlsruhe", "hours": {}, "open": true, "categories": ["Food", "Specialty Food", "Meat Shops"], "city": "Karlsruhe", "review_count": 5, "name": "Knolli - Chicken & Chips", "neighborhoods": [], "longitude": 8.393843, "state": "BW", "stars": 2.0, "latitude": 49.0067498, "attributes": {"Parking": {"garage": false, "street": false, "validated": false, "lot": false, "valet": false}, "Accepts Credit Cards": false, "Price Range": 1}, "type": "business"}
{"business_id": "QX4eqLqfkmBVPGQana7Y4g", "full_address": "Am Rathausplatz 3\n76356 Weingarten", "hours": {}, "open": true, "categories": ["Food", "Specialty Food", "Caterers", "Meat Shops", "Event Planning & Services"], "city": "Weingarten", "review_count": 7, "name": "Metzgerei Kunzmann", "neighborhoods": [], "longitude": 8.53058, "state": "BW", "stars": 4.5, "latitude": 49.052, "attributes": {"Wheelchair Accessible": true, "Price Range": 4}, "type": "business"}
{"business_id": "XJGMtkWT1d-SFYQlkYOXJA", "full_address": "Kaiserstra\u00dfe 223 223c\nSparkassengeb\u00e4ude\n76133 Karlsruhe", "hours": {"Monday": {"close": "19:00", "open": "10:00"}, "Tuesday": {"close": "19:00", "open": "10:00"}, "Friday": {"close": "19:00", "open": "10:00"}, "Wednesday": {"close": "19:00", "open": "10:00"}, "Thursday": {"close": "19:00", "open": "10:00"}, "Saturday": {"close": "18:00", "open": "10:00"}}, "open": true, "categories": ["Food", "Specialty Food", "Chocolatiers & Shops"], "city": "Karlsruhe", "review_count": 4, "name": "Gummi-B\u00e4ren-Land", "neighborhoods": [], "longitude": 8.393843, "state": "BW", "stars": 5.0, "latitude": 49.0067498, "attributes": {"Parking": {"garage": false, "validated": false, "street": false, "lot": false, "valet": false}, "Wheelchair Accessible": true, "Price Range": 1}, "type": "business"}
{"business_id": "41tFQSXt68OyPDbm3GAQdQ", "full_address": "Douglasstr. 12-14\n76133 Karlsruhe", "hours": {"Monday": {"close": "22:00", "open": "11:00"}, "Tuesday": {"close": "22:00", "open": "11:00"}, "Friday": {"close": "22:00", "open": "11:00"}, "Wednesday": {"close": "22:00", "open": "11:00"}, "Thursday": {"close": "22:00", "open": "11:00"}, "Saturday": {"close": "22:00", "open": "12:00"}}, "open": true, "categories": ["Food", "Specialty Food", "Thai", "Asian Fusion", "Restaurants"], "city": "Karlsruhe", "review_count": 34, "name": "Bangkok Foodland", "neighborhoods": [], "longitude": 8.393407, "state": "BW", "stars": 4.0, "latitude": 49.010514, "attributes": {"Take-out": true, "Wi-Fi": "no", "Good For": {"dessert": false, "latenight": false, "lunch": false, "dinner": false, "brunch": false, "breakfast": false}, "Noise Level": "average", "Takes Reservations": true, "Has TV": true, "Smoking": "outdoor", "Delivery": false, "Ambience": {"romantic": false, "intimate": false, "classy": false, "upscale": false, "touristy": false, "trendy": false, "hipster": false, "casual": false}, "Parking": {"garage": false, "validated": false, "street": false, "lot": false, "valet": false}, "Wheelchair Accessible": false, "Outdoor Seating": false, "Attire": "casual", "Alcohol": "full_bar", "Waiter Service": true, "Accepts Credit Cards": false, "Good for Kids": true, "Good For Groups": true, "Price Range": 1}, "type": "business"}
{"business_id": "k3anEHyapYdF6w8AlGYTzA", "full_address": "Kaiserstr. 82\n76133 Karlsruhe", "hours": {}, "open": true, "categories": ["Food", "Specialty Food", "Chocolatiers & Shops"], "city": "Karlsruhe", "review_count": 3, "name": "L\u00e4derach", "neighborhoods": [], "longitude": 8.40318, "state": "BW", "stars": 3.5, "latitude": 49.0097, "attributes": {"Price Range": 4}, "type": "business"}
{"business_id": "4yesmwc2ySsEetCAcDvv4Q", "full_address": "Hebelstr. 21\n76133 Karlsruhe", "hours": {}, "open": true, "categories": ["Food", "Specialty Food", "Chocolatiers & Shops"], "city": "Karlsruhe", "review_count": 4, "name": "Pralina", "neighborhoods": [], "longitude": 8.40257, "state": "BW", "stars": 5.0, "latitude": 49.0082, "attributes": {"Price Range": 3}, "type": "business"}
{"business_id": "5bxJ4vlqgYcY4YphULphsQ", "full_address": "Gerwigstr. 41\n76131 Karlsruhe", "hours": {}, "open": true, "categories": ["Food", "Specialty Food", "Meat Shops"], "city": "Karlsruhe", "review_count": 5, "name": "Heinz B\u00e4\u00dfler", "neighborhoods": [], "longitude": 8.42966, "state": "BW", "stars": 3.5, "latitude": 49.0086, "attributes": {"Parking": {"garage": false, "validated": false, "street": false, "lot": false, "valet": false}, "Wheelchair Accessible": false, "Price Range": 1}, "type": "business"}
{"business_id": "VEa1bofX2Lx1Tucw0zEg3Q", "full_address": "Klauprechtstr. 25\n76137 Karlsruhe", "hours": {"Tuesday": {"close": "18:30", "open": "15:00"}, "Friday": {"close": "18:30", "open": "15:00"}, "Wednesday": {"close": "18:30", "open": "15:00"}, "Thursday": {"close": "18:30", "open": "15:00"}, "Saturday": {"close": "12:30", "open": "07:30"}}, "open": true, "categories": ["Food", "Specialty Food", "Caterers", "Meat Shops", "Event Planning & Services"], "city": "Karlsruhe", "review_count": 13, "name": "Metzgerei Heiko Brath", "neighborhoods": [], "longitude": 8.39112, "state": "BW", "stars": 5.0, "latitude": 49.0009, "attributes": {"Accepts Credit Cards": false, "Price Range": 2}, "type": "business"}
{"business_id": "PFEdj4zy3rD0wbHeEVaCDw", "full_address": "Schillerstr. 35\nUngarische Spezialit\u00e4ten\n76135 Karlsruhe", "hours": {}, "open": true, "categories": ["Food", "Specialty Food", "Meat Shops"], "city": "Karlsruhe", "review_count": 4, "name": "Fleischerfachgesch\u00e4ft Konrad Floc", "neighborhoods": [], "longitude": 8.3831667, "state": "BW", "stars": 5.0, "latitude": 48.9922913, "attributes": {"Parking": {"garage": false, "validated": false, "street": false, "lot": false, "valet": false}, "Wheelchair Accessible": false, "Price Range": 1}, "type": "business"}
{"business_id": "Jlj-EGnDvkcEpS3k2AX9QQ", "full_address": "N\u00fcrnberger Str. 11\n76199 Karlsruhe", "hours": {}, "open": true, "categories": ["Food", "Specialty Food", "Meat Shops"], "city": "Karlsruhe", "review_count": 3, "name": "Sack Metzgerei", "neighborhoods": [], "longitude": 8.40076, "state": "BW", "stars": 4.5, "latitude": 48.9846, "attributes": {"Price Range": 3}, "type": "business"}
{"business_id": "JxsRmp1bIRA9YAJYYrvFqg", "full_address": "Erbprinzenstr. 23\n76133 Karlsruhe", "hours": {}, "open": true, "categories": ["Food", "Specialty Food", "Meat Shops"], "city": "Karlsruhe", "review_count": 6, "name": "Metzgerei F\u00e4chergrill Alfred Windt", "neighborhoods": [], "longitude": 8.39761, "state": "BW", "stars": 4.0, "latitude": 49.0087, "attributes": {}, "type": "business"}
{"business_id": "hZQU4GhAG2WrJmNAZ0_gxg", "full_address": "Nelkenstr. 31\n76135 Karlsruhe", "hours": {"Monday": {"close": "18:00", "open": "15:00"}, "Tuesday": {"close": "18:00", "open": "15:00"}, "Friday": {"close": "18:00", "open": "15:00"}, "Wednesday": {"close": "13:00", "open": "08:00"}, "Thursday": {"close": "18:00", "open": "15:00"}, "Saturday": {"close": "13:00", "open": "08:00"}}, "open": true, "categories": ["Food", "Specialty Food", "Meat Shops"], "city": "Karlsruhe", "review_count": 10, "name": "Zehnbauer", "neighborhoods": [], "longitude": 8.37607, "state": "BW", "stars": 4.0, "latitude": 49.0086, "attributes": {"Price Range": 4}, "type": "business"}
{"business_id": "gD8p1LEbAwxtIQM5vrGBYw", "full_address": "Marktplatz 6\n76356 Weingarten", "hours": {}, "open": true, "categories": ["Food", "Specialty Food", "Meat Shops"], "city": "Weingarten", "review_count": 3, "name": "Metzgerei Wolfgang Dittes", "neighborhoods": [], "longitude": 8.5317, "state": "BW", "stars": 3.5, "latitude": 49.0514, "attributes": {"Parking": {"garage": false, "validated": false, "street": false, "lot": false, "valet": false}, "Wheelchair Accessible": true, "Price Range": 4}, "type": "business"}
{"business_id": "YEFiDsEOdEBbbQVgkIg8_g", "full_address": "Karlstr. 61\n76133 Karlsruhe", "hours": {"Monday": {"close": "18:00", "open": "08:30"}, "Friday": {"close": "18:00", "open": "08:30"}, "Wednesday": {"close": "18:00", "open": "08:30"}, "Thursday": {"close": "18:00", "open": "08:30"}, "Sunday": {"close": "18:00", "open": "10:00"}, "Saturday": {"close": "18:00", "open": "08:30"}}, "open": true, "categories": ["Food", "Desserts", "Specialty Food", "Chocolatiers & Shops"], "city": "Karlsruhe", "review_count": 11, "name": "Caf\u00e9 Brenner", "neighborhoods": [], "longitude": 8.39495, "state": "BW", "stars": 3.0, "latitude": 49.0031, "attributes": {"Take-out": true, "Price Range": 2, "Delivery": false, "Dogs Allowed": false, "Outdoor Seating": true, "Parking": {"garage": false, "validated": false, "street": false, "lot": false, "valet": false}, "Smoking": "outdoor", "Accepts Credit Cards": false, "Wheelchair Accessible": true}, "type": "business"}
{"business_id": "jDX_bbjZ-4qHyKY8IE2vvQ", "full_address": "Pfinztalstr. 13\n76227 Karlsruhe", "hours": {}, "open": true, "categories": ["Food", "Specialty Food", "Meat Shops"], "city": "Karlsruhe", "review_count": 4, "name": "Metzgerei Sack", "neighborhoods": [], "longitude": 8.4727895, "state": "BW", "stars": 5.0, "latitude": 48.9991, "attributes": {"Parking": {"garage": false, "street": false, "validated": false, "lot": false, "valet": false}, "Price Range": 3}, "type": "business"}
{"business_id": "V2sfga9fwgmwpFELSWrQCw", "full_address": "Bahnhofstr. 5\n76356 Weingarten", "hours": {}, "open": true, "categories": ["Children's Clothing", "Fashion", "Shopping", "Food", "Chocolatiers & Shops", "Specialty Food"], "city": "Weingarten", "review_count": 4, "name": "La Casetta del Caff\u00e9", "neighborhoods": [], "longitude": 8.53132, "state": "BW", "stars": 4.0, "latitude": 49.0515, "attributes": {"Parking": {"garage": false, "validated": false, "street": false, "lot": false, "valet": false}, "Price Range": 1}, "type": "business"}
{"business_id": "MOM_hUdqkA7rCN0Tg6c7GQ", "full_address": "Erbprinzenstr. 27\n76133 Karlsruhe", "hours": {}, "open": true, "categories": ["Health Markets", "Food", "Specialty Food"], "city": "Karlsruhe", "review_count": 7, "name": "F\u00fcllhorn Karlsruhe Naturkost u. Naturwaren Handels", "neighborhoods": [], "longitude": 8.39705, "state": "BW", "stars": 4.0, "latitude": 49.00868, "attributes": {"Parking": {"garage": false, "street": false, "validated": false, "lot": false, "valet": false}, "Accepts Credit Cards": true, "Price Range": 3}, "type": "business"}
{"business_id": "l-pMt_YiLJXUGMeQOdtd_g", "full_address": "Werderstr.34\n76137 Karlsruhe", "hours": {}, "open": true, "categories": ["Food", "Specialty Food", "Coffee & Tea", "Desserts", "Chocolatiers & Shops"], "city": "Karlsruhe", "review_count": 7, "name": "Zuckerbecker", "neighborhoods": [], "longitude": 8.406358, "state": "BW", "stars": 5.0, "latitude": 49.0013779, "attributes": {"Price Range": 3}, "type": "business"}
{"business_id": "vuczGNr6J88hTboUQQSh_w", "full_address": "Ettlinger-Tor-Platz 1\nErdgeschoss im Ece\n76133 Karlsruhe", "hours": {}, "open": true, "categories": ["Food", "Specialty Food", "Meat Shops"], "city": "Karlsruhe", "review_count": 5, "name": "Knolli - Chicken & Chips", "neighborhoods": [], "longitude": 8.393843, "state": "BW", "stars": 2.0, "latitude": 49.0067498, "attributes": {"Parking": {"garage": false, "street": false, "validated": false, "lot": false, "valet": false}, "Accepts Credit Cards": false, "Price Range": 1}, "type": "business"}
{"business_id": "QX4eqLqfkmBVPGQana7Y4g", "full_address": "Am Rathausplatz 3\n76356 Weingarten", "hours": {}, "open": true, "categories": ["Food", "Specialty Food", "Caterers", "Meat Shops", "Event Planning & Services"], "city": "Weingarten", "review_count": 7, "name": "Metzgerei Kunzmann", "neighborhoods": [], "longitude": 8.53058, "state": "BW", "stars": 4.5, "latitude": 49.052, "attributes": {"Wheelchair Accessible": true, "Price Range": 4}, "type": "business"}
{"business_id": "XJGMtkWT1d-SFYQlkYOXJA", "full_address": "Kaiserstra\u00dfe 223 223c\nSparkassengeb\u00e4ude\n76133 Karlsruhe", "hours": {"Monday": {"close": "19:00", "open": "10:00"}, "Tuesday": {"close": "19:00", "open": "10:00"}, "Friday": {"close": "19:00", "open": "10:00"}, "Wednesday": {"close": "19:00", "open": "10:00"}, "Thursday": {"close": "19:00", "open": "10:00"}, "Saturday": {"close": "18:00", "open": "10:00"}}, "open": true, "categories": ["Food", "Specialty Food", "Chocolatiers & Shops"], "city": "Karlsruhe", "review_count": 4, "name": "Gummi-B\u00e4ren-Land", "neighborhoods": [], "longitude": 8.393843, "state": "BW", "stars": 5.0, "latitude": 49.0067498, "attributes": {"Parking": {"garage": false, "validated": false, "street": false, "lot": false, "valet": false}, "Wheelchair Accessible": true, "Price Range": 1}, "type": "business"}
{"business_id": "41tFQSXt68OyPDbm3GAQdQ", "full_address": "Douglasstr. 12-14\n76133 Karlsruhe", "hours": {"Monday": {"close": "22:00", "open": "11:00"}, "Tuesday": {"close": "22:00", "open": "11:00"}, "Friday": {"close": "22:00", "open": "11:00"}, "Wednesday": {"close": "22:00", "open": "11:00"}, "Thursday": {"close": "22:00", "open": "11:00"}, "Saturday": {"close": "22:00", "open": "12:00"}}, "open": true, "categories": ["Food", "Specialty Food", "Thai", "Asian Fusion", "Restaurants"], "city": "Karlsruhe", "review_count": 34, "name": "Bangkok Foodland", "neighborhoods": [], "longitude": 8.393407, "state": "BW", "stars": 4.0, "latitude": 49.010514, "attributes": {"Take-out": true, "Wi-Fi": "no", "Good For": {"dessert": false, "latenight": false, "lunch": false, "dinner": false, "brunch": false, "breakfast": false}, "Noise Level": "average", "Takes Reservations": true, "Has TV": true, "Smoking": "outdoor", "Delivery": false, "Ambience": {"romantic": false, "intimate": false, "classy": false, "upscale": false, "touristy": false, "trendy": false, "hipster": false, "casual": false}, "Parking": {"garage": false, "validated": false, "street": false, "lot": false, "valet": false}, "Wheelchair Accessible": false, "Outdoor Seating": false, "Attire": "casual", "Alcohol": "full_bar", "Waiter Service": true, "Accepts Credit Cards": false, "Good for Kids": true, "Good For Groups": true, "Price Range": 1}, "type": "business"}
{"business_id": "k3anEHyapYdF6w8AlGYTzA", "full_address": "Kaiserstr. 82\n76133 Karlsruhe", "hours": {}, "open": true, "categories": ["Food", "Specialty Food", "Chocolatiers & Shops"], "city": "Karlsruhe", "review_count": 3, "name": "L\u00e4derach", "neighborhoods": [], "longitude": 8.40318, "state": "BW", "stars": 3.5, "latitude": 49.0097, "attributes": {"Price Range": 4}, "type": "business"}
{"business_id": "4yesmwc2ySsEetCAcDvv4Q", "full_address": "Hebelstr. 21\n76133 Karlsruhe", "hours": {}, "open": true, "categories": ["Food", "Specialty Food", "Chocolatiers & Shops"], "city": "Karlsruhe", "review_count": 4, "name": "Pralina", "neighborhoods": [], "longitude": 8.40257, "state": "BW", "stars": 5.0, "latitude": 49.0082, "attributes": {"Price Range": 3}, "type": "business"}
{"business_id": "5bxJ4vlqgYcY4YphULphsQ", "full_address": "Gerwigstr. 41\n76131 Karlsruhe", "hours": {}, "open": true, "categories": ["Food", "Specialty Food", "Meat Shops"], "city": "Karlsruhe", "review_count": 5, "name": "Heinz B\u00e4\u00dfler", "neighborhoods": [], "longitude": 8.42966, "state": "BW", "stars": 3.5, "latitude": 49.0086, "attributes": {"Parking": {"garage": false, "validated": false, "street": false, "lot": false, "valet": false}, "Wheelchair Accessible": false, "Price Range": 1}, "type": "business"}
{"business_id": "VEa1bofX2Lx1Tucw0zEg3Q", "full_address": "Klauprechtstr. 25\n76137 Karlsruhe", "hours": {"Tuesday": {"close": "18:30", "open": "15:00"}, "Friday": {"close": "18:30", "open": "15:00"}, "Wednesday": {"close": "18:30", "open": "15:00"}, "Thursday": {"close": "18:30", "open": "15:00"}, "Saturday": {"close": "12:30", "open": "07:30"}}, "open": true, "categories": ["Food", "Specialty Food", "Caterers", "Meat Shops", "Event Planning & Services"], "city": "Karlsruhe", "review_count": 13, "name": "Metzgerei Heiko Brath", "neighborhoods": [], "longitude": 8.39112, "state": "BW", "stars": 5.0, "latitude": 49.0009, "attributes": {"Accepts Credit Cards": false, "Price Range": 2}, "type": "business"}
{"business_id": "PFEdj4zy3rD0wbHeEVaCDw", "full_address": "Schillerstr. 35\nUngarische Spezialit\u00e4ten\n76135 Karlsruhe", "hours": {}, "open": true, "categories": ["Food", "Specialty Food", "Meat Shops"], "city": "Karlsruhe", "review_count": 4, "name": "Fleischerfachgesch\u00e4ft Konrad Floc", "neighborhoods": [], "longitude": 8.3831667, "state": "BW", "stars": 5.0, "latitude": 48.9922913, "attributes": {"Parking": {"garage": false, "validated": false, "street": false, "lot": false, "valet": false}, "Wheelchair Accessible": false, "Price Range": 1}, "type": "business"}
{"business_id": "Jlj-EGnDvkcEpS3k2AX9QQ", "full_address": "N\u00fcrnberger Str. 11\n76199 Karlsruhe", "hours": {}, "open": true, "categories": ["Food", "Specialty Food", "Meat Shops"], "city": "Karlsruhe", "review_count": 3, "name": "Sack Metzgerei", "neighborhoods": [], "longitude": 8.40076, "state": "BW", "stars": 4.5, "latitude": 48.9846, "attributes": {"Price Range": 3}, "type": "business"}
{"business_id": "JxsRmp1bIRA9YAJYYrvFqg", "full_address": "Erbprinzenstr. 23\n76133 Karlsruhe", "hours": {}, "open": true, "categories": ["Food", "Specialty Food", "Meat Shops"], "city": "Karlsruhe", "review_count": 6, "name": "Metzgerei F\u00e4chergrill Alfred Windt", "neighborhoods": [], "longitude": 8.39761, "state": "BW", "stars": 4.0, "latitude": 49.0087, "attributes": {}, "type": "business"}
{"business_id": "hZQU4GhAG2WrJmNAZ0_gxg", "full_address": "Nelkenstr. 31\n76135 Karlsruhe", "hours": {"Monday": {"close": "18:00", "open": "15:00"}, "Tuesday": {"close": "18:00", "open": "15:00"}, "Friday": {"close": "18:00", "open": "15:00"}, "Wednesday": {"close": "13:00", "open": "08:00"}, "Thursday": {"close": "18:00", "open": "15:00"}, "Saturday": {"close": "13:00", "open": "08:00"}}, "open": true, "categories": ["Food", "Specialty Food", "Meat Shops"], "city": "Karlsruhe", "review_count": 10, "name": "Zehnbauer", "neighborhoods": [], "longitude": 8.37607, "state": "BW", "stars": 4.0, "latitude": 49.0086, "attributes": {"Price Range": 4}, "type": "business"}
{"business_id": "gD8p1LEbAwxtIQM5vrGBYw", "full_address": "Marktplatz 6\n76356 Weingarten", "hours": {}, "open": true, "categories": ["Food", "Specialty Food", "Meat Shops"], "city": "Weingarten", "review_count": 3, "name": "Metzgerei Wolfgang Dittes", "neighborhoods": [], "longitude": 8.5317, "state": "BW", "stars": 3.5, "latitude": 49.0514, "attributes": {"Parking": {"garage": false, "validated": false, "street": false, "lot": false, "valet": false}, "Wheelchair Accessible": true, "Price Range": 4}, "type": "business"}
{"business_id": "YEFiDsEOdEBbbQVgkIg8_g", "full_address": "Karlstr. 61\n76133 Karlsruhe", "hours": {"Monday": {"close": "18:00", "open": "08:30"}, "Friday": {"close": "18:00", "open": "08:30"}, "Wednesday": {"close": "18:00", "open": "08:30"}, "Thursday": {"close": "18:00", "open": "08:30"}, "Sunday": {"close": "18:00", "open": "10:00"}, "Saturday": {"close": "18:00", "open": "08:30"}}, "open": true, "categories": ["Food", "Desserts", "Specialty Food", "Chocolatiers & Shops"], "city": "Karlsruhe", "review_count": 11, "name": "Caf\u00e9 Brenner", "neighborhoods": [], "longitude": 8.39495, "state": "BW", "stars": 3.0, "latitude": 49.0031, "attributes": {"Take-out": true, "Price Range": 2, "Delivery": false, "Dogs Allowed": false, "Outdoor Seating": true, "Parking": {"garage": false, "validated": false, "street": false, "lot": false, "valet": false}, "Smoking": "outdoor", "Accepts Credit Cards": false, "Wheelchair Accessible": true}, "type": "business"}
{"business_id": "jDX_bbjZ-4qHyKY8IE2vvQ", "full_address": "Pfinztalstr. 13\n76227 Karlsruhe", "hours": {}, "open": true, "categories": ["Food", "Specialty Food", "Meat Shops"], "city": "Karlsruhe", "review_count": 4, "name": "Metzgerei Sack", "neighborhoods": [], "longitude": 8.4727895, "state": "BW", "stars": 5.0, "latitude": 48.9991, "attributes": {"Parking": {"garage": false, "street": false, "validated": false, "lot": false, "valet": false}, "Price Range": 3}, "type": "business"}
{"business_id": "V2sfga9fwgmwpFELSWrQCw", "full_address": "Bahnhofstr. 5\n76356 Weingarten", "hours": {}, "open": true, "categories": ["Children's Clothing", "Fashion", "Shopping", "Food", "Chocolatiers & Shops", "Specialty Food"], "city": "Weingarten", "review_count": 4, "name": "La Casetta del Caff\u00e9", "neighborhoods": [], "longitude": 8.53132, "state": "BW", "stars": 4.0, "latitude": 49.0515, "attributes": {"Parking": {"garage": false, "validated": false, "street": false, "lot": false, "valet": false}, "Price Range": 1}, "type": "business"}
{"business_id": "MOM_hUdqkA7rCN0Tg6c7GQ", "full_address": "Erbprinzenstr. 27\n76133 Karlsruhe", "hours": {}, "open": true, "categories": ["Health Markets", "Food", "Specialty Food"], "city": "Karlsruhe", "review_count": 7, "name": "F\u00fcllhorn Karlsruhe Naturkost u. Naturwaren Handels", "neighborhoods": [], "longitude": 8.39705, "state": "BW", "stars": 4.0, "latitude": 49.00868, "attributes": {"Parking": {"garage": false, "street": false, "validated": false, "lot": false, "valet": false}, "Accepts Credit Cards": true, "Price Range": 3}, "type": "business"}
{"business_id": "l-pMt_YiLJXUGMeQOdtd_g", "full_address": "Werderstr.34\n76137 Karlsruhe", "hours": {}, "open": true, "categories": ["Food", "Specialty Food", "Coffee & Tea", "Desserts", "Chocolatiers & Shops"], "city": "Karlsruhe", "review_count": 7, "name": "Zuckerbecker", "neighborhoods": [], "longitude": 8.406358, "state": "BW", "stars": 5.0, "latitude": 49.0013779, "attributes": {"Price Range": 3}, "type": "business"}
{"business_id": "vuczGNr6J88hTboUQQSh_w", "full_address": "Ettlinger-Tor-Platz 1\nErdgeschoss im Ece\n76133 Karlsruhe", "hours": {}, "open": true, "categories": ["Food", "Specialty Food", "Meat Shops"], "city": "Karlsruhe", "review_count": 5, "name": "Knolli - Chicken & Chips", "neighborhoods": [], "longitude": 8.393843, "state": "BW", "stars": 2.0, "latitude": 49.0067498, "attributes": {"Parking": {"garage": false, "street": false, "validated": false, "lot": false, "valet": false}, "Accepts Credit Cards": false, "Price Range": 1}, "type": "business"}
{"business_id": "QX4eqLqfkmBVPGQana7Y4g", "full_address": "Am Rathausplatz 3\n76356 Weingarten", "hours": {}, "open": true, "categories": ["Food", "Specialty Food", "Caterers", "Meat Shops", "Event Planning & Services"], "city": "Weingarten", "review_count": 7, "name": "Metzgerei Kunzmann", "neighborhoods": [], "longitude": 8.53058, "state": "BW", "stars": 4.5, "latitude": 49.052, "attributes": {"Wheelchair Accessible": true, "Price Range": 4}, "type": "business"}
{"business_id": "XJGMtkWT1d-SFYQlkYOXJA", "full_address": "Kaiserstra\u00dfe 223 223c\nSparkassengeb\u00e4ude\n76133 Karlsruhe", "hours": {"Monday": {"close": "19:00", "open": "10:00"}, "Tuesday": {"close": "19:00", "open": "10:00"}, "Friday": {"close": "19:00", "open": "10:00"}, "Wednesday": {"close": "19:00", "open": "10:00"}, "Thursday": {"close": "19:00", "open": "10:00"}, "Saturday": {"close": "18:00", "open": "10:00"}}, "open": true, "categories": ["Food", "Specialty Food", "Chocolatiers & Shops"], "city": "Karlsruhe", "review_count": 4, "name": "Gummi-B\u00e4ren-Land", "neighborhoods": [], "longitude": 8.393843, "state": "BW", "stars": 5.0, "latitude": 49.0067498, "attributes": {"Parking": {"garage": false, "validated": false, "street": false, "lot": false, "valet": false}, "Wheelchair Accessible": true, "Price Range": 1}, "type": "business"}
{"business_id": "41tFQSXt68OyPDbm3GAQdQ", "full_address": "Douglasstr. 12-14\n76133 Karlsruhe", "hours": {"Monday": {"close": "22:00", "open": "11:00"}, "Tuesday": {"close": "22:00", "open": "11:00"}, "Friday": {"close": "22:00", "open": "11:00"}, "Wednesday": {"close": "22:00", "open": "11:00"}, "Thursday": {"close": "22:00", "open": "11:00"}, "Saturday": {"close": "22:00", "open": "12:00"}}, "open": true, "categories": ["Food", "Specialty Food", "Thai", "Asian Fusion", "Restaurants"], "city": "Karlsruhe", "review_count": 34, "name": "Bangkok Foodland", "neighborhoods": [], "longitude": 8.393407, "state": "BW", "stars": 4.0, "latitude": 49.010514, "attributes": {"Take-out": true, "Wi-Fi": "no", "Good For": {"dessert": false, "latenight": false, "lunch": false, "dinner": false, "brunch": false, "breakfast": false}, "Noise Level": "average", "Takes Reservations": true, "Has TV": true, "Smoking": "outdoor", "Delivery": false, "Ambience": {"romantic": false, "intimate": false, "classy": false, "upscale": false, "touristy": false, "trendy": false, "hipster": false, "casual": false}, "Parking": {"garage": false, "validated": false, "street": false, "lot": false, "valet": false}, "Wheelchair Accessible": false, "Outdoor Seating": false, "Attire": "casual", "Alcohol": "full_bar", "Waiter Service": true, "Accepts Credit Cards": false, "Good for Kids": true, "Good For Groups": true, "Price Range": 1}, "type": "business"}
{"business_id": "k3anEHyapYdF6w8AlGYTzA", "full_address": "Kaiserstr. 82\n76133 Karlsruhe", "hours": {}, "open": true, "categories": ["Food", "Specialty Food", "Chocolatiers & Shops"], "city": "Karlsruhe", "review_count": 3, "name": "L\u00e4derach", "neighborhoods": [], "longitude": 8.40318, "state": "BW", "stars": 3.5, "latitude": 49.0097, "attributes": {"Price Range": 4}, "type": "business"}
{"business_id": "4yesmwc2ySsEetCAcDvv4Q", "full_address": "Hebelstr. 21\n76133 Karlsruhe", "hours": {}, "open": true, "categories": ["Food", "Specialty Food", "Chocolatiers & Shops"], "city": "Karlsruhe", "review_count": 4, "name": "Pralina", "neighborhoods": [], "longitude": 8.40257, "state": "BW", "stars": 5.0, "latitude": 49.0082, "attributes": {"Price Range": 3}, "type": "business"}
