{"business_id": "ktQpBOGvDKfM0-KRCY21aA", "full_address": "Mathystr. 7\n76133 Karlsruhe", "hours": {}, "open": true, "categories": ["Hair Salons", "Hair Stylists", "Beauty & Spas"], "city": "Karlsruhe", "review_count": 21, "name": "Colling & Friends", "neighborhoods": [], "longitude": 8.39548, "state": "BW", "stars": 4.5, "latitude": 49.0023, "attributes": {"Parking": {"garage": false, "validated": false, "street": false, "lot": false, "valet": false}, "Good for Kids": false, "Accepts Credit Cards": false, "Wheelchair Accessible": true, "Price Range": 3}, "type": "business"}
{"business_id": "dMC3AIQ23lDypgkMI1gM7Q", "full_address": "Putlitzstr. 26\n76137 Karlsruhe", "hours": {}, "open": true, "categories": ["Hair Salons", "Hair Stylists", "Beauty & Spas"], "city": "Karlsruhe", "review_count": 5, "name": "f\u00f6n hair friends", "neighborhoods": [], "longitude": 8.38685, "state": "BW", "stars": 3.0, "latitude": 49.0033, "attributes": {"Price Range": 4, "Parking": {"garage": false, "street": false, "validated": false, "lot": false, "valet": false}, "By Appointment Only": true, "Accepts Credit Cards": true, "Good for Kids": true, "Wheelchair Accessible": false}, "type": "business"}
{"business_id": "pK-tkeJh-nc37duo9Hg8xw", "full_address": "Schillerstra\u00dfe 31\n76137 Karlsruhe", "hours": {}, "open": true, "categories": ["Hair Salons", "Hair Stylists", "Beauty & Spas"], "city": "Karlsruhe", "review_count": 4, "name": "The Hair Cafe Thc", "neighborhoods": [], "longitude": 8.3796933, "state": "BW", "stars": 5.0, "latitude": 49.0086495, "attributes": {"Parking": {"garage": false, "validated": false, "street": false, "lot": false, "valet": false}, "Wheelchair Accessible": false, "Price Range": 3}, "type": "business"}
{"business_id": "8E-1IU5PdnuitFwffFF0Wg", "full_address": "sophienstra\u00dfe 99\nEingang Scheffelstra\u00dfe\n76135 Karlsruhe", "hours": {"Tuesday": {"close": "19:30", "open": "09:00"}, "Friday": {"close": "19:30", "open": "09:00"}, "Wednesday": {"close": "19:30", "open": "09:00"}, "Thursday": {"close": "19:30", "open": "09:00"}, "Saturday": {"close": "14:00", "open": "10:00"}}, "open": true, "categories": ["Hair Salons", "Hair Stylists", "Beauty & Spas"], "city": "Karlsruhe", "review_count": 3, "name": "spliss - der fris\u00f6r", "neighborhoods": [], "longitude": 8.3814841, "state": "BW", "stars": 5.0, "latitude": 49.0079468, "attributes": {}, "type": "business"}
{"business_id": "MozQ5aTlhJwaI2OjeMM7EQ", "full_address": "Herrenstr. 66\n76133 Karlsruhe", "hours": {}, "open": true, "categories": ["Hair Salons", "Hair Stylists", "Beauty & Spas"], "city": "Karlsruhe", "review_count": 4, "name": "Die Fris\u00f6re Enrico und Beata", "neighborhoods": [], "longitude": 8.39551, "state": "BW", "stars": 4.5, "latitude": 49.0065, "attributes": {"Price Range": 3}, "type": "business"}
{"business_id": "GLZnniRlevgOYkdLoVze-A", "full_address": "Leopoldstr. 56\n76275 Ettlingen", "hours": {}, "open": true, "categories": ["Hair Salons", "Hair Stylists", "Beauty & Spas"], "city": "Ettlingen", "review_count": 5, "name": "Hairkiller", "neighborhoods": [], "longitude": 8.4089486, "state": "BW", "stars": 5.0, "latitude": 48.9397829, "attributes": {"Parking": {"garage": false, "validated": false, "street": false, "lot": false, "valet": false}, "Accepts Credit Cards": false, "Wheelchair Accessible": false, "Price Range": 1}, "type": "business"}
{"business_id": "WF050Paitkk6zu1nYvxnfQ", "full_address": "R\u00fcppurer Stra\u00dfe 132\n76137 Karlsruhe", "hours": {}, "open": true, "categories": ["Hair Salons", "Hair Stylists", "Beauty & Spas"], "city": "Karlsruhe", "review_count": 5, "name": "dierollendenfriseure.de", "neighborhoods": [], "longitude": 8.4054053, "state": "BW", "stars": 5.0, "latitude": 48.9960045, "attributes": {"Accepts Credit Cards": true, "Wheelchair Accessible": true, "Price Range": 2}, "type": "business"}
{"business_id": "OSqi_tZwydODzqff2LCLtQ", "full_address": "Kaiserstr. 38\n76133 Karlsruhe", "hours": {}, "open": true, "categories": ["Hair Salons", "Hair Stylists", "Beauty & Spas"], "city": "Karlsruhe", "review_count": 9, "name": "Hairkiller", "neighborhoods": [], "longitude": 8.40767, "state": "BW", "stars": 4.0, "latitude": 49.0096, "attributes": {"Good for Kids": true, "Price Range": 1}, "type": "business"}
{"business_id": "tFsknMJ5yAafN1tAcfMVKA", "full_address": "Amalienstr. 25A\n76133 Karlsruhe", "hours": {}, "open": true, "categories": ["Hair Salons", "Hair Stylists", "Beauty & Spas"], "city": "Karlsruhe", "review_count": 4, "name": "Salon Friseur Jung / Haircut", "neighborhoods": [], "longitude": 8.3941, "state": "BW", "stars": 4.5, "latitude": 49.0081, "attributes": {"By Appointment Only": false, "Good for Kids": true, "Parking": {"garage": false, "street": false, "validated": false, "lot": false, "valet": false}, "Wheelchair Accessible": true, "Price Range": 1}, "type": "business"}
{"business_id": "UX8ORZVzrGK8AfZpIBd82A", "full_address": "Sophienstra\u00dfe 232\n76185 Karlsruhe", "hours": {"Tuesday": {"close": "18:30", "open": "09:00"}, "Friday": {"close": "20:00", "open": "09:00"}, "Wednesday": {"close": "18:30", "open": "09:00"}, "Thursday": {"close": "18:30", "open": "09:00"}, "Saturday": {"close": "15:00", "open": "09:00"}}, "open": true, "categories": ["Hair Salons", "Hair Stylists", "Beauty & Spas"], "city": "Karlsruhe", "review_count": 3, "name": "Glatzenf\u00f6hner", "neighborhoods": [], "longitude": 8.3654629, "state": "BW", "stars": 3.5, "latitude": 49.0101799, "attributes": {"Price Range": 2}, "type": "business"}
{"business_id": "bemaKNgSiq2pWvfUCmK6Zw", "full_address": "ECE-Center-Ettlinger-Tor\n76133 Karlsruhe", "hours": {}, "open": true, "categories": ["Hair Salons", "Hair Stylists", "Beauty & Spas"], "city": "Karlsruhe", "review_count": 3, "name": "Hair 'N' More", "neighborhoods": [], "longitude": 8.40376, "state": "BW", "stars": 4.5, "latitude": 49.0081, "attributes": {"Parking": {"garage": false, "validated": false, "street": false, "lot": false, "valet": false}, "Accepts Credit Cards": true, "Wheelchair Accessible": true, "Price Range": 2}, "type": "business"}
{"business_id": "mMo3W7sBDKXdYeWVSeKqMw", "full_address": "Kreuzstr. 19\n76133 Karlsruhe", "hours": {}, "open": true, "categories": ["Hair Salons", "Hair Stylists", "Beauty & Spas"], "city": "Karlsruhe", "review_count": 5, "name": "Max Lui", "neighborhoods": [], "longitude": 8.40578, "state": "BW", "stars": 4.0, "latitude": 49.007, "attributes": {"Parking": {"garage": false, "street": false, "validated": false, "lot": false, "valet": false}, "Price Range": 3}, "type": "business"}
{"business_id": "ktQpBOGvDKfM0-KRCY21aA", "full_address": "Mathystr. 7\n76133 Karlsruhe", "hours": {}, "open": true, "categories": ["Hair Salons", "Hair Stylists", "Beauty & Spas"], "city": "Karlsruhe", "review_count": 21, "name": "Colling & Friends", "neighborhoods": [], "longitude": 8.39548, "state": "BW", "stars": 4.5, "latitude": 49.0023, "attributes": {"Parking": {"garage": false, "validated": false, "street": false, "lot": false, "valet": false}, "Good for Kids": false, "Accepts Credit Cards": false, "Wheelchair Accessible": true, "Price Range": 3}, "type": "business"}
{"business_id": "dMC3AIQ23lDypgkMI1gM7Q", "full_address": "Putlitzstr. 26\n76137 Karlsruhe", "hours": {}, "open": true, "categories": ["Hair Salons", "Hair Stylists", "Beauty & Spas"], "city": "Karlsruhe", "review_count": 5, "name": "f\u00f6n hair friends", "neighborhoods": [], "longitude": 8.38685, "state": "BW", "stars": 3.0, "latitude": 49.0033, "attributes": {"Price Range": 4, "Parking": {"garage": false, "street": false, "validated": false, "lot": false, "valet": false}, "By Appointment Only": true, "Accepts Credit Cards": true, "Good for Kids": true, "Wheelchair Accessible": false}, "type": "business"}
{"business_id": "pK-tkeJh-nc37duo9Hg8xw", "full_address": "Schillerstra\u00dfe 31\n76137 Karlsruhe", "hours": {}, "open": true, "categories": ["Hair Salons", "Hair Stylists", "Beauty & Spas"], "city": "Karlsruhe", "review_count": 4, "name": "The Hair Cafe Thc", "neighborhoods": [], "longitude": 8.3796933, "state": "BW", "stars": 5.0, "latitude": 49.0086495, "attributes": {"Parking": {"garage": false, "validated": false, "street": false, "lot": false, "valet": false}, "Wheelchair Accessible": false, "Price Range": 3}, "type": "business"}
{"business_id": "8E-1IU5PdnuitFwffFF0Wg", "full_address": "sophienstra\u00dfe 99\nEingang Scheffelstra\u00dfe\n76135 Karlsruhe", "hours": {"Tuesday": {"close": "19:30", "open": "09:00"}, "Friday": {"close": "19:30", "open": "09:00"}, "Wednesday": {"close": "19:30", "open": "09:00"}, "Thursday": {"close": "19:30", "open": "09:00"}, "Saturday": {"close": "14:00", "open": "10:00"}}, "open": true, "categories": ["Hair Salons", "Hair Stylists", "Beauty & Spas"], "city": "Karlsruhe", "review_count": 3, "name": "spliss - der fris\u00f6r", "neighborhoods": [], "longitude": 8.3814841, "state": "BW", "stars": 5.0, "latitude": 49.0079468, "attributes": {}, "type": "business"}
{"business_id": "MozQ5aTlhJwaI2OjeMM7EQ", "full_address": "Herrenstr. 66\n76133 Karlsruhe", "hours": {}, "open": true, "categories": ["Hair Salons", "Hair Stylists", "Beauty & Spas"], "city": "Karlsruhe", "review_count": 4, "name": "Die Fris\u00f6re Enrico und Beata", "neighborhoods": [], "longitude": 8.39551, "state": "BW", "stars": 4.5, "latitude": 49.0065, "attributes": {"Price Range": 3}, "type": "business"}
{"business_id": "GLZnniRlevgOYkdLoVze-A", "full_address": "Leopoldstr. 56\n76275 Ettlingen", "hours": {}, "open": true, "categories": ["Hair Salons", "Hair Stylists", "Beauty & Spas"], "city": "Ettlingen", "review_count": 5, "name": "Hairkiller", "neighborhoods": [], "longitude": 8.4089486, "state": "BW", "stars": 5.0, "latitude": 48.9397829, "attributes": {"Parking": {"garage": false, "validated": false, "street": false, "lot": false, "valet": false}, "Accepts Credit Cards": false, "Wheelchair Accessible": false, "Price Range": 1}, "type": "business"}
{"business_id": "WF050Paitkk6zu1nYvxnfQ", "full_address": "R\u00fcppurer Stra\u00dfe 132\n76137 Karlsruhe", "hours": {}, "open": true, "categories": ["Hair Salons", "Hair Stylists", "Beauty & Spas"], "city": "Karlsruhe", "review_count": 5, "name": "dierollendenfriseure.de", "neighborhoods": [], "longitude": 8.4054053, "state": "BW", "stars": 5.0, "latitude": 48.9960045, "attributes": {"Accepts Credit Cards": true, "Wheelchair Accessible": true, "Price Range": 2}, "type": "business"}
{"business_id": "OSqi_tZwydODzqff2LCLtQ", "full_address": "Kaiserstr. 38\n76133 Karlsruhe", "hours": {}, "open": true, "categories": ["Hair Salons", "Hair Stylists", "Beauty & Spas"], "city": "Karlsruhe", "review_count": 9, "name": "Hairkiller", "neighborhoods": [], "longitude": 8.40767, "state": "BW", "stars": 4.0, "latitude": 49.0096, "attributes": {"Good for Kids": true, "Price Range": 1}, "type": "business"}
{"business_id": "tFsknMJ5yAafN1tAcfMVKA", "full_address": "Amalienstr. 25A\n76133 Karlsruhe", "hours": {}, "open": true, "categories": ["Hair Salons", "Hair Stylists", "Beauty & Spas"], "city": "Karlsruhe", "review_count": 4, "name": "Salon Friseur Jung / Haircut", "neighborhoods": [], "longitude": 8.3941, "state": "BW", "stars": 4.5, "latitude": 49.0081, "attributes": {"By Appointment Only": false, "Good for Kids": true, "Parking": {"garage": false, "street": false, "validated": false, "lot": false, "valet": false}, "Wheelchair Accessible": true, "Price Range": 1}, "type": "business"}
{"business_id": "UX8ORZVzrGK8AfZpIBd82A", "full_address": "Sophienstra\u00dfe 232\n76185 Karlsruhe", "hours": {"Tuesday": {"close": "18:30", "open": "09:00"}, "Friday": {"close": "20:00", "open": "09:00"}, "Wednesday": {"close": "18:30", "open": "09:00"}, "Thursday": {"close": "18:30", "open": "09:00"}, "Saturday": {"close": "15:00", "open": "09:00"}}, "open": true, "categories": ["Hair Salons", "Hair Stylists", "Beauty & Spas"], "city": "Karlsruhe", "review_count": 3, "name": "Glatzenf\u00f6hner", "neighborhoods": [], "longitude": 8.3654629, "state": "BW", "stars": 3.5, "latitude": 49.0101799, "attributes": {"Price Range": 2}, "type": "business"}
{"business_id": "bemaKNgSiq2pWvfUCmK6Zw", "full_address": "ECE-Center-Ettlinger-Tor\n76133 Karlsruhe", "hours": {}, "open": true, "categories": ["Hair Salons", "Hair Stylists", "Beauty & Spas"], "city": "Karlsruhe", "review_count": 3, "name": "Hair 'N' More", "neighborhoods": [], "longitude": 8.40376, "state": "BW", "stars": 4.5, "latitude": 49.0081, "attributes": {"Parking": {"garage": false, "validated": false, "street": false, "lot": false, "valet": false}, "Accepts Credit Cards": true, "Wheelchair Accessible": true, "Price Range": 2}, "type": "business"}
{"business_id": "mMo3W7sBDKXdYeWVSeKqMw", "full_address": "Kreuzstr. 19\n76133 Karlsruhe", "hours": {}, "open": true, "categories": ["Hair Salons", "Hair Stylists", "Beauty & Spas"], "city": "Karlsruhe", "review_count": 5, "name": "Max Lui", "neighborhoods": [], "longitude": 8.40578, "state": "BW", "stars": 4.0, "latitude": 49.007, "attributes": {"Parking": {"garage": false, "street": false, "validated": false, "lot": false, "valet": false}, "Price Range": 3}, "type": "business"}
{"business_id": "ktQpBOGvDKfM0-KRCY21aA", "full_address": "Mathystr. 7\n76133 Karlsruhe", "hours": {}, "open": true, "categories": ["Hair Salons", "Hair Stylists", "Beauty & Spas"], "city": "Karlsruhe", "review_count": 21, "name": "Colling & Friends", "neighborhoods": [], "longitude": 8.39548, "state": "BW", "stars": 4.5, "latitude": 49.0023, "attributes": {"Parking": {"garage": false, "validated": false, "street": false, "lot": false, "valet": false}, "Good for Kids": false, "Accepts Credit Cards": false, "Wheelchair Accessible": true, "Price Range": 3}, "type": "business"}
{"business_id": "dMC3AIQ23lDypgkMI1gM7Q", "full_address": "Putlitzstr. 26\n76137 Karlsruhe", "hours": {}, "open": true, "categories": ["Hair Salons", "Hair Stylists", "Beauty & Spas"], "city": "Karlsruhe", "review_count": 5, "name": "f\u00f6n hair friends", "neighborhoods": [], "longitude": 8.38685, "state": "BW", "stars": 3.0, "latitude": 49.0033, "attributes": {"Price Range": 4, "Parking": {"garage": false, "street": false, "validated": false, "lot": false, "valet": false}, "By Appointment Only": true, "Accepts Credit Cards": true, "Good for Kids": true, "Wheelchair Accessible": false}, "type": "business"}
{"business_id": "pK-tkeJh-nc37duo9Hg8xw", "full_address": "Schillerstra\u00dfe 31\n76137 Karlsruhe", "hours": {}, "open": true, "categories": ["Hair Salons", "Hair Stylists", "Beauty & Spas"], "city": "Karlsruhe", "review_count": 4, "name": "The Hair Cafe Thc", "neighborhoods": [], "longitude": 8.3796933, "state": "BW", "stars": 5.0, "latitude": 49.0086495, "attributes": {"Parking": {"garage": false, "validated": false, "street": false, "lot": false, "valet": false}, "Wheelchair Accessible": false, "Price Range": 3}, "type": "business"}
{"business_id": "8E-1IU5PdnuitFwffFF0Wg", "full_address": "sophienstra\u00dfe 99\nEingang Scheffelstra\u00dfe\n76135 Karlsruhe", "hours": {"Tuesday": {"close": "19:30", "open": "09:00"}, "Friday": {"close": "19:30", "open": "09:00"}, "Wednesday": {"close": "19:30", "open": "09:00"}, "Thursday": {"close": "19:30", "open": "09:00"}, "Saturday": {"close": "14:00", "open": "10:00"}}, "open": true, "categories": ["Hair Salons", "Hair Stylists", "Beauty & Spas"], "city": "Karlsruhe", "review_count": 3, "name": "spliss - der fris\u00f6r", "neighborhoods": [], "longitude": 8.3814841, "state": "BW", "stars": 5.0, "latitude": 49.0079468, "attributes": {}, "type": "business"}
{"business_id": "MozQ5aTlhJwaI2OjeMM7EQ", "full_address": "Herrenstr. 66\n76133 Karlsruhe", "hours": {}, "open": true, "categories": ["Hair Salons", "Hair Stylists", "Beauty & Spas"], "city": "Karlsruhe", "review_count": 4, "name": "Die Fris\u00f6re Enrico und Beata", "neighborhoods": [], "longitude": 8.39551, "state": "BW", "stars": 4.5, "latitude": 49.0065, "attributes": {"Price Range": 3}, "type": "business"}
{"business_id": "GLZnniRlevgOYkdLoVze-A", "full_address": "Leopoldstr. 56\n76275 Ettlingen", "hours": {}, "open": true, "categories": ["Hair Salons", "Hair Stylists", "Beauty & Spas"], "city": "Ettlingen", "review_count": 5, "name": "Hairkiller", "neighborhoods": [], "longitude": 8.4089486, "state": "BW", "stars": 5.0, "latitude": 48.9397829, "attributes": {"Parking": {"garage": false, "validated": false, "street": false, "lot": false, "valet": false}, "Accepts Credit Cards": false, "Wheelchair Accessible": false, "Price Range": 1}, "type": "business"}
{"business_id": "WF050Paitkk6zu1nYvxnfQ", "full_address": "R\u00fcppurer Stra\u00dfe 132\n76137 Karlsruhe", "hours": {}, "open": true, "categories": ["Hair Salons", "Hair Stylists", "Beauty & Spas"], "city": "Karlsruhe", "review_count": 5, "name": "dierollendenfriseure.de", "neighborhoods": [], "longitude": 8.4054053, "state": "BW", "stars": 5.0, "latitude": 48.9960045, "attributes": {"Accepts Credit Cards": true, "Wheelchair Accessible": true, "Price Range": 2}, "type": "business"}
{"business_id": "OSqi_tZwydODzqff2LCLtQ", "full_address": "Kaiserstr. 38\n76133 Karlsruhe", "hours": {}, "open": true, "categories": ["Hair Salons", "Hair Stylists", "Beauty & Spas"], "city": "Karlsruhe", "review_count": 9, "name": "Hairkiller", "neighborhoods": [], "longitude": 8.40767, "state": "BW", "stars": 4.0, "latitude": 49.0096, "attributes": {"Good for Kids": true, "Price Range": 1}, "type": "business"}
{"business_id": "tFsknMJ5yAafN1tAcfMVKA", "full_address": "Amalienstr. 25A\n76133 Karlsruhe", "hours": {}, "open": true, "categories": ["Hair Salons", "Hair Stylists", "Beauty & Spas"], "city": "Karlsruhe", "review_count": 4, "name": "Salon Friseur Jung / Haircut", "neighborhoods": [], "longitude": 8.3941, "state": "BW", "stars": 4.5, "latitude": 49.0081, "attributes": {"By Appointment Only": false, "Good for Kids": true, "Parking": {"garage": false, "street": false, "validated": false, "lot": false, "valet": false}, "Wheelchair Accessible": true, "Price Range": 1}, "type": "business"}
{"business_id": "UX8ORZVzrGK8AfZpIBd82A", "full_address": "Sophienstra\u00dfe 232\n76185 Karlsruhe", "hours": {"Tuesday": {"close": "18:30", "open": "09:00"}, "Friday": {"close": "20:00", "open": "09:00"}, "Wednesday": {"close": "18:30", "open": "09:00"}, "Thursday": {"close": "18:30", "open": "09:00"}, "Saturday": {"close": "15:00", "open": "09:00"}}, "open": true, "categories": ["Hair Salons", "Hair Stylists", "Beauty & Spas"], "city": "Karlsruhe", "review_count": 3, "name": "Glatzenf\u00f6hner", "neighborhoods": [], "longitude": 8.3654629, "state": "BW", "stars": 3.5, "latitude": 49.0101799, "attributes": {"Price Range": 2}, "type": "business"}
{"business_id": "bemaKNgSiq2pWvfUCmK6Zw", "full_address": "ECE-Center-Ettlinger-Tor\n76133 Karlsruhe", "hours": {}, "open": true, "categories": ["Hair Salons", "Hair Stylists", "Beauty & Spas"], "city": "Karlsruhe", "review_count": 3, "name": "Hair 'N' More", "neighborhoods": [], "longitude": 8.40376, "state": "BW", "stars": 4.5, "latitude": 49.0081, "attributes": {"Parking": {"garage": false, "validated": false, "street": false, "lot": false, "valet": false}, "Accepts Credit Cards": true, "Wheelchair Accessible": true, "Price Range": 2}, "type": "business"}
{"business_id": "mMo3W7sBDKXdYeWVSeKqMw", "full_address": "Kreuzstr. 19\n76133 Karlsruhe", "hours": {}, "open": true, "categories": ["Hair Salons", "Hair Stylists", "Beauty & Spas"], "city": "Karlsruhe", "review_count": 5, "name": "Max Lui", "neighborhoods": [], "longitude": 8.40578, "state": "BW", "stars": 4.0, "latitude": 49.007, "attributes": {"Parking": {"garage": false, "street": false, "validated": false, "lot": false, "valet": false}, "Price Range": 3}, "type": "business"}
{"business_id": "ktQpBOGvDKfM0-KRCY21aA", "full_address": "Mathystr. 7\n76133 Karlsruhe", "hours": {}, "open": true, "categories": ["Hair Salons", "Hair Stylists", "Beauty & Spas"], "city": "Karlsruhe", "review_count": 21, "name": "Colling & Friends", "neighborhoods": [], "longitude": 8.39548, "state": "BW", "stars": 4.5, "latitude": 49.0023, "attributes": {"Parking": {"garage": false, "validated": false, "street": false, "lot": false, "valet": false}, "Good for Kids": false, "Accepts Credit Cards": false, "Wheelchair Accessible": true, "Price Range": 3}, "type": "business"}
{"business_id": "dMC3AIQ23lDypgkMI1gM7Q", "full_address": "Putlitzstr. 26\n76137 Karlsruhe", "hours": {}, "open": true, "categories": ["Hair Salons", "Hair Stylists", "Beauty & Spas"], "city": "Karlsruhe", "review_count": 5, "name": "f\u00f6n hair friends", "neighborhoods": [], "longitude": 8.38685, "state": "BW", "stars": 3.0, "latitude": 49.0033, "attributes": {"Price Range": 4, "Parking": {"garage": false, "street": false, "validated": false, "lot": false, "valet": false}, "By Appointment Only": true, "Accepts Credit Cards": true, "Good for Kids": true, "Wheelchair Accessible": false}, "type": "business"}
{"business_id": "pK-tkeJh-nc37duo9Hg8xw", "full_address": "Schillerstra\u00dfe 31\n76137 Karlsruhe", "hours": {}, "open": true, "categories": ["Hair Salons", "Hair Stylists", "Beauty & Spas"], "city": "Karlsruhe", "review_count": 4, "name": "The Hair Cafe Thc", "neighborhoods": [], "longitude": 8.3796933, "state": "BW", "stars": 5.0, "latitude": 49.0086495, "attributes": {"Parking": {"garage": false, "validated": false, "street": false, "lot": false, "valet": false}, "Wheelchair Accessible": false, "Price Range": 3}, "type": "business"}
{"business_id": "8E-1IU5PdnuitFwffFF0Wg", "full_address": "sophienstra\u00dfe 99\nEingang Scheffelstra\u00dfe\n76135 Karlsruhe", "hours": {"Tuesday": {"close": "19:30", "open": "09:00"}, "Friday": {"close": "19:30", "open": "09:00"}, "Wednesday": {"close": "19:30", "open": "09:00"}, "Thursday": {"close": "19:30", "open": "09:00"}, "Saturday": {"close": "14:00", "open": "10:00"}}, "open": true, "categories": ["Hair Salons", "Hair Stylists", "Beauty & Spas"], "city": "Karlsruhe", "review_count": 3, "name": "spliss - der fris\u00f6r", "neighborhoods": [], "longitude": 8.3814841, "state": "BW", "stars": 5.0, "latitude": 49.0079468, "attributes": {}, "type": "business"}
{"business_id": "MozQ5aTlhJwaI2OjeMM7EQ", "full_address": "Herrenstr. 66\n76133 Karlsruhe", "hours": {}, "open": true, "categories": ["Hair Salons", "Hair Stylists", "Beauty & Spas"], "city": "Karlsruhe", "review_count": 4, "name": "Die Fris\u00f6re Enrico und Beata", "neighborhoods": [], "longitude": 8.39551, "state": "BW", "stars": 4.5, "latitude": 49.0065, "attributes": {"Price Range": 3}, "type": "business"}
{"business_id": "GLZnniRlevgOYkdLoVze-A", "full_address": "Leopoldstr. 56\n76275 Ettlingen", "hours": {}, "open": true, "categories": ["Hair Salons", "Hair Stylists", "Beauty & Spas"], "city": "Ettlingen", "review_count": 5, "name": "Hairkiller", "neighborhoods": [], "longitude": 8.4089486, "state": "BW", "stars": 5.0, "latitude": 48.9397829, "attributes": {"Parking": {"garage": false, "validated": false, "street": false, "lot": false, "valet": false}, "Accepts Credit Cards": false, "Wheelchair Accessible": false, "Price Range": 1}, "type": "business"}
{"business_id": "WF050Paitkk6zu1nYvxnfQ", "full_address": "R\u00fcppurer Stra\u00dfe 132\n76137 Karlsruhe", "hours": {}, "open": true, "categories": ["Hair Salons", "Hair Stylists", "Beauty & Spas"], "city": "Karlsruhe", "review_count": 5, "name": "dierollendenfriseure.de", "neighborhoods": [], "longitude": 8.4054053, "state": "BW", "stars": 5.0, "latitude": 48.9960045, "attributes": {"Accepts Credit Cards": true, "Wheelchair Accessible": true, "Price Range": 2}, "type": "business"}
{"business_id": "OSqi_tZwydODzqff2LCLtQ", "full_address": "Kaiserstr. 38\n76133 Karlsruhe", "hours": {}, "open": true, "categories": ["Hair Salons", "Hair Stylists", "Beauty & Spas"], "city": "Karlsruhe", "review_count": 9, "name": "Hairkiller", "neighborhoods": [], "longitude": 8.40767, "state": "BW", "stars": 4.0, "latitude": 49.0096, "attributes": {"Good for Kids": true, "Price Range": 1}, "type": "business"}
{"business_id": "tFsknMJ5yAafN1tAcfMVKA", "full_address": "Amalienstr. 25A\n76133 Karlsruhe", "hours": {}, "open": true, "categories": ["Hair Salons", "Hair Stylists", "Beauty & Spas"], "city": "Karlsruhe", "review_count": 4, "name": "Salon Friseur Jung / Haircut", "neighborhoods": [], "longitude": 8.3941, "state": "BW", "stars": 4.5, "latitude": 49.0081, "attributes": {"By Appointment Only": false, "Good for Kids": true, "Parking": {"garage": false, "street": false, "validated": false, "lot": false, "valet": false}, "Wheelchair Accessible": true, "Price Range": 1}, "type": "business"}
{"business_id": "UX8ORZVzrGK8AfZpIBd82A", "full_address": "Sophienstra\u00dfe 232\n76185 Karlsruhe", "hours": {"Tuesday": {"close": "18:30", "open": "09:00"}, "Friday": {"close": "20:00", "open": "09:00"}, "Wednesday": {"close": "18:30", "open": "09:00"}, "Thursday": {"close": "18:30", "open": "09:00"}, "Saturday": {"close": "15:00", "open": "09:00"}}, "open": true, "categories": ["Hair Salons", "Hair Stylists", "Beauty & Spas"], "city": "Karlsruhe", "review_count": 3, "name": "Glatzenf\u00f6hner", "neighborhoods": [], "longitude": 8.3654629, "state": "BW", "stars": 3.5, "latitude": 49.0101799, "attributes": {"Price Range": 2}, "type": "business"}
{"business_id": "bemaKNgSiq2pWvfUCmK6Zw", "full_address": "ECE-Center-Ettlinger-Tor\n76133 Karlsruhe", "hours": {}, "open": true, "categories": ["Hair Salons", "Hair Stylists", "Beauty & Spas"], "city": "Karlsruhe", "review_count": 3, "name": "Hair 'N' More", "neighborhoods": [], "longitude": 8.40376, "state": "BW", "stars": 4.5, "latitude": 49.0081, "attributes": {"Parking": {"garage": false, "validated": false, "street": false, "lot": false, "valet": false}, "Accepts Credit Cards": true, "Wheelchair Accessible": true, "Price Range": 2}, "type": "business"}
{"business_id": "mMo3W7sBDKXdYeWVSeKqMw", "full_address": "Kreuzstr. 19\n76133 Karlsruhe", "hours": {}, "open": true, "categories": ["Hair Salons", "Hair Stylists", "Beauty & Spas"], "city": "Karlsruhe", "review_count": 5, "name": "Max Lui", "neighborhoods": [], "longitude": 8.40578, "state": "BW", "stars": 4.0, "latitude": 49.007, "attributes": {"Parking": {"garage": false, "street": false, "validated": false, "lot": false, "valet": false}, "Price Range": 3}, "type": "business"}
{"business_id": "ktQpBOGvDKfM0-KRCY21aA", "full_address": "Mathystr. 7\n76133 Karlsruhe", "hours": {}, "open": true, "categories": ["Hair Salons", "Hair Stylists", "Beauty & Spas"], "city": "Karlsruhe", "review_count": 21, "name": "Colling & Friends", "neighborhoods": [], "longitude": 8.39548, "state": "BW", "stars": 4.5, "latitude": 49.0023, "attributes": {"Parking": {"garage": false, "validated": false, "street": false, "lot": false, "valet": false}, "Good for Kids": false, "Accepts Credit Cards": false, "Wheelchair Accessible": true, "Price Range": 3}, "type": "business"}
{"business_id": "dMC3AIQ23lDypgkMI1gM7Q", "full_address": "Putlitzstr. 26\n76137 Karlsruhe", "hours": {}, "open": true, "categories": ["Hair Salons", "Hair Stylists", "Beauty & Spas"], "city": "Karlsruhe", "review_count": 5, "name": "f\u00f6n hair friends", "neighborhoods": [], "longitude": 8.38685, "state": "BW", "stars": 3.0, "latitude": 49.0033, "attributes": {"Price Range": 4, "Parking": {"garage": false, "street": false, "validated": false, "lot": false, "valet": false}, "By Appointment Only": true, "Accepts Credit Cards": true, "Good for Kids": true, "Wheelchair Accessible": false}, "type": "business"}
{"business_id": "pK-tkeJh-nc37duo9Hg8xw", "full_address": "Schillerstra\u00dfe 31\n76137 Karlsruhe", "hours": {}, "open": true, "categories": ["Hair Salons", "Hair Stylists", "Beauty & Spas"], "city": "Karlsruhe", "review_count": 4, "name": "The Hair Cafe Thc", "neighborhoods": [], "longitude": 8.3796933, "state": "BW", "stars": 5.0, "latitude": 49.0086495, "attributes": {"Parking": {"garage": false, "validated": false, "street": false, "lot": false, "valet": false}, "Wheelchair Accessible": false, "Price Range": 3}, "type": "business"}
{"business_id": "8E-1IU5PdnuitFwffFF0Wg", "full_address": "sophienstra\u00dfe 99\nEingang Scheffelstra\u00dfe\n76135 Karlsruhe", "hours": {"Tuesday": {"close": "19:30", "open": "09:00"}, "Friday": {"close": "19:30", "open": "09:00"}, "Wednesday": {"close": "19:30", "open": "09:00"}, "Thursday": {"close": "19:30", "open": "09:00"}, "Saturday": {"close": "14:00", "open": "10:00"}}, "open": true, "categories": ["Hair Salons", "Hair Stylists", "Beauty & Spas"], "city": "Karlsruhe", "review_count": 3, "name": "spliss - der fris\u00f6r", "neighborhoods": [], "longitude": 8.3814841, "state": "BW", "stars": 5.0, "latitude": 49.0079468, "attributes": {}, "type": "business"}
{"business_id": "MozQ5aTlhJwaI2OjeMM7EQ", "full_address": "Herrenstr. 66\n76133 Karlsruhe", "hours": {}, "open": true, "categories": ["Hair Salons", "Hair Stylists", "Beauty & Spas"], "city": "Karlsruhe", "review_count": 4, "name": "Die Fris\u00f6re Enrico und Beata", "neighborhoods": [], "longitude": 8.39551, "state": "BW", "stars": 4.5, "latitude": 49.0065, "attributes": {"Price Range": 3}, "type": "business"}
{"business_id": "GLZnniRlevgOYkdLoVze-A", "full_address": "Leopoldstr. 56\n76275 Ettlingen", "hours": {}, "open": true, "categories": ["Hair Salons", "Hair Stylists", "Beauty & Spas"], "city": "Ettlingen", "review_count": 5, "name": "Hairkiller", "neighborhoods": [], "longitude": 8.4089486, "state": "BW", "stars": 5.0, "latitude": 48.9397829, "attributes": {"Parking": {"garage": false, "validated": false, "street": false, "lot": false, "valet": false}, "Accepts Credit Cards": false, "Wheelchair Accessible": false, "Price Range": 1}, "type": "business"}
{"business_id": "WF050Paitkk6zu1nYvxnfQ", "full_address": "R\u00fcppurer Stra\u00dfe 132\n76137 Karlsruhe", "hours": {}, "open": true, "categories": ["Hair Salons", "Hair Stylists", "Beauty & Spas"], "city": "Karlsruhe", "review_count": 5, "name": "dierollendenfriseure.de", "neighborhoods": [], "longitude": 8.4054053, "state": "BW", "stars": 5.0, "latitude": 48.9960045, "attributes": {"Accepts Credit Cards": true, "Wheelchair Accessible": true, "Price Range": 2}, "type": "business"}
{"business_id": "OSqi_tZwydODzqff2LCLtQ", "full_address": "Kaiserstr. 38\n76133 Karlsruhe", "hours": {}, "open": true, "categories": ["Hair Salons", "Hair Stylists", "Beauty & Spas"], "city": "Karlsruhe", "review_count": 9, "name": "Hairkiller", "neighborhoods": [], "longitude": 8.40767, "state": "BW", "stars": 4.0, "latitude": 49.0096, "attributes": {"Good for Kids": true, "Price Range": 1}, "type": "business"}
{"business_id": "tFsknMJ5yAafN1tAcfMVKA", "full_address": "Amalienstr. 25A\n76133 Karlsruhe", "hours": {}, "open": true, "categories": ["Hair Salons", "Hair Stylists", "Beauty & Spas"], "city": "Karlsruhe", "review_count": 4, "name": "Salon Friseur Jung / Haircut", "neighborhoods": [], "longitude": 8.3941, "state": "BW", "stars": 4.5, "latitude": 49.0081, "attributes": {"By Appointment Only": false, "Good for Kids": true, "Parking": {"garage": false, "street": false, "validated": false, "lot": false, "valet": false}, "Wheelchair Accessible": true, "Price Range": 1}, "type": "business"}
{"business_id": "UX8ORZVzrGK8AfZpIBd82A", "full_address": "Sophienstra\u00dfe 232\n76185 Karlsruhe", "hours": {"Tuesday": {"close": "18:30", "open": "09:00"}, "Friday": {"close": "20:00", "open": "09:00"}, "Wednesday": {"close": "18:30", "open": "09:00"}, "Thursday": {"close": "18:30", "open": "09:00"}, "Saturday": {"close": "15:00", "open": "09:00"}}, "open": true, "categories": ["Hair Salons", "Hair Stylists", "Beauty & Spas"], "city": "Karlsruhe", "review_count": 3, "name": "Glatzenf\u00f6hner", "neighborhoods": [], "longitude": 8.3654629, "state": "BW", "stars": 3.5, "latitude": 49.0101799, "attributes": {"Price Range": 2}, "type": "business"}
{"business_id": "bemaKNgSiq2pWvfUCmK6Zw", "full_address": "ECE-Center-Ettlinger-Tor\n76133 Karlsruhe", "hours": {}, "open": true, "categories": ["Hair Salons", "Hair Stylists", "Beauty & Spas"], "city": "Karlsruhe", "review_count": 3, "name": "Hair 'N' More", "neighborhoods": [], "longitude": 8.40376, "state": "BW", "stars": 4.5, "latitude": 49.0081, "attributes": {"Parking": {"garage": false, "validated": false, "street": false, "lot": false, "valet": false}, "Accepts Credit Cards": true, "Wheelchair Accessible": true, "Price Range": 2}, "type": "business"}
{"business_id": "mMo3W7sBDKXdYeWVSeKqMw", "full_address": "Kreuzstr. 19\n76133 Karlsruhe", "hours": {}, "open": true, "categories": ["Hair Salons", "Hair Stylists", "Beauty & Spas"], "city": "Karlsruhe", "review_count": 5, "name": "Max Lui", "neighborhoods": [], "longitude": 8.40578, "state": "BW", "stars": 4.0, "latitude": 49.007, "attributes": {"Parking": {"garage": false, "street": false, "validated": false, "lot": false, "valet": false}, "Price Range": 3}, "type": "business"}
{"business_id": "ktQpBOGvDKfM0-KRCY21aA", "full_address": "Mathystr. 7\n76133 Karlsruhe", "hours": {}, "open": true, "categories": ["Hair Salons", "Hair Stylists", "Beauty & Spas"], "city": "Karlsruhe", "review_count": 21, "name": "Colling & Friends", "neighborhoods": [], "longitude": 8.39548, "state": "BW", "stars": 4.5, "latitude": 49.0023, "attributes": {"Parking": {"garage": false, "validated": false, "street": false, "lot": false, "valet": false}, "Good for Kids": false, "Accepts Credit Cards": false, "Wheelchair Accessible": true, "Price Range": 3}, "type": "business"}
{"business_id": "dMC3AIQ23lDypgkMI1gM7Q", "full_address": "Putlitzstr. 26\n76137 Karlsruhe", "hours": {}, "open": true, "categories": ["Hair Salons", "Hair Stylists", "Beauty & Spas"], "city": "Karlsruhe", "review_count": 5, "name": "f\u00f6n hair friends", "neighborhoods": [], "longitude": 8.38685, "state": "BW", "stars": 3.0, "latitude": 49.0033, "attributes": {"Price Range": 4, "Parking": {"garage": false, "street": false, "validated": false, "lot": false, "valet": false}, "By Appointment Only": true, "Accepts Credit Cards": true, "Good for Kids": true, "Wheelchair Accessible": false}, "type": "business"}
{"business_id": "pK-tkeJh-nc37duo9Hg8xw", "full_address": "Schillerstra\u00dfe 31\n76137 Karlsruhe", "hours": {}, "open": true, "categories": ["Hair Salons", "Hair Stylists", "Beauty & Spas"], "city": "Karlsruhe", "review_count": 4, "name": "The Hair Cafe Thc", "neighborhoods": [], "longitude": 8.3796933, "state": "BW", "stars": 5.0, "latitude": 49.0086495, "attributes": {"Parking": {"garage": false, "validated": false, "street": false, "lot": false, "valet": false}, "Wheelchair Accessible": false, "Price Range": 3}, "type": "business"}
{"business_id": "8E-1IU5PdnuitFwffFF0Wg", "full_address": "sophienstra\u00dfe 99\nEingang Scheffelstra\u00dfe\n76135 Karlsruhe", "hours": {"Tuesday": {"close": "19:30", "open": "09:00"}, "Friday": {"close": "19:30", "open": "09:00"}, "Wednesday": {"close": "19:30", "open": "09:00"}, "Thursday": {"close": "19:30", "open": "09:00"}, "Saturday": {"close": "14:00", "open": "10:00"}}, "open": true, "categories": ["Hair Salons", "Hair Stylists", "Beauty & Spas"], "city": "Karlsruhe", "review_count": 3, "name": "spliss - der fris\u00f6r", "neighborhoods": [], "longitude": 8.3814841, "state": "BW", "stars": 5.0, "latitude": 49.0079468, "attributes": {}, "type": "business"}
{"business_id": "MozQ5aTlhJwaI2OjeMM7EQ", "full_address": "Herrenstr. 66\n76133 Karlsruhe", "hours": {}, "open": true, "categories": ["Hair Salons", "Hair Stylists", "Beauty & Spas"], "city": "Karlsruhe", "review_count": 4, "name": "Die Fris\u00f6re Enrico und Beata", "neighborhoods": [], "longitude": 8.39551, "state": "BW", "stars": 4.5, "latitude": 49.0065, "attributes": {"Price Range": 3}, "type": "business"}
{"business_id": "GLZnniRlevgOYkdLoVze-A", "full_address": "Leopoldstr. 56\n76275 Ettlingen", "hours": {}, "open": true, "categories": ["Hair Salons", "Hair Stylists", "Beauty & Spas"], "city": "Ettlingen", "review_count": 5, "name": "Hairkiller", "neighborhoods": [], "longitude": 8.4089486, "state": "BW", "stars": 5.0, "latitude": 48.9397829, "attributes": {"Parking": {"garage": false, "validated": false, "street": false, "lot": false, "valet": false}, "Accepts Credit Cards": false, "Wheelchair Accessible": false, "Price Range": 1}, "type": "business"}
{"business_id": "WF050Paitkk6zu1nYvxnfQ", "full_address": "R\u00fcppurer Stra\u00dfe 132\n76137 Karlsruhe", "hours": {}, "open": true, "categories": ["Hair Salons", "Hair Stylists", "Beauty & Spas"], "city": "Karlsruhe", "review_count": 5, "name": "dierollendenfriseure.de", "neighborhoods": [], "longitude": 8.4054053, "state": "BW", "stars": 5.0, "latitude": 48.9960045, "attributes": {"Accepts Credit Cards": true, "Wheelchair Accessible": true, "Price Range": 2}, "type": "business"}
{"business_id": "OSqi_tZwydODzqff2LCLtQ", "full_address": "Kaiserstr. 38\n76133 Karlsruhe", "hours": {}, "open": true, "categories": ["Hair Salons", "Hair Stylists", "Beauty & Spas"], "city": "Karlsruhe", "review_count": 9, "name": "Hairkiller", "neighborhoods": [], "longitude": 8.40767, "state": "BW", "stars": 4.0, "latitude": 49.0096, "attributes": {"Good for Kids": true, "Price Range": 1}, "type": "business"}
{"business_id": "tFsknMJ5yAafN1tAcfMVKA", "full_address": "Amalienstr. 25A\n76133 Karlsruhe", "hours": {}, "open": true, "categories": ["Hair Salons", "Hair Stylists", "Beauty & Spas"], "city": "Karlsruhe", "review_count": 4, "name": "Salon Friseur Jung / Haircut", "neighborhoods": [], "longitude": 8.3941, "state": "BW", "stars": 4.5, "latitude": 49.0081, "attributes": {"By Appointment Only": false, "Good for Kids": true, "Parking": {"garage": false, "street": false, "validated": false, "lot": false, "valet": false}, "Wheelchair Accessible": true, "Price Range": 1}, "type": "business"}
{"business_id": "UX8ORZVzrGK8AfZpIBd82A", "full_address": "Sophienstra\u00dfe 232\n76185 Karlsruhe", "hours": {"Tuesday": {"close": "18:30", "open": "09:00"}, "Friday": {"close": "20:00", "open": "09:00"}, "Wednesday": {"close": "18:30", "open": "09:00"}, "Thursday": {"close": "18:30", "open": "09:00"}, "Saturday": {"close": "15:00", "open": "09:00"}}, "open": true, "categories": ["Hair Salons", "Hair Stylists", "Beauty & Spas"], "city": "Karlsruhe", "review_count": 3, "name": "Glatzenf\u00f6hner", "neighborhoods": [], "longitude": 8.3654629, "state": "BW", "stars": 3.5, "latitude": 49.0101799, "attributes": {"Price Range": 2}, "type": "business"}
{"business_id": "bemaKNgSiq2pWvfUCmK6Zw", "full_address": "ECE-Center-Ettlinger-Tor\n76133 Karlsruhe", "hours": {}, "open": true, "categories": ["Hair Salons", "Hair Stylists", "Beauty & Spas"], "city": "Karlsruhe", "review_count": 3, "name": "Hair 'N' More", "neighborhoods": [], "longitude": 8.40376, "state": "BW", "stars": 4.5, "latitude": 49.0081, "attributes": {"Parking": {"garage": false, "validated": false, "street": false, "lot": false, "valet": false}, "Accepts Credit Cards": true, "Wheelchair Accessible": true, "Price Range": 2}, "type": "business"}
{"business_id": "mMo3W7sBDKXdYeWVSeKqMw", "full_address": "Kreuzstr. 19\n76133 Karlsruhe", "hours": {}, "open": true, "categories": ["Hair Salons", "Hair Stylists", "Beauty & Spas"], "city": "Karlsruhe", "review_count": 5, "name": "Max Lui", "neighborhoods": [], "longitude": 8.40578, "state": "BW", "stars": 4.0, "latitude": 49.007, "attributes": {"Parking": {"garage": false, "street": false, "validated": false, "lot": false, "valet": false}, "Price Range": 3}, "type": "business"}
