{"business_id": "P5kq8MLKjLm8ayy3hk8WSQ", "full_address": "Am Storrenacker 3\n76139 Karlsruhe", "hours": {"Monday": {"close": "20:00", "open": "10:00"}, "Tuesday": {"close": "20:00", "open": "10:00"}, "Friday": {"close": "20:00", "open": "10:00"}, "Wednesday": {"close": "20:00", "open": "10:00"}, "Thursday": {"close": "20:00", "open": "10:00"}, "Saturday": {"close": "20:00", "open": "10:00"}}, "open": true, "categories": ["Pets", "Pet Stores"], "city": "Karlsruhe", "review_count": 4, "name": "K\u00d6LLE-ZOO", "neighborhoods": [], "longitude": 8.4658, "state": "BW", "stars": 4.0, "latitude": 49.01939, "attributes": {"Parking": {"garage": false, "validated": false, "street": false, "lot": false, "valet": false}, "Accepts Credit Cards": true, "Price Range": 3}, "type": "business"}
{"business_id": "PYMkf1KLKf7bvZZOVaZjYQ", "full_address": "Hardeckstr. 8\n76185 Karlsruhe", "hours": {}, "open": true, "categories": ["Pets", "Pet Stores"], "city": "Karlsruhe", "review_count": 3, "name": "Zoo SB-Markt f\u00fcr Heimtiere", "neighborhoods": [], "longitude": 8.36203, "state": "BW", "stars": 4.5, "latitude": 48.9982, "attributes": {"Parking": {"garage": false, "validated": false, "street": false, "lot": false, "valet": false}, "Accepts Credit Cards": true, "Price Range": 4}, "type": "business"}
{"business_id": "P5kq8MLKjLm8ayy3hk8WSQ", "full_address": "Am Storrenacker 3\n76139 Karlsruhe", "hours": {"Monday": {"close": "20:00", "open": "10:00"}, "Tuesday": {"close": "20:00", "open": "10:00"}, "Friday": {"close": "20:00", "open": "10:00"}, "Wednesday": {"close": "20:00", "open": "10:00"}, "Thursday": {"close": "20:00", "open": "10:00"}, "Saturday": {"close": "20:00", "open": "10:00"}}, "open": true, "categories": ["Pets", "Pet Stores"], "city": "Karlsruhe", "review_count": 4, "name": "K\u00d6LLE-ZOO", "neighborhoods": [], "longitude": 8.4658, "state": "BW", "stars": 4.0, "latitude": 49.01939, "attributes": {"Parking": {"garage": false, "validated": false, "street": false, "lot": false, "valet": false}, "Accepts Credit Cards": true, "Price Range": 3}, "type": "business"}
{"business_id": "PYMkf1KLKf7bvZZOVaZjYQ", "full_address": "Hardeckstr. 8\n76185 Karlsruhe", "hours": {}, "open": true, "categories": ["Pets", "Pet Stores"], "city": "Karlsruhe", "review_count": 3, "name": "Zoo SB-Markt f\u00fcr Heimtiere", "neighborhoods": [], "longitude": 8.36203, "state": "BW", "stars": 4.5, "latitude": 48.9982, "attributes": {"Parking": {"garage": false, "validated": false, "street": false, "lot": false, "valet": false}, "Accepts Credit Cards": true, "Price Range": 4}, "type": "business"}
{"business_id": "P5kq8MLKjLm8ayy3hk8WSQ", "full_address": "Am Storrenacker 3\n76139 Karlsruhe", "hours": {"Monday": {"close": "20:00", "open": "10:00"}, "Tuesday": {"close": "20:00", "open": "10:00"}, "Friday": {"close": "20:00", "open": "10:00"}, "Wednesday": {"close": "20:00", "open": "10:00"}, "Thursday": {"close": "20:00", "open": "10:00"}, "Saturday": {"close": "20:00", "open": "10:00"}}, "open": true, "categories": ["Pets", "Pet Stores"], "city": "Karlsruhe", "review_count": 4, "name": "K\u00d6LLE-ZOO", "neighborhoods": [], "longitude": 8.4658, "state": "BW", "stars": 4.0, "latitude": 49.01939, "attributes": {"Parking": {"garage": false, "validated": false, "street": false, "lot": false, "valet": false}, "Accepts Credit Cards": true, "Price Range": 3}, "type": "business"}
{"business_id": "PYMkf1KLKf7bvZZOVaZjYQ", "full_address": "Hardeckstr. 8\n76185 Karlsruhe", "hours": {}, "open": true, "categories": ["Pets", "Pet Stores"], "city": "Karlsruhe", "review_count": 3, "name": "Zoo SB-Markt f\u00fcr Heimtiere", "neighborhoods": [], "longitude": 8.36203, "state": "BW", "stars": 4.5, "latitude": 48.9982, "attributes": {"Parking": {"garage": false, "validated": false, "street": false, "lot": false, "valet": false}, "Accepts Credit Cards": true, "Price Range": 4}, "type": "business"}
{"business_id": "P5kq8MLKjLm8ayy3hk8WSQ", "full_address": "Am Storrenacker 3\n76139 Karlsruhe", "hours": {"Monday": {"close": "20:00", "open": "10:00"}, "Tuesday": {"close": "20:00", "open": "10:00"}, "Friday": {"close": "20:00", "open": "10:00"}, "Wednesday": {"close": "20:00", "open": "10:00"}, "Thursday": {"close": "20:00", "open": "10:00"}, "Saturday": {"close": "20:00", "open": "10:00"}}, "open": true, "categories": ["Pets", "Pet Stores"], "city": "Karlsruhe", "review_count": 4, "name": "K\u00d6LLE-ZOO", "neighborhoods": [], "longitude": 8.4658, "state": "BW", "stars": 4.0, "latitude": 49.01939, "attributes": {"Parking": {"garage": false, "validated": false, "street": false, "lot": false, "valet": false}, "Accepts Credit Cards": true, "Price Range": 3}, "type": "business"}
{"business_id": "PYMkf1KLKf7bvZZOVaZjYQ", "full_address": "Hardeckstr. 8\n76185 Karlsruhe", "hours": {}, "open": true, "categories": ["Pets", "Pet Stores"], "city": "Karlsruhe", "review_count": 3, "name": "Zoo SB-Markt f\u00fcr Heimtiere", "neighborhoods": [], "longitude": 8.36203, "state": "BW", "stars": 4.5, "latitude": 48.9982, "attributes": {"Parking": {"garage": false, "validated": false, "street": false, "lot": false, "valet": false}, "Accepts Credit Cards": true, "Price Range": 4}, "type": "business"}
{"business_id": "P5kq8MLKjLm8ayy3hk8WSQ", "full_address": "Am Storrenacker 3\n76139 Karlsruhe", "hours": {"Monday": {"close": "20:00", "open": "10:00"}, "Tuesday": {"close": "20:00", "open": "10:00"}, "Friday": {"close": "20:00", "open": "10:00"}, "Wednesday": {"close": "20:00", "open": "10:00"}, "Thursday": {"close": "20:00", "open": "10:00"}, "Saturday": {"close": "20:00", "open": "10:00"}}, "open": true, "categories": ["Pets", "Pet Stores"], "city": "Karlsruhe", "review_count": 4, "name": "K\u00d6LLE-ZOO", "neighborhoods": [], "longitude": 8.4658, "state": "BW", "stars": 4.0, "latitude": 49.01939, "attributes": {"Parking": {"garage": false, "validated": false, "street": false, "lot": false, "valet": false}, "Accepts Credit Cards": true, "Price Range": 3}, "type": "business"}
{"business_id": "PYMkf1KLKf7bvZZOVaZjYQ", "full_address": "Hardeckstr. 8\n76185 Karlsruhe", "hours": {}, "open": true, "categories": ["Pets", "Pet Stores"], "city": "Karlsruhe", "review_count": 3, "name": "Zoo SB-Markt f\u00fcr Heimtiere", "neighborhoods": [], "longitude": 8.36203, "state": "BW", "stars": 4.5, "latitude": 48.9982, "attributes": {"Parking": {"garage": false, "validated": false, "street": false, "lot": false, "valet": false}, "Accepts Credit Cards": true, "Price Range": 4}, "type": "business"}
{"business_id": "P5kq8MLKjLm8ayy3hk8WSQ", "full_address": "Am Storrenacker 3\n76139 Karlsruhe", "hours": {"Monday": {"close": "20:00", "open": "10:00"}, "Tuesday": {"close": "20:00", "open": "10:00"}, "Friday": {"close": "20:00", "open": "10:00"}, "Wednesday": {"close": "20:00", "open": "10:00"}, "Thursday": {"close": "20:00", "open": "10:00"}, "Saturday": {"close": "20:00", "open": "10:00"}}, "open": true, "categories": ["Pets", "Pet Stores"], "city": "Karlsruhe", "review_count": 4, "name": "K\u00d6LLE-ZOO", "neighborhoods": [], "longitude": 8.4658, "state": "BW", "stars": 4.0, "latitude": 49.01939, "attributes": {"Parking": {"garage": false, "validated": false, "street": false, "lot": false, "valet": false}, "Accepts Credit Cards": true, "Price Range": 3}, "type": "business"}
{"business_id": "PYMkf1KLKf7bvZZOVaZjYQ", "full_address": "Hardeckstr. 8\n76185 Karlsruhe", "hours": {}, "open": true, "categories": ["Pets", "Pet Stores"], "city": "Karlsruhe", "review_count": 3, "name": "Zoo SB-Markt f\u00fcr Heimtiere", "neighborhoods": [], "longitude": 8.36203, "state": "BW", "stars": 4.5, "latitude": 48.9982, "attributes": {"Parking": {"garage": false, "validated": false, "street": false, "lot": false, "valet": false}, "Accepts Credit Cards": true, "Price Range": 4}, "type": "business"}
