{"business_id": "OM_STp3HD4_VD8Cj7bk5FA", "full_address": "Akademiestrasse 43\nn\u00e4he Kaiserpassage\n76133 Karlsruhe", "hours": {}, "open": true, "categories": ["Local Services", "Food", "Printing Services", "Internet Cafes"], "city": "Karlsruhe", "review_count": 6, "name": "Webdome Internetcafe", "neighborhoods": [], "longitude": 8.3956698, "state": "BW", "stars": 5.0, "latitude": 49.0107889, "attributes": {"Wi-Fi": "paid", "Alcohol": "none", "Has TV": true, "Outdoor Seating": false, "Parking": {"garage": false, "validated": false, "street": false, "lot": false, "valet": false}, "Smoking": "outdoor", "Accepts Credit Cards": false, "Good For Groups": false, "Price Range": 1}, "type": "business"}
{"business_id": "0GJhI55FYF_ELmm88stj3Q", "full_address": "Kaiserstrasse 170\ngegen\u00fcber Rewe Markt\n76133 Karlsruhe", "hours": {}, "open": true, "categories": ["Local Services", "Food", "Printing Services", "Internet Cafes"], "city": "Karlsruhe", "review_count": 6, "name": "Webdome Internetcafe 2", "neighborhoods": [], "longitude": 8.3925711, "state": "BW", "stars": 5.0, "latitude": 49.0102368, "attributes": {"Wi-Fi": "paid", "Alcohol": "none", "Has TV": true, "Outdoor Seating": false, "Parking": {"garage": false, "validated": false, "street": false, "lot": false, "valet": false}, "Accepts Credit Cards": false, "Price Range": 1}, "type": "business"}
{"business_id": "OM_STp3HD4_VD8Cj7bk5FA", "full_address": "Akademiestrasse 43\nn\u00e4he Kaiserpassage\n76133 Karlsruhe", "hours": {}, "open": true, "categories": ["Local Services", "Food", "Printing Services", "Internet Cafes"], "city": "Karlsruhe", "review_count": 6, "name": "Webdome Internetcafe", "neighborhoods": [], "longitude": 8.3956698, "state": "BW", "stars": 5.0, "latitude": 49.0107889, "attributes": {"Wi-Fi": "paid", "Alcohol": "none", "Has TV": true, "Outdoor Seating": false, "Parking": {"garage": false, "validated": false, "street": false, "lot": false, "valet": false}, "Smoking": "outdoor", "Accepts Credit Cards": false, "Good For Groups": false, "Price Range": 1}, "type": "business"}
{"business_id": "0GJhI55FYF_ELmm88stj3Q", "full_address": "Kaiserstrasse 170\ngegen\u00fcber Rewe Markt\n76133 Karlsruhe", "hours": {}, "open": true, "categories": ["Local Services", "Food", "Printing Services", "Internet Cafes"], "city": "Karlsruhe", "review_count": 6, "name": "Webdome Internetcafe 2", "neighborhoods": [], "longitude": 8.3925711, "state": "BW", "stars": 5.0, "latitude": 49.0102368, "attributes": {"Wi-Fi": "paid", "Alcohol": "none", "Has TV": true, "Outdoor Seating": false, "Parking": {"garage": false, "validated": false, "street": false, "lot": false, "valet": false}, "Accepts Credit Cards": false, "Price Range": 1}, "type": "business"}
{"business_id": "OM_STp3HD4_VD8Cj7bk5FA", "full_address": "Akademiestrasse 43\nn\u00e4he Kaiserpassage\n76133 Karlsruhe", "hours": {}, "open": true, "categories": ["Local Services", "Food", "Printing Services", "Internet Cafes"], "city": "Karlsruhe", "review_count": 6, "name": "Webdome Internetcafe", "neighborhoods": [], "longitude": 8.3956698, "state": "BW", "stars": 5.0, "latitude": 49.0107889, "attributes": {"Wi-Fi": "paid", "Alcohol": "none", "Has TV": true, "Outdoor Seating": false, "Parking": {"garage": false, "validated": false, "street": false, "lot": false, "valet": false}, "Smoking": "outdoor", "Accepts Credit Cards": false, "Good For Groups": false, "Price Range": 1}, "type": "business"}
{"business_id": "0GJhI55FYF_ELmm88stj3Q", "full_address": "Kaiserstrasse 170\ngegen\u00fcber Rewe Markt\n76133 Karlsruhe", "hours": {}, "open": true, "categories": ["Local Services", "Food", "Printing Services", "Internet Cafes"], "city": "Karlsruhe", "review_count": 6, "name": "Webdome Internetcafe 2", "neighborhoods": [], "longitude": 8.3925711, "state": "BW", "stars": 5.0, "latitude": 49.0102368, "attributes": {"Wi-Fi": "paid", "Alcohol": "none", "Has TV": true, "Outdoor Seating": false, "Parking": {"garage": false, "validated": false, "street": false, "lot": false, "valet": false}, "Accepts Credit Cards": false, "Price Range": 1}, "type": "business"}
{"business_id": "OM_STp3HD4_VD8Cj7bk5FA", "full_address": "Akademiestrasse 43\nn\u00e4he Kaiserpassage\n76133 Karlsruhe", "hours": {}, "open": true, "categories": ["Local Services", "Food", "Printing Services", "Internet Cafes"], "city": "Karlsruhe", "review_count": 6, "name": "Webdome Internetcafe", "neighborhoods": [], "longitude": 8.3956698, "state": "BW", "stars": 5.0, "latitude": 49.0107889, "attributes": {"Wi-Fi": "paid", "Alcohol": "none", "Has TV": true, "Outdoor Seating": false, "Parking": {"garage": false, "validated": false, "street": false, "lot": false, "valet": false}, "Smoking": "outdoor", "Accepts Credit Cards": false, "Good For Groups": false, "Price Range": 1}, "type": "business"}
{"business_id": "0GJhI55FYF_ELmm88stj3Q", "full_address": "Kaiserstrasse 170\ngegen\u00fcber Rewe Markt\n76133 Karlsruhe", "hours": {}, "open": true, "categories": ["Local Services", "Food", "Printing Services", "Internet Cafes"], "city": "Karlsruhe", "review_count": 6, "name": "Webdome Internetcafe 2", "neighborhoods": [], "longitude": 8.3925711, "state": "BW", "stars": 5.0, "latitude": 49.0102368, "attributes": {"Wi-Fi": "paid", "Alcohol": "none", "Has TV": true, "Outdoor Seating": false, "Parking": {"garage": false, "validated": false, "street": false, "lot": false, "valet": false}, "Accepts Credit Cards": false, "Price Range": 1}, "type": "business"}
{"business_id": "OM_STp3HD4_VD8Cj7bk5FA", "full_address": "Akademiestrasse 43\nn\u00e4he Kaiserpassage\n76133 Karlsruhe", "hours": {}, "open": true, "categories": ["Local Services", "Food", "Printing Services", "Internet Cafes"], "city": "Karlsruhe", "review_count": 6, "name": "Webdome Internetcafe", "neighborhoods": [], "longitude": 8.3956698, "state": "BW", "stars": 5.0, "latitude": 49.0107889, "attributes": {"Wi-Fi": "paid", "Alcohol": "none", "Has TV": true, "Outdoor Seating": false, "Parking": {"garage": false, "validated": false, "street": false, "lot": false, "valet": false}, "Smoking": "outdoor", "Accepts Credit Cards": false, "Good For Groups": false, "Price Range": 1}, "type": "business"}
{"business_id": "0GJhI55FYF_ELmm88stj3Q", "full_address": "Kaiserstrasse 170\ngegen\u00fcber Rewe Markt\n76133 Karlsruhe", "hours": {}, "open": true, "categories": ["Local Services", "Food", "Printing Services", "Internet Cafes"], "city": "Karlsruhe", "review_count": 6, "name": "Webdome Internetcafe 2", "neighborhoods": [], "longitude": 8.3925711, "state": "BW", "stars": 5.0, "latitude": 49.0102368, "attributes": {"Wi-Fi": "paid", "Alcohol": "none", "Has TV": true, "Outdoor Seating": false, "Parking": {"garage": false, "validated": false, "street": false, "lot": false, "valet": false}, "Accepts Credit Cards": false, "Price Range": 1}, "type": "business"}
{"business_id": "OM_STp3HD4_VD8Cj7bk5FA", "full_address": "Akademiestrasse 43\nn\u00e4he Kaiserpassage\n76133 Karlsruhe", "hours": {}, "open": true, "categories": ["Local Services", "Food", "Printing Services", "Internet Cafes"], "city": "Karlsruhe", "review_count": 6, "name": "Webdome Internetcafe", "neighborhoods": [], "longitude": 8.3956698, "state": "BW", "stars": 5.0, "latitude": 49.0107889, "attributes": {"Wi-Fi": "paid", "Alcohol": "none", "Has TV": true, "Outdoor Seating": false, "Parking": {"garage": false, "validated": false, "street": false, "lot": false, "valet": false}, "Smoking": "outdoor", "Accepts Credit Cards": false, "Good For Groups": false, "Price Range": 1}, "type": "business"}
{"business_id": "0GJhI55FYF_ELmm88stj3Q", "full_address": "Kaiserstrasse 170\ngegen\u00fcber Rewe Markt\n76133 Karlsruhe", "hours": {}, "open": true, "categories": ["Local Services", "Food", "Printing Services", "Internet Cafes"], "city": "Karlsruhe", "review_count": 6, "name": "Webdome Internetcafe 2", "neighborhoods": [], "longitude": 8.3925711, "state": "BW", "stars": 5.0, "latitude": 49.0102368, "attributes": {"Wi-Fi": "paid", "Alcohol": "none", "Has TV": true, "Outdoor Seating": false, "Parking": {"garage": false, "validated": false, "street": false, "lot": false, "valet": false}, "Accepts Credit Cards": false, "Price Range": 1}, "type": "business"}
