{"business_id": "wheuLBEzZQ-my4gNt7aPUg", "full_address": "Kaiserpassage 6\n76133 Karlsruhe", "hours": {}, "open": true, "categories": ["Arts & Entertainment", "Cinema"], "city": "Karlsruhe", "review_count": 5, "name": "Die Kurbel", "neighborhoods": [], "longitude": 8.3973248, "state": "BW", "stars": 4.0, "latitude": 49.0102619, "attributes": {"Price Range": 2, "Alcohol": "beer_and_wine", "Coat Check": false, "Happy Hour": false, "Outdoor Seating": false, "Parking": {"garage": false, "validated": false, "street": false, "lot": false, "valet": false}, "Smoking": "outdoor", "Accepts Credit Cards": false, "Good for Kids": false, "Wheelchair Accessible": true}, "type": "business"}
{"business_id": "V_covJrJEmKoj8qTE-sfgw", "full_address": "Kaiserstr. 152-154\n76133 Karlsruhe", "hours": {}, "open": true, "categories": ["Arts & Entertainment", "Cinema"], "city": "Karlsruhe", "review_count": 5, "name": "Universum-City", "neighborhoods": [], "longitude": 8.39424, "state": "BW", "stars": 4.0, "latitude": 49.0101, "attributes": {"Good for Kids": true, "Price Range": 2}, "type": "business"}
{"business_id": "XIikFKubRRURUqQKNs29AQ", "full_address": "Marienstr. 16\n76137 Karlsruhe", "hours": {}, "open": true, "categories": ["Arts & Entertainment", "Cinema"], "city": "Karlsruhe", "review_count": 59, "name": "Schauburg Kino", "neighborhoods": [], "longitude": 8.4077757, "state": "BW", "stars": 4.5, "latitude": 49.0031885, "attributes": {"Coat Check": false, "Alcohol": "beer_and_wine", "Attire": "casual", "Happy Hour": true, "Wheelchair Accessible": true, "Outdoor Seating": false, "Parking": {"garage": false, "validated": false, "street": false, "lot": false, "valet": false}, "Smoking": "no", "Accepts Credit Cards": false, "Good for Kids": true, "Good For Groups": true, "Price Range": 1}, "type": "business"}
{"business_id": "lNforL0COH6J5hnF08l_1w", "full_address": "Brauerstr. 40\n76135 Karlsruhe", "hours": {}, "open": true, "categories": ["Arts & Entertainment", "Cinema"], "city": "Karlsruhe", "review_count": 66, "name": "Filmpalast am ZKM", "neighborhoods": [], "longitude": 8.38557, "state": "BW", "stars": 3.5, "latitude": 49.00038, "attributes": {"Take-out": true, "Good For": {"dessert": false, "latenight": false, "lunch": false, "dinner": false, "breakfast": false, "brunch": false}, "Takes Reservations": true, "Parking": {"garage": false, "validated": false, "street": false, "lot": false, "valet": false}, "Wheelchair Accessible": true, "Outdoor Seating": true, "Attire": "casual", "Alcohol": "beer_and_wine", "Smoking": "no", "Accepts Credit Cards": true, "Good for Kids": true, "Good For Groups": true, "Price Range": 3}, "type": "business"}
{"business_id": "6S-7J-16S4hMEFSFfJpZBQ", "full_address": "Schlachthausstr\nam Schloss Gottesaue\n76131 Karlsruhe", "hours": {}, "open": true, "categories": ["Arts & Entertainment", "Cinema"], "city": "Karlsruhe", "review_count": 4, "name": "OpenAir Kino-N\u00e4chte", "neighborhoods": [], "longitude": 8.4258554, "state": "BW", "stars": 4.5, "latitude": 49.0037318, "attributes": {"Price Range": 2}, "type": "business"}
{"business_id": "yGgSNX8uJ6cKJQzLfmIjIQ", "full_address": "Karlstr. 10\n76133 Karlsruhe", "hours": {}, "open": true, "categories": ["Arts & Entertainment", "Cinema"], "city": "Karlsruhe", "review_count": 4, "name": "Das Kino Kinemathek Karlsruhe e.V. Kasse", "neighborhoods": [], "longitude": 8.39512, "state": "BW", "stars": 4.5, "latitude": 49.0109, "attributes": {"Price Range": 2}, "type": "business"}
{"business_id": "wheuLBEzZQ-my4gNt7aPUg", "full_address": "Kaiserpassage 6\n76133 Karlsruhe", "hours": {}, "open": true, "categories": ["Arts & Entertainment", "Cinema"], "city": "Karlsruhe", "review_count": 5, "name": "Die Kurbel", "neighborhoods": [], "longitude": 8.3973248, "state": "BW", "stars": 4.0, "latitude": 49.0102619, "attributes": {"Price Range": 2, "Alcohol": "beer_and_wine", "Coat Check": false, "Happy Hour": false, "Outdoor Seating": false, "Parking": {"garage": false, "validated": false, "street": false, "lot": false, "valet": false}, "Smoking": "outdoor", "Accepts Credit Cards": false, "Good for Kids": false, "Wheelchair Accessible": true}, "type": "business"}
{"business_id": "V_covJrJEmKoj8qTE-sfgw", "full_address": "Kaiserstr. 152-154\n76133 Karlsruhe", "hours": {}, "open": true, "categories": ["Arts & Entertainment", "Cinema"], "city": "Karlsruhe", "review_count": 5, "name": "Universum-City", "neighborhoods": [], "longitude": 8.39424, "state": "BW", "stars": 4.0, "latitude": 49.0101, "attributes": {"Good for Kids": true, "Price Range": 2}, "type": "business"}
{"business_id": "XIikFKubRRURUqQKNs29AQ", "full_address": "Marienstr. 16\n76137 Karlsruhe", "hours": {}, "open": true, "categories": ["Arts & Entertainment", "Cinema"], "city": "Karlsruhe", "review_count": 59, "name": "Schauburg Kino", "neighborhoods": [], "longitude": 8.4077757, "state": "BW", "stars": 4.5, "latitude": 49.0031885, "attributes": {"Coat Check": false, "Alcohol": "beer_and_wine", "Attire": "casual", "Happy Hour": true, "Wheelchair Accessible": true, "Outdoor Seating": false, "Parking": {"garage": false, "validated": false, "street": false, "lot": false, "valet": false}, "Smoking": "no", "Accepts Credit Cards": false, "Good for Kids": true, "Good For Groups": true, "Price Range": 1}, "type": "business"}
{"business_id": "lNforL0COH6J5hnF08l_1w", "full_address": "Brauerstr. 40\n76135 Karlsruhe", "hours": {}, "open": true, "categories": ["Arts & Entertainment", "Cinema"], "city": "Karlsruhe", "review_count": 66, "name": "Filmpalast am ZKM", "neighborhoods": [], "longitude": 8.38557, "state": "BW", "stars": 3.5, "latitude": 49.00038, "attributes": {"Take-out": true, "Good For": {"dessert": false, "latenight": false, "lunch": false, "dinner": false, "breakfast": false, "brunch": false}, "Takes Reservations": true, "Parking": {"garage": false, "validated": false, "street": false, "lot": false, "valet": false}, "Wheelchair Accessible": true, "Outdoor Seating": true, "Attire": "casual", "Alcohol": "beer_and_wine", "Smoking": "no", "Accepts Credit Cards": true, "Good for Kids": true, "Good For Groups": true, "Price Range": 3}, "type": "business"}
{"business_id": "6S-7J-16S4hMEFSFfJpZBQ", "full_address": "Schlachthausstr\nam Schloss Gottesaue\n76131 Karlsruhe", "hours": {}, "open": true, "categories": ["Arts & Entertainment", "Cinema"], "city": "Karlsruhe", "review_count": 4, "name": "OpenAir Kino-N\u00e4chte", "neighborhoods": [], "longitude": 8.4258554, "state": "BW", "stars": 4.5, "latitude": 49.0037318, "attributes": {"Price Range": 2}, "type": "business"}
{"business_id": "yGgSNX8uJ6cKJQzLfmIjIQ", "full_address": "Karlstr. 10\n76133 Karlsruhe", "hours": {}, "open": true, "categories": ["Arts & Entertainment", "Cinema"], "city": "Karlsruhe", "review_count": 4, "name": "Das Kino Kinemathek Karlsruhe e.V. Kasse", "neighborhoods": [], "longitude": 8.39512, "state": "BW", "stars": 4.5, "latitude": 49.0109, "attributes": {"Price Range": 2}, "type": "business"}
{"business_id": "wheuLBEzZQ-my4gNt7aPUg", "full_address": "Kaiserpassage 6\n76133 Karlsruhe", "hours": {}, "open": true, "categories": ["Arts & Entertainment", "Cinema"], "city": "Karlsruhe", "review_count": 5, "name": "Die Kurbel", "neighborhoods": [], "longitude": 8.3973248, "state": "BW", "stars": 4.0, "latitude": 49.0102619, "attributes": {"Price Range": 2, "Alcohol": "beer_and_wine", "Coat Check": false, "Happy Hour": false, "Outdoor Seating": false, "Parking": {"garage": false, "validated": false, "street": false, "lot": false, "valet": false}, "Smoking": "outdoor", "Accepts Credit Cards": false, "Good for Kids": false, "Wheelchair Accessible": true}, "type": "business"}
{"business_id": "V_covJrJEmKoj8qTE-sfgw", "full_address": "Kaiserstr. 152-154\n76133 Karlsruhe", "hours": {}, "open": true, "categories": ["Arts & Entertainment", "Cinema"], "city": "Karlsruhe", "review_count": 5, "name": "Universum-City", "neighborhoods": [], "longitude": 8.39424, "state": "BW", "stars": 4.0, "latitude": 49.0101, "attributes": {"Good for Kids": true, "Price Range": 2}, "type": "business"}
{"business_id": "XIikFKubRRURUqQKNs29AQ", "full_address": "Marienstr. 16\n76137 Karlsruhe", "hours": {}, "open": true, "categories": ["Arts & Entertainment", "Cinema"], "city": "Karlsruhe", "review_count": 59, "name": "Schauburg Kino", "neighborhoods": [], "longitude": 8.4077757, "state": "BW", "stars": 4.5, "latitude": 49.0031885, "attributes": {"Coat Check": false, "Alcohol": "beer_and_wine", "Attire": "casual", "Happy Hour": true, "Wheelchair Accessible": true, "Outdoor Seating": false, "Parking": {"garage": false, "validated": false, "street": false, "lot": false, "valet": false}, "Smoking": "no", "Accepts Credit Cards": false, "Good for Kids": true, "Good For Groups": true, "Price Range": 1}, "type": "business"}
{"business_id": "lNforL0COH6J5hnF08l_1w", "full_address": "Brauerstr. 40\n76135 Karlsruhe", "hours": {}, "open": true, "categories": ["Arts & Entertainment", "Cinema"], "city": "Karlsruhe", "review_count": 66, "name": "Filmpalast am ZKM", "neighborhoods": [], "longitude": 8.38557, "state": "BW", "stars": 3.5, "latitude": 49.00038, "attributes": {"Take-out": true, "Good For": {"dessert": false, "latenight": false, "lunch": false, "dinner": false, "breakfast": false, "brunch": false}, "Takes Reservations": true, "Parking": {"garage": false, "validated": false, "street": false, "lot": false, "valet": false}, "Wheelchair Accessible": true, "Outdoor Seating": true, "Attire": "casual", "Alcohol": "beer_and_wine", "Smoking": "no", "Accepts Credit Cards": true, "Good for Kids": true, "Good For Groups": true, "Price Range": 3}, "type": "business"}
{"business_id": "6S-7J-16S4hMEFSFfJpZBQ", "full_address": "Schlachthausstr\nam Schloss Gottesaue\n76131 Karlsruhe", "hours": {}, "open": true, "categories": ["Arts & Entertainment", "Cinema"], "city": "Karlsruhe", "review_count": 4, "name": "OpenAir Kino-N\u00e4chte", "neighborhoods": [], "longitude": 8.4258554, "state": "BW", "stars": 4.5, "latitude": 49.0037318, "attributes": {"Price Range": 2}, "type": "business"}
{"business_id": "yGgSNX8uJ6cKJQzLfmIjIQ", "full_address": "Karlstr. 10\n76133 Karlsruhe", "hours": {}, "open": true, "categories": ["Arts & Entertainment", "Cinema"], "city": "Karlsruhe", "review_count": 4, "name": "Das Kino Kinemathek Karlsruhe e.V. Kasse", "neighborhoods": [], "longitude": 8.39512, "state": "BW", "stars": 4.5, "latitude": 49.0109, "attributes": {"Price Range": 2}, "type": "business"}
{"business_id": "wheuLBEzZQ-my4gNt7aPUg", "full_address": "Kaiserpassage 6\n76133 Karlsruhe", "hours": {}, "open": true, "categories": ["Arts & Entertainment", "Cinema"], "city": "Karlsruhe", "review_count": 5, "name": "Die Kurbel", "neighborhoods": [], "longitude": 8.3973248, "state": "BW", "stars": 4.0, "latitude": 49.0102619, "attributes": {"Price Range": 2, "Alcohol": "beer_and_wine", "Coat Check": false, "Happy Hour": false, "Outdoor Seating": false, "Parking": {"garage": false, "validated": false, "street": false, "lot": false, "valet": false}, "Smoking": "outdoor", "Accepts Credit Cards": false, "Good for Kids": false, "Wheelchair Accessible": true}, "type": "business"}
{"business_id": "V_covJrJEmKoj8qTE-sfgw", "full_address": "Kaiserstr. 152-154\n76133 Karlsruhe", "hours": {}, "open": true, "categories": ["Arts & Entertainment", "Cinema"], "city": "Karlsruhe", "review_count": 5, "name": "Universum-City", "neighborhoods": [], "longitude": 8.39424, "state": "BW", "stars": 4.0, "latitude": 49.0101, "attributes": {"Good for Kids": true, "Price Range": 2}, "type": "business"}
{"business_id": "XIikFKubRRURUqQKNs29AQ", "full_address": "Marienstr. 16\n76137 Karlsruhe", "hours": {}, "open": true, "categories": ["Arts & Entertainment", "Cinema"], "city": "Karlsruhe", "review_count": 59, "name": "Schauburg Kino", "neighborhoods": [], "longitude": 8.4077757, "state": "BW", "stars": 4.5, "latitude": 49.0031885, "attributes": {"Coat Check": false, "Alcohol": "beer_and_wine", "Attire": "casual", "Happy Hour": true, "Wheelchair Accessible": true, "Outdoor Seating": false, "Parking": {"garage": false, "validated": false, "street": false, "lot": false, "valet": false}, "Smoking": "no", "Accepts Credit Cards": false, "Good for Kids": true, "Good For Groups": true, "Price Range": 1}, "type": "business"}
{"business_id": "lNforL0COH6J5hnF08l_1w", "full_address": "Brauerstr. 40\n76135 Karlsruhe", "hours": {}, "open": true, "categories": ["Arts & Entertainment", "Cinema"], "city": "Karlsruhe", "review_count": 66, "name": "Filmpalast am ZKM", "neighborhoods": [], "longitude": 8.38557, "state": "BW", "stars": 3.5, "latitude": 49.00038, "attributes": {"Take-out": true, "Good For": {"dessert": false, "latenight": false, "lunch": false, "dinner": false, "breakfast": false, "brunch": false}, "Takes Reservations": true, "Parking": {"garage": false, "validated": false, "street": false, "lot": false, "valet": false}, "Wheelchair Accessible": true, "Outdoor Seating": true, "Attire": "casual", "Alcohol": "beer_and_wine", "Smoking": "no", "Accepts Credit Cards": true, "Good for Kids": true, "Good For Groups": true, "Price Range": 3}, "type": "business"}
{"business_id": "6S-7J-16S4hMEFSFfJpZBQ", "full_address": "Schlachthausstr\nam Schloss Gottesaue\n76131 Karlsruhe", "hours": {}, "open": true, "categories": ["Arts & Entertainment", "Cinema"], "city": "Karlsruhe", "review_count": 4, "name": "OpenAir Kino-N\u00e4chte", "neighborhoods": [], "longitude": 8.4258554, "state": "BW", "stars": 4.5, "latitude": 49.0037318, "attributes": {"Price Range": 2}, "type": "business"}
{"business_id": "yGgSNX8uJ6cKJQzLfmIjIQ", "full_address": "Karlstr. 10\n76133 Karlsruhe", "hours": {}, "open": true, "categories": ["Arts & Entertainment", "Cinema"], "city": "Karlsruhe", "review_count": 4, "name": "Das Kino Kinemathek Karlsruhe e.V. Kasse", "neighborhoods": [], "longitude": 8.39512, "state": "BW", "stars": 4.5, "latitude": 49.0109, "attributes": {"Price Range": 2}, "type": "business"}
{"business_id": "wheuLBEzZQ-my4gNt7aPUg", "full_address": "Kaiserpassage 6\n76133 Karlsruhe", "hours": {}, "open": true, "categories": ["Arts & Entertainment", "Cinema"], "city": "Karlsruhe", "review_count": 5, "name": "Die Kurbel", "neighborhoods": [], "longitude": 8.3973248, "state": "BW", "stars": 4.0, "latitude": 49.0102619, "attributes": {"Price Range": 2, "Alcohol": "beer_and_wine", "Coat Check": false, "Happy Hour": false, "Outdoor Seating": false, "Parking": {"garage": false, "validated": false, "street": false, "lot": false, "valet": false}, "Smoking": "outdoor", "Accepts Credit Cards": false, "Good for Kids": false, "Wheelchair Accessible": true}, "type": "business"}
{"business_id": "V_covJrJEmKoj8qTE-sfgw", "full_address": "Kaiserstr. 152-154\n76133 Karlsruhe", "hours": {}, "open": true, "categories": ["Arts & Entertainment", "Cinema"], "city": "Karlsruhe", "review_count": 5, "name": "Universum-City", "neighborhoods": [], "longitude": 8.39424, "state": "BW", "stars": 4.0, "latitude": 49.0101, "attributes": {"Good for Kids": true, "Price Range": 2}, "type": "business"}
{"business_id": "XIikFKubRRURUqQKNs29AQ", "full_address": "Marienstr. 16\n76137 Karlsruhe", "hours": {}, "open": true, "categories": ["Arts & Entertainment", "Cinema"], "city": "Karlsruhe", "review_count": 59, "name": "Schauburg Kino", "neighborhoods": [], "longitude": 8.4077757, "state": "BW", "stars": 4.5, "latitude": 49.0031885, "attributes": {"Coat Check": false, "Alcohol": "beer_and_wine", "Attire": "casual", "Happy Hour": true, "Wheelchair Accessible": true, "Outdoor Seating": false, "Parking": {"garage": false, "validated": false, "street": false, "lot": false, "valet": false}, "Smoking": "no", "Accepts Credit Cards": false, "Good for Kids": true, "Good For Groups": true, "Price Range": 1}, "type": "business"}
{"business_id": "lNforL0COH6J5hnF08l_1w", "full_address": "Brauerstr. 40\n76135 Karlsruhe", "hours": {}, "open": true, "categories": ["Arts & Entertainment", "Cinema"], "city": "Karlsruhe", "review_count": 66, "name": "Filmpalast am ZKM", "neighborhoods": [], "longitude": 8.38557, "state": "BW", "stars": 3.5, "latitude": 49.00038, "attributes": {"Take-out": true, "Good For": {"dessert": false, "latenight": false, "lunch": false, "dinner": false, "breakfast": false, "brunch": false}, "Takes Reservations": true, "Parking": {"garage": false, "validated": false, "street": false, "lot": false, "valet": false}, "Wheelchair Accessible": true, "Outdoor Seating": true, "Attire": "casual", "Alcohol": "beer_and_wine", "Smoking": "no", "Accepts Credit Cards": true, "Good for Kids": true, "Good For Groups": true, "Price Range": 3}, "type": "business"}
{"business_id": "6S-7J-16S4hMEFSFfJpZBQ", "full_address": "Schlachthausstr\nam Schloss Gottesaue\n76131 Karlsruhe", "hours": {}, "open": true, "categories": ["Arts & Entertainment", "Cinema"], "city": "Karlsruhe", "review_count": 4, "name": "OpenAir Kino-N\u00e4chte", "neighborhoods": [], "longitude": 8.4258554, "state": "BW", "stars": 4.5, "latitude": 49.0037318, "attributes": {"Price Range": 2}, "type": "business"}
{"business_id": "yGgSNX8uJ6cKJQzLfmIjIQ", "full_address": "Karlstr. 10\n76133 Karlsruhe", "hours": {}, "open": true, "categories": ["Arts & Entertainment", "Cinema"], "city": "Karlsruhe", "review_count": 4, "name": "Das Kino Kinemathek Karlsruhe e.V. Kasse", "neighborhoods": [], "longitude": 8.39512, "state": "BW", "stars": 4.5, "latitude": 49.0109, "attributes": {"Price Range": 2}, "type": "business"}
{"business_id": "wheuLBEzZQ-my4gNt7aPUg", "full_address": "Kaiserpassage 6\n76133 Karlsruhe", "hours": {}, "open": true, "categories": ["Arts & Entertainment", "Cinema"], "city": "Karlsruhe", "review_count": 5, "name": "Die Kurbel", "neighborhoods": [], "longitude": 8.3973248, "state": "BW", "stars": 4.0, "latitude": 49.0102619, "attributes": {"Price Range": 2, "Alcohol": "beer_and_wine", "Coat Check": false, "Happy Hour": false, "Outdoor Seating": false, "Parking": {"garage": false, "validated": false, "street": false, "lot": false, "valet": false}, "Smoking": "outdoor", "Accepts Credit Cards": false, "Good for Kids": false, "Wheelchair Accessible": true}, "type": "business"}
{"business_id": "V_covJrJEmKoj8qTE-sfgw", "full_address": "Kaiserstr. 152-154\n76133 Karlsruhe", "hours": {}, "open": true, "categories": ["Arts & Entertainment", "Cinema"], "city": "Karlsruhe", "review_count": 5, "name": "Universum-City", "neighborhoods": [], "longitude": 8.39424, "state": "BW", "stars": 4.0, "latitude": 49.0101, "attributes": {"Good for Kids": true, "Price Range": 2}, "type": "business"}
{"business_id": "XIikFKubRRURUqQKNs29AQ", "full_address": "Marienstr. 16\n76137 Karlsruhe", "hours": {}, "open": true, "categories": ["Arts & Entertainment", "Cinema"], "city": "Karlsruhe", "review_count": 59, "name": "Schauburg Kino", "neighborhoods": [], "longitude": 8.4077757, "state": "BW", "stars": 4.5, "latitude": 49.0031885, "attributes": {"Coat Check": false, "Alcohol": "beer_and_wine", "Attire": "casual", "Happy Hour": true, "Wheelchair Accessible": true, "Outdoor Seating": false, "Parking": {"garage": false, "validated": false, "street": false, "lot": false, "valet": false}, "Smoking": "no", "Accepts Credit Cards": false, "Good for Kids": true, "Good For Groups": true, "Price Range": 1}, "type": "business"}
{"business_id": "lNforL0COH6J5hnF08l_1w", "full_address": "Brauerstr. 40\n76135 Karlsruhe", "hours": {}, "open": true, "categories": ["Arts & Entertainment", "Cinema"], "city": "Karlsruhe", "review_count": 66, "name": "Filmpalast am ZKM", "neighborhoods": [], "longitude": 8.38557, "state": "BW", "stars": 3.5, "latitude": 49.00038, "attributes": {"Take-out": true, "Good For": {"dessert": false, "latenight": false, "lunch": false, "dinner": false, "breakfast": false, "brunch": false}, "Takes Reservations": true, "Parking": {"garage": false, "validated": false, "street": false, "lot": false, "valet": false}, "Wheelchair Accessible": true, "Outdoor Seating": true, "Attire": "casual", "Alcohol": "beer_and_wine", "Smoking": "no", "Accepts Credit Cards": true, "Good for Kids": true, "Good For Groups": true, "Price Range": 3}, "type": "business"}
{"business_id": "6S-7J-16S4hMEFSFfJpZBQ", "full_address": "Schlachthausstr\nam Schloss Gottesaue\n76131 Karlsruhe", "hours": {}, "open": true, "categories": ["Arts & Entertainment", "Cinema"], "city": "Karlsruhe", "review_count": 4, "name": "OpenAir Kino-N\u00e4chte", "neighborhoods": [], "longitude": 8.4258554, "state": "BW", "stars": 4.5, "latitude": 49.0037318, "attributes": {"Price Range": 2}, "type": "business"}
{"business_id": "yGgSNX8uJ6cKJQzLfmIjIQ", "full_address": "Karlstr. 10\n76133 Karlsruhe", "hours": {}, "open": true, "categories": ["Arts & Entertainment", "Cinema"], "city": "Karlsruhe", "review_count": 4, "name": "Das Kino Kinemathek Karlsruhe e.V. Kasse", "neighborhoods": [], "longitude": 8.39512, "state": "BW", "stars": 4.5, "latitude": 49.0109, "attributes": {"Price Range": 2}, "type": "business"}
