{"business_id": "zUr4vwqXQvx2BW6w1DlDtA", "full_address": "Bahnhofsplatz 1\n76661 Karlsruhe", "hours": {"Monday": {"close": "22:00", "open": "06:00"}, "Tuesday": {"close": "22:00", "open": "06:00"}, "Friday": {"close": "22:00", "open": "06:00"}, "Wednesday": {"close": "22:00", "open": "06:00"}, "Thursday": {"close": "22:00", "open": "06:00"}, "Sunday": {"close": "22:00", "open": "07:00"}, "Saturday": {"close": "22:00", "open": "06:00"}}, "open": true, "categories": ["Food", "Coffee & Tea", "Bagels", "Coffee & Tea Supplies"], "city": "Karlsruhe", "review_count": 8, "name": "Coffee Fellows", "neighborhoods": [], "longitude": 8.40095067427538, "state": "BW", "stars": 3.5, "latitude": 48.9938439481, "attributes": {"Parking": {"garage": true, "street": false, "validated": false, "lot": false, "valet": false}, "Accepts Credit Cards": true, "Wi-Fi": "free", "Outdoor Seating": true, "Price Range": 2}, "type": "business"}
{"business_id": "L4NBf0qY6wE2jQCD3ui9sA", "full_address": "Baumeisterstr. 36\n76137 Karlsruhe", "hours": {}, "open": false, "categories": ["Food", "Coffee & Tea Supplies"], "city": "Karlsruhe", "review_count": 3, "name": "Kaffeer\u00f6sterei Albrecht Schiek", "neighborhoods": [], "longitude": 8.4078, "state": "BW", "stars": 4.5, "latitude": 49.0042, "attributes": {"Parking": {"garage": false, "validated": false, "street": false, "lot": false, "valet": false}, "Wheelchair Accessible": false, "Price Range": 2}, "type": "business"}
{"business_id": "zUr4vwqXQvx2BW6w1DlDtA", "full_address": "Bahnhofsplatz 1\n76661 Karlsruhe", "hours": {"Monday": {"close": "22:00", "open": "06:00"}, "Tuesday": {"close": "22:00", "open": "06:00"}, "Friday": {"close": "22:00", "open": "06:00"}, "Wednesday": {"close": "22:00", "open": "06:00"}, "Thursday": {"close": "22:00", "open": "06:00"}, "Sunday": {"close": "22:00", "open": "07:00"}, "Saturday": {"close": "22:00", "open": "06:00"}}, "open": true, "categories": ["Food", "Coffee & Tea", "Bagels", "Coffee & Tea Supplies"], "city": "Karlsruhe", "review_count": 8, "name": "Coffee Fellows", "neighborhoods": [], "longitude": 8.40095067427538, "state": "BW", "stars": 3.5, "latitude": 48.9938439481, "attributes": {"Parking": {"garage": true, "street": false, "validated": false, "lot": false, "valet": false}, "Accepts Credit Cards": true, "Wi-Fi": "free", "Outdoor Seating": true, "Price Range": 2}, "type": "business"}
{"business_id": "L4NBf0qY6wE2jQCD3ui9sA", "full_address": "Baumeisterstr. 36\n76137 Karlsruhe", "hours": {}, "open": false, "categories": ["Food", "Coffee & Tea Supplies"], "city": "Karlsruhe", "review_count": 3, "name": "Kaffeer\u00f6sterei Albrecht Schiek", "neighborhoods": [], "longitude": 8.4078, "state": "BW", "stars": 4.5, "latitude": 49.0042, "attributes": {"Parking": {"garage": false, "validated": false, "street": false, "lot": false, "valet": false}, "Wheelchair Accessible": false, "Price Range": 2}, "type": "business"}
{"business_id": "zUr4vwqXQvx2BW6w1DlDtA", "full_address": "Bahnhofsplatz 1\n76661 Karlsruhe", "hours": {"Monday": {"close": "22:00", "open": "06:00"}, "Tuesday": {"close": "22:00", "open": "06:00"}, "Friday": {"close": "22:00", "open": "06:00"}, "Wednesday": {"close": "22:00", "open": "06:00"}, "Thursday": {"close": "22:00", "open": "06:00"}, "Sunday": {"close": "22:00", "open": "07:00"}, "Saturday": {"close": "22:00", "open": "06:00"}}, "open": true, "categories": ["Food", "Coffee & Tea", "Bagels", "Coffee & Tea Supplies"], "city": "Karlsruhe", "review_count": 8, "name": "Coffee Fellows", "neighborhoods": [], "longitude": 8.40095067427538, "state": "BW", "stars": 3.5, "latitude": 48.9938439481, "attributes": {"Parking": {"garage": true, "street": false, "validated": false, "lot": false, "valet": false}, "Accepts Credit Cards": true, "Wi-Fi": "free", "Outdoor Seating": true, "Price Range": 2}, "type": "business"}
{"business_id": "L4NBf0qY6wE2jQCD3ui9sA", "full_address": "Baumeisterstr. 36\n76137 Karlsruhe", "hours": {}, "open": false, "categories": ["Food", "Coffee & Tea Supplies"], "city": "Karlsruhe", "review_count": 3, "name": "Kaffeer\u00f6sterei Albrecht Schiek", "neighborhoods": [], "longitude": 8.4078, "state": "BW", "stars": 4.5, "latitude": 49.0042, "attributes": {"Parking": {"garage": false, "validated": false, "street": false, "lot": false, "valet": false}, "Wheelchair Accessible": false, "Price Range": 2}, "type": "business"}
{"business_id": "zUr4vwqXQvx2BW6w1DlDtA", "full_address": "Bahnhofsplatz 1\n76661 Karlsruhe", "hours": {"Monday": {"close": "22:00", "open": "06:00"}, "Tuesday": {"close": "22:00", "open": "06:00"}, "Friday": {"close": "22:00", "open": "06:00"}, "Wednesday": {"close": "22:00", "open": "06:00"}, "Thursday": {"close": "22:00", "open": "06:00"}, "Sunday": {"close": "22:00", "open": "07:00"}, "Saturday": {"close": "22:00", "open": "06:00"}}, "open": true, "categories": ["Food", "Coffee & Tea", "Bagels", "Coffee & Tea Supplies"], "city": "Karlsruhe", "review_count": 8, "name": "Coffee Fellows", "neighborhoods": [], "longitude": 8.40095067427538, "state": "BW", "stars": 3.5, "latitude": 48.9938439481, "attributes": {"Parking": {"garage": true, "street": false, "validated": false, "lot": false, "valet": false}, "Accepts Credit Cards": true, "Wi-Fi": "free", "Outdoor Seating": true, "Price Range": 2}, "type": "business"}
{"business_id": "L4NBf0qY6wE2jQCD3ui9sA", "full_address": "Baumeisterstr. 36\n76137 Karlsruhe", "hours": {}, "open": false, "categories": ["Food", "Coffee & Tea Supplies"], "city": "Karlsruhe", "review_count": 3, "name": "Kaffeer\u00f6sterei Albrecht Schiek", "neighborhoods": [], "longitude": 8.4078, "state": "BW", "stars": 4.5, "latitude": 49.0042, "attributes": {"Parking": {"garage": false, "validated": false, "street": false, "lot": false, "valet": false}, "Wheelchair Accessible": false, "Price Range": 2}, "type": "business"}
{"business_id": "zUr4vwqXQvx2BW6w1DlDtA", "full_address": "Bahnhofsplatz 1\n76661 Karlsruhe", "hours": {"Monday": {"close": "22:00", "open": "06:00"}, "Tuesday": {"close": "22:00", "open": "06:00"}, "Friday": {"close": "22:00", "open": "06:00"}, "Wednesday": {"close": "22:00", "open": "06:00"}, "Thursday": {"close": "22:00", "open": "06:00"}, "Sunday": {"close": "22:00", "open": "07:00"}, "Saturday": {"close": "22:00", "open": "06:00"}}, "open": true, "categories": ["Food", "Coffee & Tea", "Bagels", "Coffee & Tea Supplies"], "city": "Karlsruhe", "review_count": 8, "name": "Coffee Fellows", "neighborhoods": [], "longitude": 8.40095067427538, "state": "BW", "stars": 3.5, "latitude": 48.9938439481, "attributes": {"Parking": {"garage": true, "street": false, "validated": false, "lot": false, "valet": false}, "Accepts Credit Cards": true, "Wi-Fi": "free", "Outdoor Seating": true, "Price Range": 2}, "type": "business"}
{"business_id": "L4NBf0qY6wE2jQCD3ui9sA", "full_address": "Baumeisterstr. 36\n76137 Karlsruhe", "hours": {}, "open": false, "categories": ["Food", "Coffee & Tea Supplies"], "city": "Karlsruhe", "review_count": 3, "name": "Kaffeer\u00f6sterei Albrecht Schiek", "neighborhoods": [], "longitude": 8.4078, "state": "BW", "stars": 4.5, "latitude": 49.0042, "attributes": {"Parking": {"garage": false, "validated": false, "street": false, "lot": false, "valet": false}, "Wheelchair Accessible": false, "Price Range": 2}, "type": "business"}
{"business_id": "zUr4vwqXQvx2BW6w1DlDtA", "full_address": "Bahnhofsplatz 1\n76661 Karlsruhe", "hours": {"Monday": {"close": "22:00", "open": "06:00"}, "Tuesday": {"close": "22:00", "open": "06:00"}, "Friday": {"close": "22:00", "open": "06:00"}, "Wednesday": {"close": "22:00", "open": "06:00"}, "Thursday": {"close": "22:00", "open": "06:00"}, "Sunday": {"close": "22:00", "open": "07:00"}, "Saturday": {"close": "22:00", "open": "06:00"}}, "open": true, "categories": ["Food", "Coffee & Tea", "Bagels", "Coffee & Tea Supplies"], "city": "Karlsruhe", "review_count": 8, "name": "Coffee Fellows", "neighborhoods": [], "longitude": 8.40095067427538, "state": "BW", "stars": 3.5, "latitude": 48.9938439481, "attributes": {"Parking": {"garage": true, "street": false, "validated": false, "lot": false, "valet": false}, "Accepts Credit Cards": true, "Wi-Fi": "free", "Outdoor Seating": true, "Price Range": 2}, "type": "business"}
{"business_id": "L4NBf0qY6wE2jQCD3ui9sA", "full_address": "Baumeisterstr. 36\n76137 Karlsruhe", "hours": {}, "open": false, "categories": ["Food", "Coffee & Tea Supplies"], "city": "Karlsruhe", "review_count": 3, "name": "Kaffeer\u00f6sterei Albrecht Schiek", "neighborhoods": [], "longitude": 8.4078, "state": "BW", "stars": 4.5, "latitude": 49.0042, "attributes": {"Parking": {"garage": false, "validated": false, "street": false, "lot": false, "valet": false}, "Wheelchair Accessible": false, "Price Range": 2}, "type": "business"}
