{"business_id": "KVwqBtoJM4Bzzv4r1mKJSA", "full_address": "Hirschstr. 105\n76137 Karlsruhe", "hours": {}, "open": true, "categories": ["Doctors", "Orthopedists", "Health & Medical"], "city": "Karlsruhe", "review_count": 5, "name": "Facharzt f\u00fcr Orthop\u00e4die und Sportmedizin Wolfgang Krentel", "neighborhoods": [], "longitude": 8.39065, "state": "BW", "stars": 3.5, "latitude": 48.9995, "attributes": {"Wheelchair Accessible": false, "Parking": {"garage": false, "validated": false, "street": false, "lot": false, "valet": false}}, "type": "business"}
{"business_id": "PfjEZGICY_QNZAQolVDncw", "full_address": "Orthop\u00e4dische Gemeinschaft am Ludwigsplatz\nWaldstr. 67\n76133 Karlsruhe", "hours": {}, "open": true, "categories": ["Doctors", "Orthopedists", "Health & Medical", "Chiropractors"], "city": "Karlsruhe", "review_count": 5, "name": "Dr. med. Oliver Frerking", "neighborhoods": [], "longitude": 8.39616, "state": "BW", "stars": 3.0, "latitude": 49.0092, "attributes": {"By Appointment Only": false}, "type": "business"}
{"business_id": "KVwqBtoJM4Bzzv4r1mKJSA", "full_address": "Hirschstr. 105\n76137 Karlsruhe", "hours": {}, "open": true, "categories": ["Doctors", "Orthopedists", "Health & Medical"], "city": "Karlsruhe", "review_count": 5, "name": "Facharzt f\u00fcr Orthop\u00e4die und Sportmedizin Wolfgang Krentel", "neighborhoods": [], "longitude": 8.39065, "state": "BW", "stars": 3.5, "latitude": 48.9995, "attributes": {"Wheelchair Accessible": false, "Parking": {"garage": false, "validated": false, "street": false, "lot": false, "valet": false}}, "type": "business"}
{"business_id": "PfjEZGICY_QNZAQolVDncw", "full_address": "Orthop\u00e4dische Gemeinschaft am Ludwigsplatz\nWaldstr. 67\n76133 Karlsruhe", "hours": {}, "open": true, "categories": ["Doctors", "Orthopedists", "Health & Medical", "Chiropractors"], "city": "Karlsruhe", "review_count": 5, "name": "Dr. med. Oliver Frerking", "neighborhoods": [], "longitude": 8.39616, "state": "BW", "stars": 3.0, "latitude": 49.0092, "attributes": {"By Appointment Only": false}, "type": "business"}
{"business_id": "KVwqBtoJM4Bzzv4r1mKJSA", "full_address": "Hirschstr. 105\n76137 Karlsruhe", "hours": {}, "open": true, "categories": ["Doctors", "Orthopedists", "Health & Medical"], "city": "Karlsruhe", "review_count": 5, "name": "Facharzt f\u00fcr Orthop\u00e4die und Sportmedizin Wolfgang Krentel", "neighborhoods": [], "longitude": 8.39065, "state": "BW", "stars": 3.5, "latitude": 48.9995, "attributes": {"Wheelchair Accessible": false, "Parking": {"garage": false, "validated": false, "street": false, "lot": false, "valet": false}}, "type": "business"}
{"business_id": "PfjEZGICY_QNZAQolVDncw", "full_address": "Orthop\u00e4dische Gemeinschaft am Ludwigsplatz\nWaldstr. 67\n76133 Karlsruhe", "hours": {}, "open": true, "categories": ["Doctors", "Orthopedists", "Health & Medical", "Chiropractors"], "city": "Karlsruhe", "review_count": 5, "name": "Dr. med. Oliver Frerking", "neighborhoods": [], "longitude": 8.39616, "state": "BW", "stars": 3.0, "latitude": 49.0092, "attributes": {"By Appointment Only": false}, "type": "business"}
{"business_id": "KVwqBtoJM4Bzzv4r1mKJSA", "full_address": "Hirschstr. 105\n76137 Karlsruhe", "hours": {}, "open": true, "categories": ["Doctors", "Orthopedists", "Health & Medical"], "city": "Karlsruhe", "review_count": 5, "name": "Facharzt f\u00fcr Orthop\u00e4die und Sportmedizin Wolfgang Krentel", "neighborhoods": [], "longitude": 8.39065, "state": "BW", "stars": 3.5, "latitude": 48.9995, "attributes": {"Wheelchair Accessible": false, "Parking": {"garage": false, "validated": false, "street": false, "lot": false, "valet": false}}, "type": "business"}
{"business_id": "PfjEZGICY_QNZAQolVDncw", "full_address": "Orthop\u00e4dische Gemeinschaft am Ludwigsplatz\nWaldstr. 67\n76133 Karlsruhe", "hours": {}, "open": true, "categories": ["Doctors", "Orthopedists", "Health & Medical", "Chiropractors"], "city": "Karlsruhe", "review_count": 5, "name": "Dr. med. Oliver Frerking", "neighborhoods": [], "longitude": 8.39616, "state": "BW", "stars": 3.0, "latitude": 49.0092, "attributes": {"By Appointment Only": false}, "type": "business"}
{"business_id": "KVwqBtoJM4Bzzv4r1mKJSA", "full_address": "Hirschstr. 105\n76137 Karlsruhe", "hours": {}, "open": true, "categories": ["Doctors", "Orthopedists", "Health & Medical"], "city": "Karlsruhe", "review_count": 5, "name": "Facharzt f\u00fcr Orthop\u00e4die und Sportmedizin Wolfgang Krentel", "neighborhoods": [], "longitude": 8.39065, "state": "BW", "stars": 3.5, "latitude": 48.9995, "attributes": {"Wheelchair Accessible": false, "Parking": {"garage": false, "validated": false, "street": false, "lot": false, "valet": false}}, "type": "business"}
{"business_id": "PfjEZGICY_QNZAQolVDncw", "full_address": "Orthop\u00e4dische Gemeinschaft am Ludwigsplatz\nWaldstr. 67\n76133 Karlsruhe", "hours": {}, "open": true, "categories": ["Doctors", "Orthopedists", "Health & Medical", "Chiropractors"], "city": "Karlsruhe", "review_count": 5, "name": "Dr. med. Oliver Frerking", "neighborhoods": [], "longitude": 8.39616, "state": "BW", "stars": 3.0, "latitude": 49.0092, "attributes": {"By Appointment Only": false}, "type": "business"}
{"business_id": "KVwqBtoJM4Bzzv4r1mKJSA", "full_address": "Hirschstr. 105\n76137 Karlsruhe", "hours": {}, "open": true, "categories": ["Doctors", "Orthopedists", "Health & Medical"], "city": "Karlsruhe", "review_count": 5, "name": "Facharzt f\u00fcr Orthop\u00e4die und Sportmedizin Wolfgang Krentel", "neighborhoods": [], "longitude": 8.39065, "state": "BW", "stars": 3.5, "latitude": 48.9995, "attributes": {"Wheelchair Accessible": false, "Parking": {"garage": false, "validated": false, "street": false, "lot": false, "valet": false}}, "type": "business"}
{"business_id": "PfjEZGICY_QNZAQolVDncw", "full_address": "Orthop\u00e4dische Gemeinschaft am Ludwigsplatz\nWaldstr. 67\n76133 Karlsruhe", "hours": {}, "open": true, "categories": ["Doctors", "Orthopedists", "Health & Medical", "Chiropractors"], "city": "Karlsruhe", "review_count": 5, "name": "Dr. med. Oliver Frerking", "neighborhoods": [], "longitude": 8.39616, "state": "BW", "stars": 3.0, "latitude": 49.0092, "attributes": {"By Appointment Only": false}, "type": "business"}
