{"business_id": "hvr8NYKtGbJL0T7Y3WRv8w", "full_address": "Bahnhofstra\u00dfe\n76287 Rheinstetten", "hours": {}, "open": true, "categories": ["Hardware Stores", "Beer Garden", "Shopping", "Home & Garden", "Restaurants"], "city": "Rheinstetten", "review_count": 3, "name": "Biergarten J\u00e4ger", "neighborhoods": [], "longitude": 8.3410161, "state": "BW", "stars": 3.5, "latitude": 48.965887, "attributes": {"Take-out": true, "Wi-Fi": "no", "Good For": {"dessert": false, "latenight": false, "lunch": false, "dinner": false, "breakfast": false, "brunch": false}, "Parking": {"garage": false, "validated": false, "street": false, "lot": false, "valet": false}, "Delivery": false, "Wheelchair Accessible": true, "Outdoor Seating": true, "Takes Reservations": true, "Alcohol": "beer_and_wine", "Smoking": "yes", "Accepts Credit Cards": false, "Good For Groups": true, "Price Range": 2}, "type": "business"}
{"business_id": "BGZHzaRaOuxbBPAKxmnkZw", "full_address": "Karlstra\u00dfe 82\n76137 Karlsruhe", "hours": {"Monday": {"close": "18:30", "open": "08:30"}, "Tuesday": {"close": "18:30", "open": "08:30"}, "Friday": {"close": "18:30", "open": "08:30"}, "Wednesday": {"close": "18:30", "open": "08:30"}, "Thursday": {"close": "18:30", "open": "08:30"}, "Saturday": {"close": "13:30", "open": "09:30"}}, "open": true, "categories": ["Children's Clothing", "Fashion", "Shopping", "Appliances & Repair", "Home & Garden", "Local Services", "Kitchen & Bath", "Toy Stores"], "city": "Karlsruhe", "review_count": 3, "name": "atelier B:", "neighborhoods": [], "longitude": 8.39402, "state": "BW", "stars": 4.5, "latitude": 49.0009, "attributes": {}, "type": "business"}
{"business_id": "9rCNYbOnBGKnn1otAa8nyw", "full_address": "Erbprinzenstr. 21\n76133 Karlsruhe", "hours": {}, "open": true, "categories": ["Shopping", "Home & Garden", "Furniture Stores"], "city": "Karlsruhe", "review_count": 7, "name": "Gr\u00fcner Krebs", "neighborhoods": [], "longitude": 8.39766, "state": "BW", "stars": 4.5, "latitude": 49.0087, "attributes": {"Price Range": 3}, "type": "business"}
{"business_id": "A7Zrif-apG0Lt6ml1bXSsg", "full_address": "Eggensteiner Stra\u00dfe 52\n76297 Stutensee", "hours": {}, "open": true, "categories": ["Children's Clothing", "Fashion", "Shopping", "Mattresses", "Home & Garden", "Furniture Stores"], "city": "Stutensee", "review_count": 4, "name": "Naturversand Kirschke", "neighborhoods": [], "longitude": 8.4665991, "state": "BW", "stars": 3.5, "latitude": 49.0655226, "attributes": {}, "type": "business"}
{"business_id": "8NylphUnH1fJ3YLZq7Yreg", "full_address": "Neureuter Str. 8\n76185 Karlsruhe", "hours": {}, "open": true, "categories": ["Shopping", "Home & Garden"], "city": "Karlsruhe", "review_count": 7, "name": "Dehner", "neighborhoods": [], "longitude": 8.35494, "state": "BW", "stars": 3.0, "latitude": 49.0185, "attributes": {"Price Range": 2}, "type": "business"}
{"business_id": "PDt_BG9mYtdBf3mxvZyw3g", "full_address": "Ruschgraben 90\n76139 Karlsruhe", "hours": {"Monday": {"close": "20:00", "open": "10:00"}, "Tuesday": {"close": "20:00", "open": "10:00"}, "Friday": {"close": "20:00", "open": "10:00"}, "Wednesday": {"close": "20:00", "open": "10:00"}, "Thursday": {"close": "20:00", "open": "10:00"}, "Saturday": {"close": "20:00", "open": "10:00"}}, "open": true, "categories": ["Shopping", "Home & Garden", "Furniture Stores"], "city": "Karlsruhe", "review_count": 3, "name": "Roller", "neighborhoods": [], "longitude": 8.45697, "state": "BW", "stars": 2.5, "latitude": 49.0209, "attributes": {"Parking": {"garage": false, "validated": false, "street": false, "lot": false, "valet": false}}, "type": "business"}
{"business_id": "uzIDDHatzLhcc0LagyCx8g", "full_address": "Printzstr. 2\n76139 Karlsruhe", "hours": {}, "open": true, "categories": ["Hardware Stores", "Shopping", "Home & Garden"], "city": "Karlsruhe", "review_count": 3, "name": "Praktiker Bau-und Heimwerkerm\u00e4rkte", "neighborhoods": [], "longitude": 8.46203, "state": "BW", "stars": 1.5, "latitude": 49.0201, "attributes": {}, "type": "business"}
{"business_id": "-czvRRDB6tTlo6HUzBTMwg", "full_address": "Ahaweg 6\n76131 Karlsruhe", "hours": {}, "open": true, "categories": ["Museums", "Arts & Entertainment", "Shopping", "Home Services", "Home & Garden", "Painters", "Home Decor"], "city": "Karlsruhe", "review_count": 4, "name": "Staatliche Majolika Manufaktur Karlsruhe", "neighborhoods": [], "longitude": 8.4023623, "state": "BW", "stars": 3.5, "latitude": 49.0177377, "attributes": {"Parking": {"garage": false, "street": false, "validated": false, "lot": false, "valet": false}, "Accepts Credit Cards": true, "Good for Kids": false, "Price Range": 4}, "type": "business"}
{"business_id": "4Khs0-ezl2mwtsW1NiNv0A", "full_address": "Unterweingartenfeld 4\n76135 Karlsruhe", "hours": {"Monday": {"close": "20:00", "open": "09:30"}, "Tuesday": {"close": "20:00", "open": "09:30"}, "Friday": {"close": "20:00", "open": "09:30"}, "Wednesday": {"close": "20:00", "open": "09:30"}, "Thursday": {"close": "20:00", "open": "09:30"}, "Saturday": {"close": "20:00", "open": "09:00"}}, "open": true, "categories": ["Electronics", "Computers", "Shopping", "Home & Garden", "Appliances"], "city": "Karlsruhe", "review_count": 3, "name": "Media Markt", "neighborhoods": [], "longitude": 8.37312, "state": "BW", "stars": 4.0, "latitude": 48.992, "attributes": {"Parking": {"garage": false, "validated": false, "street": false, "lot": false, "valet": false}, "Accepts Credit Cards": true, "Wheelchair Accessible": false, "Price Range": 2}, "type": "business"}
{"business_id": "1TmQbb_tbgi-c81-Nh7XRQ", "full_address": "Am Storrenacker 6\n76139 Karlsruhe", "hours": {}, "open": true, "categories": ["Nurseries & Gardening", "Home Services", "Building Supplies", "Home & Garden", "Hardware Stores", "Shopping"], "city": "Karlsruhe", "review_count": 8, "name": "Hornbach", "neighborhoods": [], "longitude": 8.46165, "state": "BW", "stars": 4.5, "latitude": 49.0186, "attributes": {"Parking": {"garage": false, "street": false, "validated": false, "lot": false, "valet": false}, "Accepts Credit Cards": true, "Price Range": 2}, "type": "business"}
{"business_id": "lPLr1-rZziBW6gVDENLUUQ", "full_address": "Pfinztalstr. 90\n76227 Karlsruhe", "hours": {"Monday": {"close": "19:00", "open": "10:00"}, "Tuesday": {"close": "19:00", "open": "10:00"}, "Friday": {"close": "20:00", "open": "10:00"}, "Wednesday": {"close": "19:00", "open": "10:00"}, "Thursday": {"close": "19:00", "open": "10:00"}, "Saturday": {"close": "18:00", "open": "10:00"}}, "open": true, "categories": ["Shopping", "Home & Garden", "Furniture Stores"], "city": "Karlsruhe", "review_count": 7, "name": "Gr\u00fcner Krebs", "neighborhoods": [], "longitude": 8.46756, "state": "BW", "stars": 4.5, "latitude": 49.0017, "attributes": {}, "type": "business"}
{"business_id": "HqSEeW3CCeQ6c-0WlNo-8A", "full_address": "Barbarossaplatz  6\n76137 Karlsruhe", "hours": {"Monday": {"close": "18:30", "open": "09:30"}, "Tuesday": {"close": "18:30", "open": "09:30"}, "Friday": {"close": "18:30", "open": "09:30"}, "Wednesday": {"close": "18:30", "open": "09:30"}, "Thursday": {"close": "18:30", "open": "09:30"}, "Saturday": {"close": "14:00", "open": "10:00"}}, "open": true, "categories": ["Shopping", "Home & Garden"], "city": "Karlsruhe", "review_count": 3, "name": "printor", "neighborhoods": [], "longitude": 8.3900675, "state": "BW", "stars": 3.5, "latitude": 48.9952878, "attributes": {}, "type": "business"}
{"business_id": "wefS54RONhAHbY9CreX4Hw", "full_address": "Durlacher Allee 109\n76137 Karlsruhe", "hours": {"Monday": {"close": "19:00", "open": "10:00"}, "Tuesday": {"close": "19:00", "open": "10:00"}, "Friday": {"close": "19:00", "open": "10:00"}, "Wednesday": {"close": "19:00", "open": "10:00"}, "Thursday": {"close": "19:00", "open": "10:00"}, "Saturday": {"close": "19:00", "open": "10:00"}}, "open": true, "categories": ["Shopping", "Home & Garden", "Furniture Stores"], "city": "Karlsruhe", "review_count": 18, "name": "Xxxl Mann Mobilia", "neighborhoods": [], "longitude": 8.44425, "state": "BW", "stars": 3.0, "latitude": 49.004, "attributes": {"Take-out": false, "Good For": {"dessert": false, "latenight": false, "lunch": false, "dinner": false, "breakfast": false, "brunch": false}, "Parking": {"garage": false, "street": false, "validated": false, "lot": true, "valet": false}, "Delivery": false, "Wheelchair Accessible": true, "Outdoor Seating": false, "Attire": "casual", "Smoking": "no", "Accepts Credit Cards": true, "Good For Groups": true, "Price Range": 3}, "type": "business"}
{"business_id": "zzlpdQ2GPcXj7mo0lut3Vg", "full_address": "Ettlinger Tor\nEttlinger-Tor-Platz 1\n76133 Karlsruhe", "hours": {}, "open": true, "categories": ["Gift Shops", "Flowers & Gifts", "Shopping", "Home Decor", "Home & Garden"], "city": "Karlsruhe", "review_count": 3, "name": "Nanu-Nana", "neighborhoods": [], "longitude": 8.40208, "state": "BW", "stars": 5.0, "latitude": 49.0067, "attributes": {"Accepts Credit Cards": true, "Price Range": 3}, "type": "business"}
{"business_id": "tb7-JM1FYdITIQBWES7XRA", "full_address": "Benzstra\u00dfe 7 - 9\n76307 Karlsbad", "hours": {"Monday": {"close": "19:00", "open": "08:30"}, "Tuesday": {"close": "19:00", "open": "08:30"}, "Friday": {"close": "19:00", "open": "08:30"}, "Wednesday": {"close": "19:00", "open": "08:30"}, "Thursday": {"close": "19:00", "open": "08:30"}, "Saturday": {"close": "18:00", "open": "08:30"}}, "open": true, "categories": ["Hardware Stores", "Shopping", "Home & Garden"], "city": "Karlsbad", "review_count": 3, "name": "Profi Schroth Fachmarkt Center", "neighborhoods": [], "longitude": 8.50174, "state": "BW", "stars": 3.5, "latitude": 48.9201, "attributes": {"Accepts Credit Cards": true, "Price Range": 3}, "type": "business"}
{"business_id": "OMed9SgOJ4H1G5gqUn_umA", "full_address": "Ziegelstr. 1\n76185 Karlsruhe", "hours": {"Monday": {"close": "19:00", "open": "10:00"}, "Tuesday": {"close": "19:00", "open": "10:00"}, "Friday": {"close": "19:00", "open": "10:00"}, "Wednesday": {"close": "19:00", "open": "10:00"}, "Thursday": {"close": "21:00", "open": "10:00"}, "Sunday": {"close": "17:00", "open": "13:00"}, "Saturday": {"close": "18:00", "open": "10:00"}}, "open": true, "categories": ["Shopping", "Outlet Stores", "Home & Garden"], "city": "Karlsruhe", "review_count": 3, "name": "Outlet Store Gartenm\u00f6bel", "neighborhoods": [], "longitude": 8.3615657171232, "state": "BW", "stars": 4.5, "latitude": 49.006811427221, "attributes": {"Parking": {"garage": false, "validated": false, "street": false, "lot": false, "valet": false}, "Accepts Credit Cards": false, "Wheelchair Accessible": true, "Price Range": 3}, "type": "business"}
{"business_id": "zik3Lj994wNXYkYoK1PqKQ", "full_address": "Am Storrenacker 2\n76139 Karlsruhe", "hours": {"Monday": {"close": "20:00", "open": "10:00"}, "Tuesday": {"close": "20:00", "open": "10:00"}, "Friday": {"close": "20:00", "open": "10:00"}, "Wednesday": {"close": "20:00", "open": "10:00"}, "Thursday": {"close": "20:00", "open": "10:00"}, "Saturday": {"close": "19:00", "open": "09:00"}}, "open": true, "categories": ["Shopping", "Home Decor", "Home & Garden", "Furniture Stores"], "city": "Karlsruhe", "review_count": 7, "name": "M\u00f6max", "neighborhoods": [], "longitude": 8.45814, "state": "BW", "stars": 2.0, "latitude": 49.02025, "attributes": {"Parking": {"garage": false, "validated": false, "street": false, "lot": false, "valet": false}, "Wheelchair Accessible": false, "Price Range": 2}, "type": "business"}
{"business_id": "6G6T-7zxuPtAOLbt6SGwAg", "full_address": "K\u00e4ppelestr. 2\n76131 Karlsruhe", "hours": {}, "open": false, "categories": ["Hardware Stores", "Shopping", "Home Services", "Home & Garden"], "city": "Karlsruhe", "review_count": 9, "name": "Baumarkt Max Bahr GmbH & Co. KG", "neighborhoods": [], "longitude": 8.44044, "state": "BW", "stars": 3.0, "latitude": 49.00817, "attributes": {"Parking": {"garage": false, "validated": false, "street": false, "lot": false, "valet": false}, "Price Range": 2}, "type": "business"}
{"business_id": "eba6WF8cDN1TQ2_0rCkh4g", "full_address": "76131 Karlsruhe", "hours": {}, "open": true, "categories": ["Shopping", "Home & Garden", "Appliances"], "city": "Karlsruhe", "review_count": 4, "name": "Cafe Classico", "neighborhoods": [], "longitude": 8.4303821, "state": "BW", "stars": 4.5, "latitude": 49.0116951, "attributes": {"Parking": {"garage": false, "validated": false, "street": false, "lot": false, "valet": false}, "Accepts Credit Cards": false, "Price Range": 2}, "type": "business"}
{"business_id": "HN7n-Ms4X-sXn2Yz-pKgwA", "full_address": "Ettlinger-Tor-Platz 1\n76133 Karlsruhe", "hours": {}, "open": true, "categories": ["Shopping", "Home Decor", "Home & Garden"], "city": "Karlsruhe", "review_count": 4, "name": "Depot", "neighborhoods": [], "longitude": 8.40308, "state": "BW", "stars": 5.0, "latitude": 49.0059, "attributes": {}, "type": "business"}
{"business_id": "tbLeodBE9W6ozoDgYuXM7w", "full_address": "Karlstr. 1a\n76133 Karlsruhe", "hours": {"Monday": {"close": "19:00", "open": "10:00"}, "Tuesday": {"close": "19:00", "open": "10:00"}, "Friday": {"close": "19:00", "open": "10:00"}, "Wednesday": {"close": "19:00", "open": "10:00"}, "Thursday": {"close": "19:00", "open": "10:00"}, "Saturday": {"close": "17:00", "open": "10:00"}}, "open": true, "categories": ["Home & Garden", "Flowers & Gifts", "Shopping", "Home Decor", "Florists"], "city": "Karlsruhe", "review_count": 3, "name": "Thomas Seith", "neighborhoods": [], "longitude": 8.3954, "state": "BW", "stars": 5.0, "latitude": 49.0118, "attributes": {}, "type": "business"}
{"business_id": "ujc_1tzKrEEPMv9oOSF3wA", "full_address": "Ettlinger Tor Platz 1\n76133 Karlsruhe", "hours": {"Monday": {"close": "20:00", "open": "10:00"}, "Tuesday": {"close": "20:00", "open": "10:00"}, "Friday": {"close": "20:00", "open": "10:00"}, "Wednesday": {"close": "20:00", "open": "10:00"}, "Thursday": {"close": "22:00", "open": "10:00"}, "Saturday": {"close": "20:00", "open": "10:00"}}, "open": true, "categories": ["Electronics", "Computers", "Shopping", "Home & Garden", "Appliances"], "city": "Karlsruhe", "review_count": 11, "name": "Media Markt", "neighborhoods": [], "longitude": 8.40251955605882, "state": "BW", "stars": 2.0, "latitude": 49.0060805453703, "attributes": {"Parking": {"garage": false, "validated": false, "street": false, "lot": false, "valet": false}, "Accepts Credit Cards": true, "Price Range": 4}, "type": "business"}
{"business_id": "hvr8NYKtGbJL0T7Y3WRv8w", "full_address": "Bahnhofstra\u00dfe\n76287 Rheinstetten", "hours": {}, "open": true, "categories": ["Hardware Stores", "Beer Garden", "Shopping", "Home & Garden", "Restaurants"], "city": "Rheinstetten", "review_count": 3, "name": "Biergarten J\u00e4ger", "neighborhoods": [], "longitude": 8.3410161, "state": "BW", "stars": 3.5, "latitude": 48.965887, "attributes": {"Take-out": true, "Wi-Fi": "no", "Good For": {"dessert": false, "latenight": false, "lunch": false, "dinner": false, "breakfast": false, "brunch": false}, "Parking": {"garage": false, "validated": false, "street": false, "lot": false, "valet": false}, "Delivery": false, "Wheelchair Accessible": true, "Outdoor Seating": true, "Takes Reservations": true, "Alcohol": "beer_and_wine", "Smoking": "yes", "Accepts Credit Cards": false, "Good For Groups": true, "Price Range": 2}, "type": "business"}
{"business_id": "BGZHzaRaOuxbBPAKxmnkZw", "full_address": "Karlstra\u00dfe 82\n76137 Karlsruhe", "hours": {"Monday": {"close": "18:30", "open": "08:30"}, "Tuesday": {"close": "18:30", "open": "08:30"}, "Friday": {"close": "18:30", "open": "08:30"}, "Wednesday": {"close": "18:30", "open": "08:30"}, "Thursday": {"close": "18:30", "open": "08:30"}, "Saturday": {"close": "13:30", "open": "09:30"}}, "open": true, "categories": ["Children's Clothing", "Fashion", "Shopping", "Appliances & Repair", "Home & Garden", "Local Services", "Kitchen & Bath", "Toy Stores"], "city": "Karlsruhe", "review_count": 3, "name": "atelier B:", "neighborhoods": [], "longitude": 8.39402, "state": "BW", "stars": 4.5, "latitude": 49.0009, "attributes": {}, "type": "business"}
{"business_id": "9rCNYbOnBGKnn1otAa8nyw", "full_address": "Erbprinzenstr. 21\n76133 Karlsruhe", "hours": {}, "open": true, "categories": ["Shopping", "Home & Garden", "Furniture Stores"], "city": "Karlsruhe", "review_count": 7, "name": "Gr\u00fcner Krebs", "neighborhoods": [], "longitude": 8.39766, "state": "BW", "stars": 4.5, "latitude": 49.0087, "attributes": {"Price Range": 3}, "type": "business"}
{"business_id": "A7Zrif-apG0Lt6ml1bXSsg", "full_address": "Eggensteiner Stra\u00dfe 52\n76297 Stutensee", "hours": {}, "open": true, "categories": ["Children's Clothing", "Fashion", "Shopping", "Mattresses", "Home & Garden", "Furniture Stores"], "city": "Stutensee", "review_count": 4, "name": "Naturversand Kirschke", "neighborhoods": [], "longitude": 8.4665991, "state": "BW", "stars": 3.5, "latitude": 49.0655226, "attributes": {}, "type": "business"}
{"business_id": "8NylphUnH1fJ3YLZq7Yreg", "full_address": "Neureuter Str. 8\n76185 Karlsruhe", "hours": {}, "open": true, "categories": ["Shopping", "Home & Garden"], "city": "Karlsruhe", "review_count": 7, "name": "Dehner", "neighborhoods": [], "longitude": 8.35494, "state": "BW", "stars": 3.0, "latitude": 49.0185, "attributes": {"Price Range": 2}, "type": "business"}
{"business_id": "PDt_BG9mYtdBf3mxvZyw3g", "full_address": "Ruschgraben 90\n76139 Karlsruhe", "hours": {"Monday": {"close": "20:00", "open": "10:00"}, "Tuesday": {"close": "20:00", "open": "10:00"}, "Friday": {"close": "20:00", "open": "10:00"}, "Wednesday": {"close": "20:00", "open": "10:00"}, "Thursday": {"close": "20:00", "open": "10:00"}, "Saturday": {"close": "20:00", "open": "10:00"}}, "open": true, "categories": ["Shopping", "Home & Garden", "Furniture Stores"], "city": "Karlsruhe", "review_count": 3, "name": "Roller", "neighborhoods": [], "longitude": 8.45697, "state": "BW", "stars": 2.5, "latitude": 49.0209, "attributes": {"Parking": {"garage": false, "validated": false, "street": false, "lot": false, "valet": false}}, "type": "business"}
{"business_id": "uzIDDHatzLhcc0LagyCx8g", "full_address": "Printzstr. 2\n76139 Karlsruhe", "hours": {}, "open": true, "categories": ["Hardware Stores", "Shopping", "Home & Garden"], "city": "Karlsruhe", "review_count": 3, "name": "Praktiker Bau-und Heimwerkerm\u00e4rkte", "neighborhoods": [], "longitude": 8.46203, "state": "BW", "stars": 1.5, "latitude": 49.0201, "attributes": {}, "type": "business"}
{"business_id": "-czvRRDB6tTlo6HUzBTMwg", "full_address": "Ahaweg 6\n76131 Karlsruhe", "hours": {}, "open": true, "categories": ["Museums", "Arts & Entertainment", "Shopping", "Home Services", "Home & Garden", "Painters", "Home Decor"], "city": "Karlsruhe", "review_count": 4, "name": "Staatliche Majolika Manufaktur Karlsruhe", "neighborhoods": [], "longitude": 8.4023623, "state": "BW", "stars": 3.5, "latitude": 49.0177377, "attributes": {"Parking": {"garage": false, "street": false, "validated": false, "lot": false, "valet": false}, "Accepts Credit Cards": true, "Good for Kids": false, "Price Range": 4}, "type": "business"}
{"business_id": "4Khs0-ezl2mwtsW1NiNv0A", "full_address": "Unterweingartenfeld 4\n76135 Karlsruhe", "hours": {"Monday": {"close": "20:00", "open": "09:30"}, "Tuesday": {"close": "20:00", "open": "09:30"}, "Friday": {"close": "20:00", "open": "09:30"}, "Wednesday": {"close": "20:00", "open": "09:30"}, "Thursday": {"close": "20:00", "open": "09:30"}, "Saturday": {"close": "20:00", "open": "09:00"}}, "open": true, "categories": ["Electronics", "Computers", "Shopping", "Home & Garden", "Appliances"], "city": "Karlsruhe", "review_count": 3, "name": "Media Markt", "neighborhoods": [], "longitude": 8.37312, "state": "BW", "stars": 4.0, "latitude": 48.992, "attributes": {"Parking": {"garage": false, "validated": false, "street": false, "lot": false, "valet": false}, "Accepts Credit Cards": true, "Wheelchair Accessible": false, "Price Range": 2}, "type": "business"}
{"business_id": "1TmQbb_tbgi-c81-Nh7XRQ", "full_address": "Am Storrenacker 6\n76139 Karlsruhe", "hours": {}, "open": true, "categories": ["Nurseries & Gardening", "Home Services", "Building Supplies", "Home & Garden", "Hardware Stores", "Shopping"], "city": "Karlsruhe", "review_count": 8, "name": "Hornbach", "neighborhoods": [], "longitude": 8.46165, "state": "BW", "stars": 4.5, "latitude": 49.0186, "attributes": {"Parking": {"garage": false, "street": false, "validated": false, "lot": false, "valet": false}, "Accepts Credit Cards": true, "Price Range": 2}, "type": "business"}
{"business_id": "lPLr1-rZziBW6gVDENLUUQ", "full_address": "Pfinztalstr. 90\n76227 Karlsruhe", "hours": {"Monday": {"close": "19:00", "open": "10:00"}, "Tuesday": {"close": "19:00", "open": "10:00"}, "Friday": {"close": "20:00", "open": "10:00"}, "Wednesday": {"close": "19:00", "open": "10:00"}, "Thursday": {"close": "19:00", "open": "10:00"}, "Saturday": {"close": "18:00", "open": "10:00"}}, "open": true, "categories": ["Shopping", "Home & Garden", "Furniture Stores"], "city": "Karlsruhe", "review_count": 7, "name": "Gr\u00fcner Krebs", "neighborhoods": [], "longitude": 8.46756, "state": "BW", "stars": 4.5, "latitude": 49.0017, "attributes": {}, "type": "business"}
{"business_id": "HqSEeW3CCeQ6c-0WlNo-8A", "full_address": "Barbarossaplatz  6\n76137 Karlsruhe", "hours": {"Monday": {"close": "18:30", "open": "09:30"}, "Tuesday": {"close": "18:30", "open": "09:30"}, "Friday": {"close": "18:30", "open": "09:30"}, "Wednesday": {"close": "18:30", "open": "09:30"}, "Thursday": {"close": "18:30", "open": "09:30"}, "Saturday": {"close": "14:00", "open": "10:00"}}, "open": true, "categories": ["Shopping", "Home & Garden"], "city": "Karlsruhe", "review_count": 3, "name": "printor", "neighborhoods": [], "longitude": 8.3900675, "state": "BW", "stars": 3.5, "latitude": 48.9952878, "attributes": {}, "type": "business"}
{"business_id": "wefS54RONhAHbY9CreX4Hw", "full_address": "Durlacher Allee 109\n76137 Karlsruhe", "hours": {"Monday": {"close": "19:00", "open": "10:00"}, "Tuesday": {"close": "19:00", "open": "10:00"}, "Friday": {"close": "19:00", "open": "10:00"}, "Wednesday": {"close": "19:00", "open": "10:00"}, "Thursday": {"close": "19:00", "open": "10:00"}, "Saturday": {"close": "19:00", "open": "10:00"}}, "open": true, "categories": ["Shopping", "Home & Garden", "Furniture Stores"], "city": "Karlsruhe", "review_count": 18, "name": "Xxxl Mann Mobilia", "neighborhoods": [], "longitude": 8.44425, "state": "BW", "stars": 3.0, "latitude": 49.004, "attributes": {"Take-out": false, "Good For": {"dessert": false, "latenight": false, "lunch": false, "dinner": false, "breakfast": false, "brunch": false}, "Parking": {"garage": false, "street": false, "validated": false, "lot": true, "valet": false}, "Delivery": false, "Wheelchair Accessible": true, "Outdoor Seating": false, "Attire": "casual", "Smoking": "no", "Accepts Credit Cards": true, "Good For Groups": true, "Price Range": 3}, "type": "business"}
{"business_id": "zzlpdQ2GPcXj7mo0lut3Vg", "full_address": "Ettlinger Tor\nEttlinger-Tor-Platz 1\n76133 Karlsruhe", "hours": {}, "open": true, "categories": ["Gift Shops", "Flowers & Gifts", "Shopping", "Home Decor", "Home & Garden"], "city": "Karlsruhe", "review_count": 3, "name": "Nanu-Nana", "neighborhoods": [], "longitude": 8.40208, "state": "BW", "stars": 5.0, "latitude": 49.0067, "attributes": {"Accepts Credit Cards": true, "Price Range": 3}, "type": "business"}
{"business_id": "tb7-JM1FYdITIQBWES7XRA", "full_address": "Benzstra\u00dfe 7 - 9\n76307 Karlsbad", "hours": {"Monday": {"close": "19:00", "open": "08:30"}, "Tuesday": {"close": "19:00", "open": "08:30"}, "Friday": {"close": "19:00", "open": "08:30"}, "Wednesday": {"close": "19:00", "open": "08:30"}, "Thursday": {"close": "19:00", "open": "08:30"}, "Saturday": {"close": "18:00", "open": "08:30"}}, "open": true, "categories": ["Hardware Stores", "Shopping", "Home & Garden"], "city": "Karlsbad", "review_count": 3, "name": "Profi Schroth Fachmarkt Center", "neighborhoods": [], "longitude": 8.50174, "state": "BW", "stars": 3.5, "latitude": 48.9201, "attributes": {"Accepts Credit Cards": true, "Price Range": 3}, "type": "business"}
{"business_id": "OMed9SgOJ4H1G5gqUn_umA", "full_address": "Ziegelstr. 1\n76185 Karlsruhe", "hours": {"Monday": {"close": "19:00", "open": "10:00"}, "Tuesday": {"close": "19:00", "open": "10:00"}, "Friday": {"close": "19:00", "open": "10:00"}, "Wednesday": {"close": "19:00", "open": "10:00"}, "Thursday": {"close": "21:00", "open": "10:00"}, "Sunday": {"close": "17:00", "open": "13:00"}, "Saturday": {"close": "18:00", "open": "10:00"}}, "open": true, "categories": ["Shopping", "Outlet Stores", "Home & Garden"], "city": "Karlsruhe", "review_count": 3, "name": "Outlet Store Gartenm\u00f6bel", "neighborhoods": [], "longitude": 8.3615657171232, "state": "BW", "stars": 4.5, "latitude": 49.006811427221, "attributes": {"Parking": {"garage": false, "validated": false, "street": false, "lot": false, "valet": false}, "Accepts Credit Cards": false, "Wheelchair Accessible": true, "Price Range": 3}, "type": "business"}
{"business_id": "zik3Lj994wNXYkYoK1PqKQ", "full_address": "Am Storrenacker 2\n76139 Karlsruhe", "hours": {"Monday": {"close": "20:00", "open": "10:00"}, "Tuesday": {"close": "20:00", "open": "10:00"}, "Friday": {"close": "20:00", "open": "10:00"}, "Wednesday": {"close": "20:00", "open": "10:00"}, "Thursday": {"close": "20:00", "open": "10:00"}, "Saturday": {"close": "19:00", "open": "09:00"}}, "open": true, "categories": ["Shopping", "Home Decor", "Home & Garden", "Furniture Stores"], "city": "Karlsruhe", "review_count": 7, "name": "M\u00f6max", "neighborhoods": [], "longitude": 8.45814, "state": "BW", "stars": 2.0, "latitude": 49.02025, "attributes": {"Parking": {"garage": false, "validated": false, "street": false, "lot": false, "valet": false}, "Wheelchair Accessible": false, "Price Range": 2}, "type": "business"}
{"business_id": "6G6T-7zxuPtAOLbt6SGwAg", "full_address": "K\u00e4ppelestr. 2\n76131 Karlsruhe", "hours": {}, "open": false, "categories": ["Hardware Stores", "Shopping", "Home Services", "Home & Garden"], "city": "Karlsruhe", "review_count": 9, "name": "Baumarkt Max Bahr GmbH & Co. KG", "neighborhoods": [], "longitude": 8.44044, "state": "BW", "stars": 3.0, "latitude": 49.00817, "attributes": {"Parking": {"garage": false, "validated": false, "street": false, "lot": false, "valet": false}, "Price Range": 2}, "type": "business"}
{"business_id": "eba6WF8cDN1TQ2_0rCkh4g", "full_address": "76131 Karlsruhe", "hours": {}, "open": true, "categories": ["Shopping", "Home & Garden", "Appliances"], "city": "Karlsruhe", "review_count": 4, "name": "Cafe Classico", "neighborhoods": [], "longitude": 8.4303821, "state": "BW", "stars": 4.5, "latitude": 49.0116951, "attributes": {"Parking": {"garage": false, "validated": false, "street": false, "lot": false, "valet": false}, "Accepts Credit Cards": false, "Price Range": 2}, "type": "business"}
{"business_id": "HN7n-Ms4X-sXn2Yz-pKgwA", "full_address": "Ettlinger-Tor-Platz 1\n76133 Karlsruhe", "hours": {}, "open": true, "categories": ["Shopping", "Home Decor", "Home & Garden"], "city": "Karlsruhe", "review_count": 4, "name": "Depot", "neighborhoods": [], "longitude": 8.40308, "state": "BW", "stars": 5.0, "latitude": 49.0059, "attributes": {}, "type": "business"}
{"business_id": "tbLeodBE9W6ozoDgYuXM7w", "full_address": "Karlstr. 1a\n76133 Karlsruhe", "hours": {"Monday": {"close": "19:00", "open": "10:00"}, "Tuesday": {"close": "19:00", "open": "10:00"}, "Friday": {"close": "19:00", "open": "10:00"}, "Wednesday": {"close": "19:00", "open": "10:00"}, "Thursday": {"close": "19:00", "open": "10:00"}, "Saturday": {"close": "17:00", "open": "10:00"}}, "open": true, "categories": ["Home & Garden", "Flowers & Gifts", "Shopping", "Home Decor", "Florists"], "city": "Karlsruhe", "review_count": 3, "name": "Thomas Seith", "neighborhoods": [], "longitude": 8.3954, "state": "BW", "stars": 5.0, "latitude": 49.0118, "attributes": {}, "type": "business"}
{"business_id": "ujc_1tzKrEEPMv9oOSF3wA", "full_address": "Ettlinger Tor Platz 1\n76133 Karlsruhe", "hours": {"Monday": {"close": "20:00", "open": "10:00"}, "Tuesday": {"close": "20:00", "open": "10:00"}, "Friday": {"close": "20:00", "open": "10:00"}, "Wednesday": {"close": "20:00", "open": "10:00"}, "Thursday": {"close": "22:00", "open": "10:00"}, "Saturday": {"close": "20:00", "open": "10:00"}}, "open": true, "categories": ["Electronics", "Computers", "Shopping", "Home & Garden", "Appliances"], "city": "Karlsruhe", "review_count": 11, "name": "Media Markt", "neighborhoods": [], "longitude": 8.40251955605882, "state": "BW", "stars": 2.0, "latitude": 49.0060805453703, "attributes": {"Parking": {"garage": false, "validated": false, "street": false, "lot": false, "valet": false}, "Accepts Credit Cards": true, "Price Range": 4}, "type": "business"}
{"business_id": "hvr8NYKtGbJL0T7Y3WRv8w", "full_address": "Bahnhofstra\u00dfe\n76287 Rheinstetten", "hours": {}, "open": true, "categories": ["Hardware Stores", "Beer Garden", "Shopping", "Home & Garden", "Restaurants"], "city": "Rheinstetten", "review_count": 3, "name": "Biergarten J\u00e4ger", "neighborhoods": [], "longitude": 8.3410161, "state": "BW", "stars": 3.5, "latitude": 48.965887, "attributes": {"Take-out": true, "Wi-Fi": "no", "Good For": {"dessert": false, "latenight": false, "lunch": false, "dinner": false, "breakfast": false, "brunch": false}, "Parking": {"garage": false, "validated": false, "street": false, "lot": false, "valet": false}, "Delivery": false, "Wheelchair Accessible": true, "Outdoor Seating": true, "Takes Reservations": true, "Alcohol": "beer_and_wine", "Smoking": "yes", "Accepts Credit Cards": false, "Good For Groups": true, "Price Range": 2}, "type": "business"}
{"business_id": "BGZHzaRaOuxbBPAKxmnkZw", "full_address": "Karlstra\u00dfe 82\n76137 Karlsruhe", "hours": {"Monday": {"close": "18:30", "open": "08:30"}, "Tuesday": {"close": "18:30", "open": "08:30"}, "Friday": {"close": "18:30", "open": "08:30"}, "Wednesday": {"close": "18:30", "open": "08:30"}, "Thursday": {"close": "18:30", "open": "08:30"}, "Saturday": {"close": "13:30", "open": "09:30"}}, "open": true, "categories": ["Children's Clothing", "Fashion", "Shopping", "Appliances & Repair", "Home & Garden", "Local Services", "Kitchen & Bath", "Toy Stores"], "city": "Karlsruhe", "review_count": 3, "name": "atelier B:", "neighborhoods": [], "longitude": 8.39402, "state": "BW", "stars": 4.5, "latitude": 49.0009, "attributes": {}, "type": "business"}
{"business_id": "9rCNYbOnBGKnn1otAa8nyw", "full_address": "Erbprinzenstr. 21\n76133 Karlsruhe", "hours": {}, "open": true, "categories": ["Shopping", "Home & Garden", "Furniture Stores"], "city": "Karlsruhe", "review_count": 7, "name": "Gr\u00fcner Krebs", "neighborhoods": [], "longitude": 8.39766, "state": "BW", "stars": 4.5, "latitude": 49.0087, "attributes": {"Price Range": 3}, "type": "business"}
{"business_id": "A7Zrif-apG0Lt6ml1bXSsg", "full_address": "Eggensteiner Stra\u00dfe 52\n76297 Stutensee", "hours": {}, "open": true, "categories": ["Children's Clothing", "Fashion", "Shopping", "Mattresses", "Home & Garden", "Furniture Stores"], "city": "Stutensee", "review_count": 4, "name": "Naturversand Kirschke", "neighborhoods": [], "longitude": 8.4665991, "state": "BW", "stars": 3.5, "latitude": 49.0655226, "attributes": {}, "type": "business"}
{"business_id": "8NylphUnH1fJ3YLZq7Yreg", "full_address": "Neureuter Str. 8\n76185 Karlsruhe", "hours": {}, "open": true, "categories": ["Shopping", "Home & Garden"], "city": "Karlsruhe", "review_count": 7, "name": "Dehner", "neighborhoods": [], "longitude": 8.35494, "state": "BW", "stars": 3.0, "latitude": 49.0185, "attributes": {"Price Range": 2}, "type": "business"}
{"business_id": "PDt_BG9mYtdBf3mxvZyw3g", "full_address": "Ruschgraben 90\n76139 Karlsruhe", "hours": {"Monday": {"close": "20:00", "open": "10:00"}, "Tuesday": {"close": "20:00", "open": "10:00"}, "Friday": {"close": "20:00", "open": "10:00"}, "Wednesday": {"close": "20:00", "open": "10:00"}, "Thursday": {"close": "20:00", "open": "10:00"}, "Saturday": {"close": "20:00", "open": "10:00"}}, "open": true, "categories": ["Shopping", "Home & Garden", "Furniture Stores"], "city": "Karlsruhe", "review_count": 3, "name": "Roller", "neighborhoods": [], "longitude": 8.45697, "state": "BW", "stars": 2.5, "latitude": 49.0209, "attributes": {"Parking": {"garage": false, "validated": false, "street": false, "lot": false, "valet": false}}, "type": "business"}
{"business_id": "uzIDDHatzLhcc0LagyCx8g", "full_address": "Printzstr. 2\n76139 Karlsruhe", "hours": {}, "open": true, "categories": ["Hardware Stores", "Shopping", "Home & Garden"], "city": "Karlsruhe", "review_count": 3, "name": "Praktiker Bau-und Heimwerkerm\u00e4rkte", "neighborhoods": [], "longitude": 8.46203, "state": "BW", "stars": 1.5, "latitude": 49.0201, "attributes": {}, "type": "business"}
{"business_id": "-czvRRDB6tTlo6HUzBTMwg", "full_address": "Ahaweg 6\n76131 Karlsruhe", "hours": {}, "open": true, "categories": ["Museums", "Arts & Entertainment", "Shopping", "Home Services", "Home & Garden", "Painters", "Home Decor"], "city": "Karlsruhe", "review_count": 4, "name": "Staatliche Majolika Manufaktur Karlsruhe", "neighborhoods": [], "longitude": 8.4023623, "state": "BW", "stars": 3.5, "latitude": 49.0177377, "attributes": {"Parking": {"garage": false, "street": false, "validated": false, "lot": false, "valet": false}, "Accepts Credit Cards": true, "Good for Kids": false, "Price Range": 4}, "type": "business"}
{"business_id": "4Khs0-ezl2mwtsW1NiNv0A", "full_address": "Unterweingartenfeld 4\n76135 Karlsruhe", "hours": {"Monday": {"close": "20:00", "open": "09:30"}, "Tuesday": {"close": "20:00", "open": "09:30"}, "Friday": {"close": "20:00", "open": "09:30"}, "Wednesday": {"close": "20:00", "open": "09:30"}, "Thursday": {"close": "20:00", "open": "09:30"}, "Saturday": {"close": "20:00", "open": "09:00"}}, "open": true, "categories": ["Electronics", "Computers", "Shopping", "Home & Garden", "Appliances"], "city": "Karlsruhe", "review_count": 3, "name": "Media Markt", "neighborhoods": [], "longitude": 8.37312, "state": "BW", "stars": 4.0, "latitude": 48.992, "attributes": {"Parking": {"garage": false, "validated": false, "street": false, "lot": false, "valet": false}, "Accepts Credit Cards": true, "Wheelchair Accessible": false, "Price Range": 2}, "type": "business"}
{"business_id": "1TmQbb_tbgi-c81-Nh7XRQ", "full_address": "Am Storrenacker 6\n76139 Karlsruhe", "hours": {}, "open": true, "categories": ["Nurseries & Gardening", "Home Services", "Building Supplies", "Home & Garden", "Hardware Stores", "Shopping"], "city": "Karlsruhe", "review_count": 8, "name": "Hornbach", "neighborhoods": [], "longitude": 8.46165, "state": "BW", "stars": 4.5, "latitude": 49.0186, "attributes": {"Parking": {"garage": false, "street": false, "validated": false, "lot": false, "valet": false}, "Accepts Credit Cards": true, "Price Range": 2}, "type": "business"}
{"business_id": "lPLr1-rZziBW6gVDENLUUQ", "full_address": "Pfinztalstr. 90\n76227 Karlsruhe", "hours": {"Monday": {"close": "19:00", "open": "10:00"}, "Tuesday": {"close": "19:00", "open": "10:00"}, "Friday": {"close": "20:00", "open": "10:00"}, "Wednesday": {"close": "19:00", "open": "10:00"}, "Thursday": {"close": "19:00", "open": "10:00"}, "Saturday": {"close": "18:00", "open": "10:00"}}, "open": true, "categories": ["Shopping", "Home & Garden", "Furniture Stores"], "city": "Karlsruhe", "review_count": 7, "name": "Gr\u00fcner Krebs", "neighborhoods": [], "longitude": 8.46756, "state": "BW", "stars": 4.5, "latitude": 49.0017, "attributes": {}, "type": "business"}
{"business_id": "HqSEeW3CCeQ6c-0WlNo-8A", "full_address": "Barbarossaplatz  6\n76137 Karlsruhe", "hours": {"Monday": {"close": "18:30", "open": "09:30"}, "Tuesday": {"close": "18:30", "open": "09:30"}, "Friday": {"close": "18:30", "open": "09:30"}, "Wednesday": {"close": "18:30", "open": "09:30"}, "Thursday": {"close": "18:30", "open": "09:30"}, "Saturday": {"close": "14:00", "open": "10:00"}}, "open": true, "categories": ["Shopping", "Home & Garden"], "city": "Karlsruhe", "review_count": 3, "name": "printor", "neighborhoods": [], "longitude": 8.3900675, "state": "BW", "stars": 3.5, "latitude": 48.9952878, "attributes": {}, "type": "business"}
{"business_id": "wefS54RONhAHbY9CreX4Hw", "full_address": "Durlacher Allee 109\n76137 Karlsruhe", "hours": {"Monday": {"close": "19:00", "open": "10:00"}, "Tuesday": {"close": "19:00", "open": "10:00"}, "Friday": {"close": "19:00", "open": "10:00"}, "Wednesday": {"close": "19:00", "open": "10:00"}, "Thursday": {"close": "19:00", "open": "10:00"}, "Saturday": {"close": "19:00", "open": "10:00"}}, "open": true, "categories": ["Shopping", "Home & Garden", "Furniture Stores"], "city": "Karlsruhe", "review_count": 18, "name": "Xxxl Mann Mobilia", "neighborhoods": [], "longitude": 8.44425, "state": "BW", "stars": 3.0, "latitude": 49.004, "attributes": {"Take-out": false, "Good For": {"dessert": false, "latenight": false, "lunch": false, "dinner": false, "breakfast": false, "brunch": false}, "Parking": {"garage": false, "street": false, "validated": false, "lot": true, "valet": false}, "Delivery": false, "Wheelchair Accessible": true, "Outdoor Seating": false, "Attire": "casual", "Smoking": "no", "Accepts Credit Cards": true, "Good For Groups": true, "Price Range": 3}, "type": "business"}
{"business_id": "zzlpdQ2GPcXj7mo0lut3Vg", "full_address": "Ettlinger Tor\nEttlinger-Tor-Platz 1\n76133 Karlsruhe", "hours": {}, "open": true, "categories": ["Gift Shops", "Flowers & Gifts", "Shopping", "Home Decor", "Home & Garden"], "city": "Karlsruhe", "review_count": 3, "name": "Nanu-Nana", "neighborhoods": [], "longitude": 8.40208, "state": "BW", "stars": 5.0, "latitude": 49.0067, "attributes": {"Accepts Credit Cards": true, "Price Range": 3}, "type": "business"}
{"business_id": "tb7-JM1FYdITIQBWES7XRA", "full_address": "Benzstra\u00dfe 7 - 9\n76307 Karlsbad", "hours": {"Monday": {"close": "19:00", "open": "08:30"}, "Tuesday": {"close": "19:00", "open": "08:30"}, "Friday": {"close": "19:00", "open": "08:30"}, "Wednesday": {"close": "19:00", "open": "08:30"}, "Thursday": {"close": "19:00", "open": "08:30"}, "Saturday": {"close": "18:00", "open": "08:30"}}, "open": true, "categories": ["Hardware Stores", "Shopping", "Home & Garden"], "city": "Karlsbad", "review_count": 3, "name": "Profi Schroth Fachmarkt Center", "neighborhoods": [], "longitude": 8.50174, "state": "BW", "stars": 3.5, "latitude": 48.9201, "attributes": {"Accepts Credit Cards": true, "Price Range": 3}, "type": "business"}
{"business_id": "OMed9SgOJ4H1G5gqUn_umA", "full_address": "Ziegelstr. 1\n76185 Karlsruhe", "hours": {"Monday": {"close": "19:00", "open": "10:00"}, "Tuesday": {"close": "19:00", "open": "10:00"}, "Friday": {"close": "19:00", "open": "10:00"}, "Wednesday": {"close": "19:00", "open": "10:00"}, "Thursday": {"close": "21:00", "open": "10:00"}, "Sunday": {"close": "17:00", "open": "13:00"}, "Saturday": {"close": "18:00", "open": "10:00"}}, "open": true, "categories": ["Shopping", "Outlet Stores", "Home & Garden"], "city": "Karlsruhe", "review_count": 3, "name": "Outlet Store Gartenm\u00f6bel", "neighborhoods": [], "longitude": 8.3615657171232, "state": "BW", "stars": 4.5, "latitude": 49.006811427221, "attributes": {"Parking": {"garage": false, "validated": false, "street": false, "lot": false, "valet": false}, "Accepts Credit Cards": false, "Wheelchair Accessible": true, "Price Range": 3}, "type": "business"}
{"business_id": "zik3Lj994wNXYkYoK1PqKQ", "full_address": "Am Storrenacker 2\n76139 Karlsruhe", "hours": {"Monday": {"close": "20:00", "open": "10:00"}, "Tuesday": {"close": "20:00", "open": "10:00"}, "Friday": {"close": "20:00", "open": "10:00"}, "Wednesday": {"close": "20:00", "open": "10:00"}, "Thursday": {"close": "20:00", "open": "10:00"}, "Saturday": {"close": "19:00", "open": "09:00"}}, "open": true, "categories": ["Shopping", "Home Decor", "Home & Garden", "Furniture Stores"], "city": "Karlsruhe", "review_count": 7, "name": "M\u00f6max", "neighborhoods": [], "longitude": 8.45814, "state": "BW", "stars": 2.0, "latitude": 49.02025, "attributes": {"Parking": {"garage": false, "validated": false, "street": false, "lot": false, "valet": false}, "Wheelchair Accessible": false, "Price Range": 2}, "type": "business"}
{"business_id": "6G6T-7zxuPtAOLbt6SGwAg", "full_address": "K\u00e4ppelestr. 2\n76131 Karlsruhe", "hours": {}, "open": false, "categories": ["Hardware Stores", "Shopping", "Home Services", "Home & Garden"], "city": "Karlsruhe", "review_count": 9, "name": "Baumarkt Max Bahr GmbH & Co. KG", "neighborhoods": [], "longitude": 8.44044, "state": "BW", "stars": 3.0, "latitude": 49.00817, "attributes": {"Parking": {"garage": false, "validated": false, "street": false, "lot": false, "valet": false}, "Price Range": 2}, "type": "business"}
{"business_id": "eba6WF8cDN1TQ2_0rCkh4g", "full_address": "76131 Karlsruhe", "hours": {}, "open": true, "categories": ["Shopping", "Home & Garden", "Appliances"], "city": "Karlsruhe", "review_count": 4, "name": "Cafe Classico", "neighborhoods": [], "longitude": 8.4303821, "state": "BW", "stars": 4.5, "latitude": 49.0116951, "attributes": {"Parking": {"garage": false, "validated": false, "street": false, "lot": false, "valet": false}, "Accepts Credit Cards": false, "Price Range": 2}, "type": "business"}
{"business_id": "HN7n-Ms4X-sXn2Yz-pKgwA", "full_address": "Ettlinger-Tor-Platz 1\n76133 Karlsruhe", "hours": {}, "open": true, "categories": ["Shopping", "Home Decor", "Home & Garden"], "city": "Karlsruhe", "review_count": 4, "name": "Depot", "neighborhoods": [], "longitude": 8.40308, "state": "BW", "stars": 5.0, "latitude": 49.0059, "attributes": {}, "type": "business"}
{"business_id": "tbLeodBE9W6ozoDgYuXM7w", "full_address": "Karlstr. 1a\n76133 Karlsruhe", "hours": {"Monday": {"close": "19:00", "open": "10:00"}, "Tuesday": {"close": "19:00", "open": "10:00"}, "Friday": {"close": "19:00", "open": "10:00"}, "Wednesday": {"close": "19:00", "open": "10:00"}, "Thursday": {"close": "19:00", "open": "10:00"}, "Saturday": {"close": "17:00", "open": "10:00"}}, "open": true, "categories": ["Home & Garden", "Flowers & Gifts", "Shopping", "Home Decor", "Florists"], "city": "Karlsruhe", "review_count": 3, "name": "Thomas Seith", "neighborhoods": [], "longitude": 8.3954, "state": "BW", "stars": 5.0, "latitude": 49.0118, "attributes": {}, "type": "business"}
{"business_id": "ujc_1tzKrEEPMv9oOSF3wA", "full_address": "Ettlinger Tor Platz 1\n76133 Karlsruhe", "hours": {"Monday": {"close": "20:00", "open": "10:00"}, "Tuesday": {"close": "20:00", "open": "10:00"}, "Friday": {"close": "20:00", "open": "10:00"}, "Wednesday": {"close": "20:00", "open": "10:00"}, "Thursday": {"close": "22:00", "open": "10:00"}, "Saturday": {"close": "20:00", "open": "10:00"}}, "open": true, "categories": ["Electronics", "Computers", "Shopping", "Home & Garden", "Appliances"], "city": "Karlsruhe", "review_count": 11, "name": "Media Markt", "neighborhoods": [], "longitude": 8.40251955605882, "state": "BW", "stars": 2.0, "latitude": 49.0060805453703, "attributes": {"Parking": {"garage": false, "validated": false, "street": false, "lot": false, "valet": false}, "Accepts Credit Cards": true, "Price Range": 4}, "type": "business"}
{"business_id": "hvr8NYKtGbJL0T7Y3WRv8w", "full_address": "Bahnhofstra\u00dfe\n76287 Rheinstetten", "hours": {}, "open": true, "categories": ["Hardware Stores", "Beer Garden", "Shopping", "Home & Garden", "Restaurants"], "city": "Rheinstetten", "review_count": 3, "name": "Biergarten J\u00e4ger", "neighborhoods": [], "longitude": 8.3410161, "state": "BW", "stars": 3.5, "latitude": 48.965887, "attributes": {"Take-out": true, "Wi-Fi": "no", "Good For": {"dessert": false, "latenight": false, "lunch": false, "dinner": false, "breakfast": false, "brunch": false}, "Parking": {"garage": false, "validated": false, "street": false, "lot": false, "valet": false}, "Delivery": false, "Wheelchair Accessible": true, "Outdoor Seating": true, "Takes Reservations": true, "Alcohol": "beer_and_wine", "Smoking": "yes", "Accepts Credit Cards": false, "Good For Groups": true, "Price Range": 2}, "type": "business"}
{"business_id": "BGZHzaRaOuxbBPAKxmnkZw", "full_address": "Karlstra\u00dfe 82\n76137 Karlsruhe", "hours": {"Monday": {"close": "18:30", "open": "08:30"}, "Tuesday": {"close": "18:30", "open": "08:30"}, "Friday": {"close": "18:30", "open": "08:30"}, "Wednesday": {"close": "18:30", "open": "08:30"}, "Thursday": {"close": "18:30", "open": "08:30"}, "Saturday": {"close": "13:30", "open": "09:30"}}, "open": true, "categories": ["Children's Clothing", "Fashion", "Shopping", "Appliances & Repair", "Home & Garden", "Local Services", "Kitchen & Bath", "Toy Stores"], "city": "Karlsruhe", "review_count": 3, "name": "atelier B:", "neighborhoods": [], "longitude": 8.39402, "state": "BW", "stars": 4.5, "latitude": 49.0009, "attributes": {}, "type": "business"}
{"business_id": "9rCNYbOnBGKnn1otAa8nyw", "full_address": "Erbprinzenstr. 21\n76133 Karlsruhe", "hours": {}, "open": true, "categories": ["Shopping", "Home & Garden", "Furniture Stores"], "city": "Karlsruhe", "review_count": 7, "name": "Gr\u00fcner Krebs", "neighborhoods": [], "longitude": 8.39766, "state": "BW", "stars": 4.5, "latitude": 49.0087, "attributes": {"Price Range": 3}, "type": "business"}
{"business_id": "A7Zrif-apG0Lt6ml1bXSsg", "full_address": "Eggensteiner Stra\u00dfe 52\n76297 Stutensee", "hours": {}, "open": true, "categories": ["Children's Clothing", "Fashion", "Shopping", "Mattresses", "Home & Garden", "Furniture Stores"], "city": "Stutensee", "review_count": 4, "name": "Naturversand Kirschke", "neighborhoods": [], "longitude": 8.4665991, "state": "BW", "stars": 3.5, "latitude": 49.0655226, "attributes": {}, "type": "business"}
{"business_id": "8NylphUnH1fJ3YLZq7Yreg", "full_address": "Neureuter Str. 8\n76185 Karlsruhe", "hours": {}, "open": true, "categories": ["Shopping", "Home & Garden"], "city": "Karlsruhe", "review_count": 7, "name": "Dehner", "neighborhoods": [], "longitude": 8.35494, "state": "BW", "stars": 3.0, "latitude": 49.0185, "attributes": {"Price Range": 2}, "type": "business"}
{"business_id": "PDt_BG9mYtdBf3mxvZyw3g", "full_address": "Ruschgraben 90\n76139 Karlsruhe", "hours": {"Monday": {"close": "20:00", "open": "10:00"}, "Tuesday": {"close": "20:00", "open": "10:00"}, "Friday": {"close": "20:00", "open": "10:00"}, "Wednesday": {"close": "20:00", "open": "10:00"}, "Thursday": {"close": "20:00", "open": "10:00"}, "Saturday": {"close": "20:00", "open": "10:00"}}, "open": true, "categories": ["Shopping", "Home & Garden", "Furniture Stores"], "city": "Karlsruhe", "review_count": 3, "name": "Roller", "neighborhoods": [], "longitude": 8.45697, "state": "BW", "stars": 2.5, "latitude": 49.0209, "attributes": {"Parking": {"garage": false, "validated": false, "street": false, "lot": false, "valet": false}}, "type": "business"}
{"business_id": "uzIDDHatzLhcc0LagyCx8g", "full_address": "Printzstr. 2\n76139 Karlsruhe", "hours": {}, "open": true, "categories": ["Hardware Stores", "Shopping", "Home & Garden"], "city": "Karlsruhe", "review_count": 3, "name": "Praktiker Bau-und Heimwerkerm\u00e4rkte", "neighborhoods": [], "longitude": 8.46203, "state": "BW", "stars": 1.5, "latitude": 49.0201, "attributes": {}, "type": "business"}
{"business_id": "-czvRRDB6tTlo6HUzBTMwg", "full_address": "Ahaweg 6\n76131 Karlsruhe", "hours": {}, "open": true, "categories": ["Museums", "Arts & Entertainment", "Shopping", "Home Services", "Home & Garden", "Painters", "Home Decor"], "city": "Karlsruhe", "review_count": 4, "name": "Staatliche Majolika Manufaktur Karlsruhe", "neighborhoods": [], "longitude": 8.4023623, "state": "BW", "stars": 3.5, "latitude": 49.0177377, "attributes": {"Parking": {"garage": false, "street": false, "validated": false, "lot": false, "valet": false}, "Accepts Credit Cards": true, "Good for Kids": false, "Price Range": 4}, "type": "business"}
{"business_id": "4Khs0-ezl2mwtsW1NiNv0A", "full_address": "Unterweingartenfeld 4\n76135 Karlsruhe", "hours": {"Monday": {"close": "20:00", "open": "09:30"}, "Tuesday": {"close": "20:00", "open": "09:30"}, "Friday": {"close": "20:00", "open": "09:30"}, "Wednesday": {"close": "20:00", "open": "09:30"}, "Thursday": {"close": "20:00", "open": "09:30"}, "Saturday": {"close": "20:00", "open": "09:00"}}, "open": true, "categories": ["Electronics", "Computers", "Shopping", "Home & Garden", "Appliances"], "city": "Karlsruhe", "review_count": 3, "name": "Media Markt", "neighborhoods": [], "longitude": 8.37312, "state": "BW", "stars": 4.0, "latitude": 48.992, "attributes": {"Parking": {"garage": false, "validated": false, "street": false, "lot": false, "valet": false}, "Accepts Credit Cards": true, "Wheelchair Accessible": false, "Price Range": 2}, "type": "business"}
{"business_id": "1TmQbb_tbgi-c81-Nh7XRQ", "full_address": "Am Storrenacker 6\n76139 Karlsruhe", "hours": {}, "open": true, "categories": ["Nurseries & Gardening", "Home Services", "Building Supplies", "Home & Garden", "Hardware Stores", "Shopping"], "city": "Karlsruhe", "review_count": 8, "name": "Hornbach", "neighborhoods": [], "longitude": 8.46165, "state": "BW", "stars": 4.5, "latitude": 49.0186, "attributes": {"Parking": {"garage": false, "street": false, "validated": false, "lot": false, "valet": false}, "Accepts Credit Cards": true, "Price Range": 2}, "type": "business"}
{"business_id": "lPLr1-rZziBW6gVDENLUUQ", "full_address": "Pfinztalstr. 90\n76227 Karlsruhe", "hours": {"Monday": {"close": "19:00", "open": "10:00"}, "Tuesday": {"close": "19:00", "open": "10:00"}, "Friday": {"close": "20:00", "open": "10:00"}, "Wednesday": {"close": "19:00", "open": "10:00"}, "Thursday": {"close": "19:00", "open": "10:00"}, "Saturday": {"close": "18:00", "open": "10:00"}}, "open": true, "categories": ["Shopping", "Home & Garden", "Furniture Stores"], "city": "Karlsruhe", "review_count": 7, "name": "Gr\u00fcner Krebs", "neighborhoods": [], "longitude": 8.46756, "state": "BW", "stars": 4.5, "latitude": 49.0017, "attributes": {}, "type": "business"}
{"business_id": "HqSEeW3CCeQ6c-0WlNo-8A", "full_address": "Barbarossaplatz  6\n76137 Karlsruhe", "hours": {"Monday": {"close": "18:30", "open": "09:30"}, "Tuesday": {"close": "18:30", "open": "09:30"}, "Friday": {"close": "18:30", "open": "09:30"}, "Wednesday": {"close": "18:30", "open": "09:30"}, "Thursday": {"close": "18:30", "open": "09:30"}, "Saturday": {"close": "14:00", "open": "10:00"}}, "open": true, "categories": ["Shopping", "Home & Garden"], "city": "Karlsruhe", "review_count": 3, "name": "printor", "neighborhoods": [], "longitude": 8.3900675, "state": "BW", "stars": 3.5, "latitude": 48.9952878, "attributes": {}, "type": "business"}
{"business_id": "wefS54RONhAHbY9CreX4Hw", "full_address": "Durlacher Allee 109\n76137 Karlsruhe", "hours": {"Monday": {"close": "19:00", "open": "10:00"}, "Tuesday": {"close": "19:00", "open": "10:00"}, "Friday": {"close": "19:00", "open": "10:00"}, "Wednesday": {"close": "19:00", "open": "10:00"}, "Thursday": {"close": "19:00", "open": "10:00"}, "Saturday": {"close": "19:00", "open": "10:00"}}, "open": true, "categories": ["Shopping", "Home & Garden", "Furniture Stores"], "city": "Karlsruhe", "review_count": 18, "name": "Xxxl Mann Mobilia", "neighborhoods": [], "longitude": 8.44425, "state": "BW", "stars": 3.0, "latitude": 49.004, "attributes": {"Take-out": false, "Good For": {"dessert": false, "latenight": false, "lunch": false, "dinner": false, "breakfast": false, "brunch": false}, "Parking": {"garage": false, "street": false, "validated": false, "lot": true, "valet": false}, "Delivery": false, "Wheelchair Accessible": true, "Outdoor Seating": false, "Attire": "casual", "Smoking": "no", "Accepts Credit Cards": true, "Good For Groups": true, "Price Range": 3}, "type": "business"}
{"business_id": "zzlpdQ2GPcXj7mo0lut3Vg", "full_address": "Ettlinger Tor\nEttlinger-Tor-Platz 1\n76133 Karlsruhe", "hours": {}, "open": true, "categories": ["Gift Shops", "Flowers & Gifts", "Shopping", "Home Decor", "Home & Garden"], "city": "Karlsruhe", "review_count": 3, "name": "Nanu-Nana", "neighborhoods": [], "longitude": 8.40208, "state": "BW", "stars": 5.0, "latitude": 49.0067, "attributes": {"Accepts Credit Cards": true, "Price Range": 3}, "type": "business"}
{"business_id": "tb7-JM1FYdITIQBWES7XRA", "full_address": "Benzstra\u00dfe 7 - 9\n76307 Karlsbad", "hours": {"Monday": {"close": "19:00", "open": "08:30"}, "Tuesday": {"close": "19:00", "open": "08:30"}, "Friday": {"close": "19:00", "open": "08:30"}, "Wednesday": {"close": "19:00", "open": "08:30"}, "Thursday": {"close": "19:00", "open": "08:30"}, "Saturday": {"close": "18:00", "open": "08:30"}}, "open": true, "categories": ["Hardware Stores", "Shopping", "Home & Garden"], "city": "Karlsbad", "review_count": 3, "name": "Profi Schroth Fachmarkt Center", "neighborhoods": [], "longitude": 8.50174, "state": "BW", "stars": 3.5, "latitude": 48.9201, "attributes": {"Accepts Credit Cards": true, "Price Range": 3}, "type": "business"}
{"business_id": "OMed9SgOJ4H1G5gqUn_umA", "full_address": "Ziegelstr. 1\n76185 Karlsruhe", "hours": {"Monday": {"close": "19:00", "open": "10:00"}, "Tuesday": {"close": "19:00", "open": "10:00"}, "Friday": {"close": "19:00", "open": "10:00"}, "Wednesday": {"close": "19:00", "open": "10:00"}, "Thursday": {"close": "21:00", "open": "10:00"}, "Sunday": {"close": "17:00", "open": "13:00"}, "Saturday": {"close": "18:00", "open": "10:00"}}, "open": true, "categories": ["Shopping", "Outlet Stores", "Home & Garden"], "city": "Karlsruhe", "review_count": 3, "name": "Outlet Store Gartenm\u00f6bel", "neighborhoods": [], "longitude": 8.3615657171232, "state": "BW", "stars": 4.5, "latitude": 49.006811427221, "attributes": {"Parking": {"garage": false, "validated": false, "street": false, "lot": false, "valet": false}, "Accepts Credit Cards": false, "Wheelchair Accessible": true, "Price Range": 3}, "type": "business"}
{"business_id": "zik3Lj994wNXYkYoK1PqKQ", "full_address": "Am Storrenacker 2\n76139 Karlsruhe", "hours": {"Monday": {"close": "20:00", "open": "10:00"}, "Tuesday": {"close": "20:00", "open": "10:00"}, "Friday": {"close": "20:00", "open": "10:00"}, "Wednesday": {"close": "20:00", "open": "10:00"}, "Thursday": {"close": "20:00", "open": "10:00"}, "Saturday": {"close": "19:00", "open": "09:00"}}, "open": true, "categories": ["Shopping", "Home Decor", "Home & Garden", "Furniture Stores"], "city": "Karlsruhe", "review_count": 7, "name": "M\u00f6max", "neighborhoods": [], "longitude": 8.45814, "state": "BW", "stars": 2.0, "latitude": 49.02025, "attributes": {"Parking": {"garage": false, "validated": false, "street": false, "lot": false, "valet": false}, "Wheelchair Accessible": false, "Price Range": 2}, "type": "business"}
{"business_id": "6G6T-7zxuPtAOLbt6SGwAg", "full_address": "K\u00e4ppelestr. 2\n76131 Karlsruhe", "hours": {}, "open": false, "categories": ["Hardware Stores", "Shopping", "Home Services", "Home & Garden"], "city": "Karlsruhe", "review_count": 9, "name": "Baumarkt Max Bahr GmbH & Co. KG", "neighborhoods": [], "longitude": 8.44044, "state": "BW", "stars": 3.0, "latitude": 49.00817, "attributes": {"Parking": {"garage": false, "validated": false, "street": false, "lot": false, "valet": false}, "Price Range": 2}, "type": "business"}
{"business_id": "eba6WF8cDN1TQ2_0rCkh4g", "full_address": "76131 Karlsruhe", "hours": {}, "open": true, "categories": ["Shopping", "Home & Garden", "Appliances"], "city": "Karlsruhe", "review_count": 4, "name": "Cafe Classico", "neighborhoods": [], "longitude": 8.4303821, "state": "BW", "stars": 4.5, "latitude": 49.0116951, "attributes": {"Parking": {"garage": false, "validated": false, "street": false, "lot": false, "valet": false}, "Accepts Credit Cards": false, "Price Range": 2}, "type": "business"}
{"business_id": "HN7n-Ms4X-sXn2Yz-pKgwA", "full_address": "Ettlinger-Tor-Platz 1\n76133 Karlsruhe", "hours": {}, "open": true, "categories": ["Shopping", "Home Decor", "Home & Garden"], "city": "Karlsruhe", "review_count": 4, "name": "Depot", "neighborhoods": [], "longitude": 8.40308, "state": "BW", "stars": 5.0, "latitude": 49.0059, "attributes": {}, "type": "business"}
{"business_id": "tbLeodBE9W6ozoDgYuXM7w", "full_address": "Karlstr. 1a\n76133 Karlsruhe", "hours": {"Monday": {"close": "19:00", "open": "10:00"}, "Tuesday": {"close": "19:00", "open": "10:00"}, "Friday": {"close": "19:00", "open": "10:00"}, "Wednesday": {"close": "19:00", "open": "10:00"}, "Thursday": {"close": "19:00", "open": "10:00"}, "Saturday": {"close": "17:00", "open": "10:00"}}, "open": true, "categories": ["Home & Garden", "Flowers & Gifts", "Shopping", "Home Decor", "Florists"], "city": "Karlsruhe", "review_count": 3, "name": "Thomas Seith", "neighborhoods": [], "longitude": 8.3954, "state": "BW", "stars": 5.0, "latitude": 49.0118, "attributes": {}, "type": "business"}
{"business_id": "ujc_1tzKrEEPMv9oOSF3wA", "full_address": "Ettlinger Tor Platz 1\n76133 Karlsruhe", "hours": {"Monday": {"close": "20:00", "open": "10:00"}, "Tuesday": {"close": "20:00", "open": "10:00"}, "Friday": {"close": "20:00", "open": "10:00"}, "Wednesday": {"close": "20:00", "open": "10:00"}, "Thursday": {"close": "22:00", "open": "10:00"}, "Saturday": {"close": "20:00", "open": "10:00"}}, "open": true, "categories": ["Electronics", "Computers", "Shopping", "Home & Garden", "Appliances"], "city": "Karlsruhe", "review_count": 11, "name": "Media Markt", "neighborhoods": [], "longitude": 8.40251955605882, "state": "BW", "stars": 2.0, "latitude": 49.0060805453703, "attributes": {"Parking": {"garage": false, "validated": false, "street": false, "lot": false, "valet": false}, "Accepts Credit Cards": true, "Price Range": 4}, "type": "business"}
{"business_id": "hvr8NYKtGbJL0T7Y3WRv8w", "full_address": "Bahnhofstra\u00dfe\n76287 Rheinstetten", "hours": {}, "open": true, "categories": ["Hardware Stores", "Beer Garden", "Shopping", "Home & Garden", "Restaurants"], "city": "Rheinstetten", "review_count": 3, "name": "Biergarten J\u00e4ger", "neighborhoods": [], "longitude": 8.3410161, "state": "BW", "stars": 3.5, "latitude": 48.965887, "attributes": {"Take-out": true, "Wi-Fi": "no", "Good For": {"dessert": false, "latenight": false, "lunch": false, "dinner": false, "breakfast": false, "brunch": false}, "Parking": {"garage": false, "validated": false, "street": false, "lot": false, "valet": false}, "Delivery": false, "Wheelchair Accessible": true, "Outdoor Seating": true, "Takes Reservations": true, "Alcohol": "beer_and_wine", "Smoking": "yes", "Accepts Credit Cards": false, "Good For Groups": true, "Price Range": 2}, "type": "business"}
{"business_id": "BGZHzaRaOuxbBPAKxmnkZw", "full_address": "Karlstra\u00dfe 82\n76137 Karlsruhe", "hours": {"Monday": {"close": "18:30", "open": "08:30"}, "Tuesday": {"close": "18:30", "open": "08:30"}, "Friday": {"close": "18:30", "open": "08:30"}, "Wednesday": {"close": "18:30", "open": "08:30"}, "Thursday": {"close": "18:30", "open": "08:30"}, "Saturday": {"close": "13:30", "open": "09:30"}}, "open": true, "categories": ["Children's Clothing", "Fashion", "Shopping", "Appliances & Repair", "Home & Garden", "Local Services", "Kitchen & Bath", "Toy Stores"], "city": "Karlsruhe", "review_count": 3, "name": "atelier B:", "neighborhoods": [], "longitude": 8.39402, "state": "BW", "stars": 4.5, "latitude": 49.0009, "attributes": {}, "type": "business"}
{"business_id": "9rCNYbOnBGKnn1otAa8nyw", "full_address": "Erbprinzenstr. 21\n76133 Karlsruhe", "hours": {}, "open": true, "categories": ["Shopping", "Home & Garden", "Furniture Stores"], "city": "Karlsruhe", "review_count": 7, "name": "Gr\u00fcner Krebs", "neighborhoods": [], "longitude": 8.39766, "state": "BW", "stars": 4.5, "latitude": 49.0087, "attributes": {"Price Range": 3}, "type": "business"}
{"business_id": "A7Zrif-apG0Lt6ml1bXSsg", "full_address": "Eggensteiner Stra\u00dfe 52\n76297 Stutensee", "hours": {}, "open": true, "categories": ["Children's Clothing", "Fashion", "Shopping", "Mattresses", "Home & Garden", "Furniture Stores"], "city": "Stutensee", "review_count": 4, "name": "Naturversand Kirschke", "neighborhoods": [], "longitude": 8.4665991, "state": "BW", "stars": 3.5, "latitude": 49.0655226, "attributes": {}, "type": "business"}
{"business_id": "8NylphUnH1fJ3YLZq7Yreg", "full_address": "Neureuter Str. 8\n76185 Karlsruhe", "hours": {}, "open": true, "categories": ["Shopping", "Home & Garden"], "city": "Karlsruhe", "review_count": 7, "name": "Dehner", "neighborhoods": [], "longitude": 8.35494, "state": "BW", "stars": 3.0, "latitude": 49.0185, "attributes": {"Price Range": 2}, "type": "business"}
{"business_id": "PDt_BG9mYtdBf3mxvZyw3g", "full_address": "Ruschgraben 90\n76139 Karlsruhe", "hours": {"Monday": {"close": "20:00", "open": "10:00"}, "Tuesday": {"close": "20:00", "open": "10:00"}, "Friday": {"close": "20:00", "open": "10:00"}, "Wednesday": {"close": "20:00", "open": "10:00"}, "Thursday": {"close": "20:00", "open": "10:00"}, "Saturday": {"close": "20:00", "open": "10:00"}}, "open": true, "categories": ["Shopping", "Home & Garden", "Furniture Stores"], "city": "Karlsruhe", "review_count": 3, "name": "Roller", "neighborhoods": [], "longitude": 8.45697, "state": "BW", "stars": 2.5, "latitude": 49.0209, "attributes": {"Parking": {"garage": false, "validated": false, "street": false, "lot": false, "valet": false}}, "type": "business"}
{"business_id": "uzIDDHatzLhcc0LagyCx8g", "full_address": "Printzstr. 2\n76139 Karlsruhe", "hours": {}, "open": true, "categories": ["Hardware Stores", "Shopping", "Home & Garden"], "city": "Karlsruhe", "review_count": 3, "name": "Praktiker Bau-und Heimwerkerm\u00e4rkte", "neighborhoods": [], "longitude": 8.46203, "state": "BW", "stars": 1.5, "latitude": 49.0201, "attributes": {}, "type": "business"}
{"business_id": "-czvRRDB6tTlo6HUzBTMwg", "full_address": "Ahaweg 6\n76131 Karlsruhe", "hours": {}, "open": true, "categories": ["Museums", "Arts & Entertainment", "Shopping", "Home Services", "Home & Garden", "Painters", "Home Decor"], "city": "Karlsruhe", "review_count": 4, "name": "Staatliche Majolika Manufaktur Karlsruhe", "neighborhoods": [], "longitude": 8.4023623, "state": "BW", "stars": 3.5, "latitude": 49.0177377, "attributes": {"Parking": {"garage": false, "street": false, "validated": false, "lot": false, "valet": false}, "Accepts Credit Cards": true, "Good for Kids": false, "Price Range": 4}, "type": "business"}
{"business_id": "4Khs0-ezl2mwtsW1NiNv0A", "full_address": "Unterweingartenfeld 4\n76135 Karlsruhe", "hours": {"Monday": {"close": "20:00", "open": "09:30"}, "Tuesday": {"close": "20:00", "open": "09:30"}, "Friday": {"close": "20:00", "open": "09:30"}, "Wednesday": {"close": "20:00", "open": "09:30"}, "Thursday": {"close": "20:00", "open": "09:30"}, "Saturday": {"close": "20:00", "open": "09:00"}}, "open": true, "categories": ["Electronics", "Computers", "Shopping", "Home & Garden", "Appliances"], "city": "Karlsruhe", "review_count": 3, "name": "Media Markt", "neighborhoods": [], "longitude": 8.37312, "state": "BW", "stars": 4.0, "latitude": 48.992, "attributes": {"Parking": {"garage": false, "validated": false, "street": false, "lot": false, "valet": false}, "Accepts Credit Cards": true, "Wheelchair Accessible": false, "Price Range": 2}, "type": "business"}
{"business_id": "1TmQbb_tbgi-c81-Nh7XRQ", "full_address": "Am Storrenacker 6\n76139 Karlsruhe", "hours": {}, "open": true, "categories": ["Nurseries & Gardening", "Home Services", "Building Supplies", "Home & Garden", "Hardware Stores", "Shopping"], "city": "Karlsruhe", "review_count": 8, "name": "Hornbach", "neighborhoods": [], "longitude": 8.46165, "state": "BW", "stars": 4.5, "latitude": 49.0186, "attributes": {"Parking": {"garage": false, "street": false, "validated": false, "lot": false, "valet": false}, "Accepts Credit Cards": true, "Price Range": 2}, "type": "business"}
{"business_id": "lPLr1-rZziBW6gVDENLUUQ", "full_address": "Pfinztalstr. 90\n76227 Karlsruhe", "hours": {"Monday": {"close": "19:00", "open": "10:00"}, "Tuesday": {"close": "19:00", "open": "10:00"}, "Friday": {"close": "20:00", "open": "10:00"}, "Wednesday": {"close": "19:00", "open": "10:00"}, "Thursday": {"close": "19:00", "open": "10:00"}, "Saturday": {"close": "18:00", "open": "10:00"}}, "open": true, "categories": ["Shopping", "Home & Garden", "Furniture Stores"], "city": "Karlsruhe", "review_count": 7, "name": "Gr\u00fcner Krebs", "neighborhoods": [], "longitude": 8.46756, "state": "BW", "stars": 4.5, "latitude": 49.0017, "attributes": {}, "type": "business"}
{"business_id": "HqSEeW3CCeQ6c-0WlNo-8A", "full_address": "Barbarossaplatz  6\n76137 Karlsruhe", "hours": {"Monday": {"close": "18:30", "open": "09:30"}, "Tuesday": {"close": "18:30", "open": "09:30"}, "Friday": {"close": "18:30", "open": "09:30"}, "Wednesday": {"close": "18:30", "open": "09:30"}, "Thursday": {"close": "18:30", "open": "09:30"}, "Saturday": {"close": "14:00", "open": "10:00"}}, "open": true, "categories": ["Shopping", "Home & Garden"], "city": "Karlsruhe", "review_count": 3, "name": "printor", "neighborhoods": [], "longitude": 8.3900675, "state": "BW", "stars": 3.5, "latitude": 48.9952878, "attributes": {}, "type": "business"}
{"business_id": "wefS54RONhAHbY9CreX4Hw", "full_address": "Durlacher Allee 109\n76137 Karlsruhe", "hours": {"Monday": {"close": "19:00", "open": "10:00"}, "Tuesday": {"close": "19:00", "open": "10:00"}, "Friday": {"close": "19:00", "open": "10:00"}, "Wednesday": {"close": "19:00", "open": "10:00"}, "Thursday": {"close": "19:00", "open": "10:00"}, "Saturday": {"close": "19:00", "open": "10:00"}}, "open": true, "categories": ["Shopping", "Home & Garden", "Furniture Stores"], "city": "Karlsruhe", "review_count": 18, "name": "Xxxl Mann Mobilia", "neighborhoods": [], "longitude": 8.44425, "state": "BW", "stars": 3.0, "latitude": 49.004, "attributes": {"Take-out": false, "Good For": {"dessert": false, "latenight": false, "lunch": false, "dinner": false, "breakfast": false, "brunch": false}, "Parking": {"garage": false, "street": false, "validated": false, "lot": true, "valet": false}, "Delivery": false, "Wheelchair Accessible": true, "Outdoor Seating": false, "Attire": "casual", "Smoking": "no", "Accepts Credit Cards": true, "Good For Groups": true, "Price Range": 3}, "type": "business"}
{"business_id": "zzlpdQ2GPcXj7mo0lut3Vg", "full_address": "Ettlinger Tor\nEttlinger-Tor-Platz 1\n76133 Karlsruhe", "hours": {}, "open": true, "categories": ["Gift Shops", "Flowers & Gifts", "Shopping", "Home Decor", "Home & Garden"], "city": "Karlsruhe", "review_count": 3, "name": "Nanu-Nana", "neighborhoods": [], "longitude": 8.40208, "state": "BW", "stars": 5.0, "latitude": 49.0067, "attributes": {"Accepts Credit Cards": true, "Price Range": 3}, "type": "business"}
{"business_id": "tb7-JM1FYdITIQBWES7XRA", "full_address": "Benzstra\u00dfe 7 - 9\n76307 Karlsbad", "hours": {"Monday": {"close": "19:00", "open": "08:30"}, "Tuesday": {"close": "19:00", "open": "08:30"}, "Friday": {"close": "19:00", "open": "08:30"}, "Wednesday": {"close": "19:00", "open": "08:30"}, "Thursday": {"close": "19:00", "open": "08:30"}, "Saturday": {"close": "18:00", "open": "08:30"}}, "open": true, "categories": ["Hardware Stores", "Shopping", "Home & Garden"], "city": "Karlsbad", "review_count": 3, "name": "Profi Schroth Fachmarkt Center", "neighborhoods": [], "longitude": 8.50174, "state": "BW", "stars": 3.5, "latitude": 48.9201, "attributes": {"Accepts Credit Cards": true, "Price Range": 3}, "type": "business"}
{"business_id": "OMed9SgOJ4H1G5gqUn_umA", "full_address": "Ziegelstr. 1\n76185 Karlsruhe", "hours": {"Monday": {"close": "19:00", "open": "10:00"}, "Tuesday": {"close": "19:00", "open": "10:00"}, "Friday": {"close": "19:00", "open": "10:00"}, "Wednesday": {"close": "19:00", "open": "10:00"}, "Thursday": {"close": "21:00", "open": "10:00"}, "Sunday": {"close": "17:00", "open": "13:00"}, "Saturday": {"close": "18:00", "open": "10:00"}}, "open": true, "categories": ["Shopping", "Outlet Stores", "Home & Garden"], "city": "Karlsruhe", "review_count": 3, "name": "Outlet Store Gartenm\u00f6bel", "neighborhoods": [], "longitude": 8.3615657171232, "state": "BW", "stars": 4.5, "latitude": 49.006811427221, "attributes": {"Parking": {"garage": false, "validated": false, "street": false, "lot": false, "valet": false}, "Accepts Credit Cards": false, "Wheelchair Accessible": true, "Price Range": 3}, "type": "business"}
{"business_id": "zik3Lj994wNXYkYoK1PqKQ", "full_address": "Am Storrenacker 2\n76139 Karlsruhe", "hours": {"Monday": {"close": "20:00", "open": "10:00"}, "Tuesday": {"close": "20:00", "open": "10:00"}, "Friday": {"close": "20:00", "open": "10:00"}, "Wednesday": {"close": "20:00", "open": "10:00"}, "Thursday": {"close": "20:00", "open": "10:00"}, "Saturday": {"close": "19:00", "open": "09:00"}}, "open": true, "categories": ["Shopping", "Home Decor", "Home & Garden", "Furniture Stores"], "city": "Karlsruhe", "review_count": 7, "name": "M\u00f6max", "neighborhoods": [], "longitude": 8.45814, "state": "BW", "stars": 2.0, "latitude": 49.02025, "attributes": {"Parking": {"garage": false, "validated": false, "street": false, "lot": false, "valet": false}, "Wheelchair Accessible": false, "Price Range": 2}, "type": "business"}
{"business_id": "6G6T-7zxuPtAOLbt6SGwAg", "full_address": "K\u00e4ppelestr. 2\n76131 Karlsruhe", "hours": {}, "open": false, "categories": ["Hardware Stores", "Shopping", "Home Services", "Home & Garden"], "city": "Karlsruhe", "review_count": 9, "name": "Baumarkt Max Bahr GmbH & Co. KG", "neighborhoods": [], "longitude": 8.44044, "state": "BW", "stars": 3.0, "latitude": 49.00817, "attributes": {"Parking": {"garage": false, "validated": false, "street": false, "lot": false, "valet": false}, "Price Range": 2}, "type": "business"}
{"business_id": "eba6WF8cDN1TQ2_0rCkh4g", "full_address": "76131 Karlsruhe", "hours": {}, "open": true, "categories": ["Shopping", "Home & Garden", "Appliances"], "city": "Karlsruhe", "review_count": 4, "name": "Cafe Classico", "neighborhoods": [], "longitude": 8.4303821, "state": "BW", "stars": 4.5, "latitude": 49.0116951, "attributes": {"Parking": {"garage": false, "validated": false, "street": false, "lot": false, "valet": false}, "Accepts Credit Cards": false, "Price Range": 2}, "type": "business"}
{"business_id": "HN7n-Ms4X-sXn2Yz-pKgwA", "full_address": "Ettlinger-Tor-Platz 1\n76133 Karlsruhe", "hours": {}, "open": true, "categories": ["Shopping", "Home Decor", "Home & Garden"], "city": "Karlsruhe", "review_count": 4, "name": "Depot", "neighborhoods": [], "longitude": 8.40308, "state": "BW", "stars": 5.0, "latitude": 49.0059, "attributes": {}, "type": "business"}
{"business_id": "tbLeodBE9W6ozoDgYuXM7w", "full_address": "Karlstr. 1a\n76133 Karlsruhe", "hours": {"Monday": {"close": "19:00", "open": "10:00"}, "Tuesday": {"close": "19:00", "open": "10:00"}, "Friday": {"close": "19:00", "open": "10:00"}, "Wednesday": {"close": "19:00", "open": "10:00"}, "Thursday": {"close": "19:00", "open": "10:00"}, "Saturday": {"close": "17:00", "open": "10:00"}}, "open": true, "categories": ["Home & Garden", "Flowers & Gifts", "Shopping", "Home Decor", "Florists"], "city": "Karlsruhe", "review_count": 3, "name": "Thomas Seith", "neighborhoods": [], "longitude": 8.3954, "state": "BW", "stars": 5.0, "latitude": 49.0118, "attributes": {}, "type": "business"}
{"business_id": "ujc_1tzKrEEPMv9oOSF3wA", "full_address": "Ettlinger Tor Platz 1\n76133 Karlsruhe", "hours": {"Monday": {"close": "20:00", "open": "10:00"}, "Tuesday": {"close": "20:00", "open": "10:00"}, "Friday": {"close": "20:00", "open": "10:00"}, "Wednesday": {"close": "20:00", "open": "10:00"}, "Thursday": {"close": "22:00", "open": "10:00"}, "Saturday": {"close": "20:00", "open": "10:00"}}, "open": true, "categories": ["Electronics", "Computers", "Shopping", "Home & Garden", "Appliances"], "city": "Karlsruhe", "review_count": 11, "name": "Media Markt", "neighborhoods": [], "longitude": 8.40251955605882, "state": "BW", "stars": 2.0, "latitude": 49.0060805453703, "attributes": {"Parking": {"garage": false, "validated": false, "street": false, "lot": false, "valet": false}, "Accepts Credit Cards": true, "Price Range": 4}, "type": "business"}
{"business_id": "hvr8NYKtGbJL0T7Y3WRv8w", "full_address": "Bahnhofstra\u00dfe\n76287 Rheinstetten", "hours": {}, "open": true, "categories": ["Hardware Stores", "Beer Garden", "Shopping", "Home & Garden", "Restaurants"], "city": "Rheinstetten", "review_count": 3, "name": "Biergarten J\u00e4ger", "neighborhoods": [], "longitude": 8.3410161, "state": "BW", "stars": 3.5, "latitude": 48.965887, "attributes": {"Take-out": true, "Wi-Fi": "no", "Good For": {"dessert": false, "latenight": false, "lunch": false, "dinner": false, "breakfast": false, "brunch": false}, "Parking": {"garage": false, "validated": false, "street": false, "lot": false, "valet": false}, "Delivery": false, "Wheelchair Accessible": true, "Outdoor Seating": true, "Takes Reservations": true, "Alcohol": "beer_and_wine", "Smoking": "yes", "Accepts Credit Cards": false, "Good For Groups": true, "Price Range": 2}, "type": "business"}
{"business_id": "BGZHzaRaOuxbBPAKxmnkZw", "full_address": "Karlstra\u00dfe 82\n76137 Karlsruhe", "hours": {"Monday": {"close": "18:30", "open": "08:30"}, "Tuesday": {"close": "18:30", "open": "08:30"}, "Friday": {"close": "18:30", "open": "08:30"}, "Wednesday": {"close": "18:30", "open": "08:30"}, "Thursday": {"close": "18:30", "open": "08:30"}, "Saturday": {"close": "13:30", "open": "09:30"}}, "open": true, "categories": ["Children's Clothing", "Fashion", "Shopping", "Appliances & Repair", "Home & Garden", "Local Services", "Kitchen & Bath", "Toy Stores"], "city": "Karlsruhe", "review_count": 3, "name": "atelier B:", "neighborhoods": [], "longitude": 8.39402, "state": "BW", "stars": 4.5, "latitude": 49.0009, "attributes": {}, "type": "business"}
{"business_id": "9rCNYbOnBGKnn1otAa8nyw", "full_address": "Erbprinzenstr. 21\n76133 Karlsruhe", "hours": {}, "open": true, "categories": ["Shopping", "Home & Garden", "Furniture Stores"], "city": "Karlsruhe", "review_count": 7, "name": "Gr\u00fcner Krebs", "neighborhoods": [], "longitude": 8.39766, "state": "BW", "stars": 4.5, "latitude": 49.0087, "attributes": {"Price Range": 3}, "type": "business"}
{"business_id": "A7Zrif-apG0Lt6ml1bXSsg", "full_address": "Eggensteiner Stra\u00dfe 52\n76297 Stutensee", "hours": {}, "open": true, "categories": ["Children's Clothing", "Fashion", "Shopping", "Mattresses", "Home & Garden", "Furniture Stores"], "city": "Stutensee", "review_count": 4, "name": "Naturversand Kirschke", "neighborhoods": [], "longitude": 8.4665991, "state": "BW", "stars": 3.5, "latitude": 49.0655226, "attributes": {}, "type": "business"}
{"business_id": "8NylphUnH1fJ3YLZq7Yreg", "full_address": "Neureuter Str. 8\n76185 Karlsruhe", "hours": {}, "open": true, "categories": ["Shopping", "Home & Garden"], "city": "Karlsruhe", "review_count": 7, "name": "Dehner", "neighborhoods": [], "longitude": 8.35494, "state": "BW", "stars": 3.0, "latitude": 49.0185, "attributes": {"Price Range": 2}, "type": "business"}
{"business_id": "PDt_BG9mYtdBf3mxvZyw3g", "full_address": "Ruschgraben 90\n76139 Karlsruhe", "hours": {"Monday": {"close": "20:00", "open": "10:00"}, "Tuesday": {"close": "20:00", "open": "10:00"}, "Friday": {"close": "20:00", "open": "10:00"}, "Wednesday": {"close": "20:00", "open": "10:00"}, "Thursday": {"close": "20:00", "open": "10:00"}, "Saturday": {"close": "20:00", "open": "10:00"}}, "open": true, "categories": ["Shopping", "Home & Garden", "Furniture Stores"], "city": "Karlsruhe", "review_count": 3, "name": "Roller", "neighborhoods": [], "longitude": 8.45697, "state": "BW", "stars": 2.5, "latitude": 49.0209, "attributes": {"Parking": {"garage": false, "validated": false, "street": false, "lot": false, "valet": false}}, "type": "business"}
{"business_id": "uzIDDHatzLhcc0LagyCx8g", "full_address": "Printzstr. 2\n76139 Karlsruhe", "hours": {}, "open": true, "categories": ["Hardware Stores", "Shopping", "Home & Garden"], "city": "Karlsruhe", "review_count": 3, "name": "Praktiker Bau-und Heimwerkerm\u00e4rkte", "neighborhoods": [], "longitude": 8.46203, "state": "BW", "stars": 1.5, "latitude": 49.0201, "attributes": {}, "type": "business"}
{"business_id": "-czvRRDB6tTlo6HUzBTMwg", "full_address": "Ahaweg 6\n76131 Karlsruhe", "hours": {}, "open": true, "categories": ["Museums", "Arts & Entertainment", "Shopping", "Home Services", "Home & Garden", "Painters", "Home Decor"], "city": "Karlsruhe", "review_count": 4, "name": "Staatliche Majolika Manufaktur Karlsruhe", "neighborhoods": [], "longitude": 8.4023623, "state": "BW", "stars": 3.5, "latitude": 49.0177377, "attributes": {"Parking": {"garage": false, "street": false, "validated": false, "lot": false, "valet": false}, "Accepts Credit Cards": true, "Good for Kids": false, "Price Range": 4}, "type": "business"}
{"business_id": "4Khs0-ezl2mwtsW1NiNv0A", "full_address": "Unterweingartenfeld 4\n76135 Karlsruhe", "hours": {"Monday": {"close": "20:00", "open": "09:30"}, "Tuesday": {"close": "20:00", "open": "09:30"}, "Friday": {"close": "20:00", "open": "09:30"}, "Wednesday": {"close": "20:00", "open": "09:30"}, "Thursday": {"close": "20:00", "open": "09:30"}, "Saturday": {"close": "20:00", "open": "09:00"}}, "open": true, "categories": ["Electronics", "Computers", "Shopping", "Home & Garden", "Appliances"], "city": "Karlsruhe", "review_count": 3, "name": "Media Markt", "neighborhoods": [], "longitude": 8.37312, "state": "BW", "stars": 4.0, "latitude": 48.992, "attributes": {"Parking": {"garage": false, "validated": false, "street": false, "lot": false, "valet": false}, "Accepts Credit Cards": true, "Wheelchair Accessible": false, "Price Range": 2}, "type": "business"}
{"business_id": "1TmQbb_tbgi-c81-Nh7XRQ", "full_address": "Am Storrenacker 6\n76139 Karlsruhe", "hours": {}, "open": true, "categories": ["Nurseries & Gardening", "Home Services", "Building Supplies", "Home & Garden", "Hardware Stores", "Shopping"], "city": "Karlsruhe", "review_count": 8, "name": "Hornbach", "neighborhoods": [], "longitude": 8.46165, "state": "BW", "stars": 4.5, "latitude": 49.0186, "attributes": {"Parking": {"garage": false, "street": false, "validated": false, "lot": false, "valet": false}, "Accepts Credit Cards": true, "Price Range": 2}, "type": "business"}
{"business_id": "lPLr1-rZziBW6gVDENLUUQ", "full_address": "Pfinztalstr. 90\n76227 Karlsruhe", "hours": {"Monday": {"close": "19:00", "open": "10:00"}, "Tuesday": {"close": "19:00", "open": "10:00"}, "Friday": {"close": "20:00", "open": "10:00"}, "Wednesday": {"close": "19:00", "open": "10:00"}, "Thursday": {"close": "19:00", "open": "10:00"}, "Saturday": {"close": "18:00", "open": "10:00"}}, "open": true, "categories": ["Shopping", "Home & Garden", "Furniture Stores"], "city": "Karlsruhe", "review_count": 7, "name": "Gr\u00fcner Krebs", "neighborhoods": [], "longitude": 8.46756, "state": "BW", "stars": 4.5, "latitude": 49.0017, "attributes": {}, "type": "business"}
{"business_id": "HqSEeW3CCeQ6c-0WlNo-8A", "full_address": "Barbarossaplatz  6\n76137 Karlsruhe", "hours": {"Monday": {"close": "18:30", "open": "09:30"}, "Tuesday": {"close": "18:30", "open": "09:30"}, "Friday": {"close": "18:30", "open": "09:30"}, "Wednesday": {"close": "18:30", "open": "09:30"}, "Thursday": {"close": "18:30", "open": "09:30"}, "Saturday": {"close": "14:00", "open": "10:00"}}, "open": true, "categories": ["Shopping", "Home & Garden"], "city": "Karlsruhe", "review_count": 3, "name": "printor", "neighborhoods": [], "longitude": 8.3900675, "state": "BW", "stars": 3.5, "latitude": 48.9952878, "attributes": {}, "type": "business"}
{"business_id": "wefS54RONhAHbY9CreX4Hw", "full_address": "Durlacher Allee 109\n76137 Karlsruhe", "hours": {"Monday": {"close": "19:00", "open": "10:00"}, "Tuesday": {"close": "19:00", "open": "10:00"}, "Friday": {"close": "19:00", "open": "10:00"}, "Wednesday": {"close": "19:00", "open": "10:00"}, "Thursday": {"close": "19:00", "open": "10:00"}, "Saturday": {"close": "19:00", "open": "10:00"}}, "open": true, "categories": ["Shopping", "Home & Garden", "Furniture Stores"], "city": "Karlsruhe", "review_count": 18, "name": "Xxxl Mann Mobilia", "neighborhoods": [], "longitude": 8.44425, "state": "BW", "stars": 3.0, "latitude": 49.004, "attributes": {"Take-out": false, "Good For": {"dessert": false, "latenight": false, "lunch": false, "dinner": false, "breakfast": false, "brunch": false}, "Parking": {"garage": false, "street": false, "validated": false, "lot": true, "valet": false}, "Delivery": false, "Wheelchair Accessible": true, "Outdoor Seating": false, "Attire": "casual", "Smoking": "no", "Accepts Credit Cards": true, "Good For Groups": true, "Price Range": 3}, "type": "business"}
{"business_id": "zzlpdQ2GPcXj7mo0lut3Vg", "full_address": "Ettlinger Tor\nEttlinger-Tor-Platz 1\n76133 Karlsruhe", "hours": {}, "open": true, "categories": ["Gift Shops", "Flowers & Gifts", "Shopping", "Home Decor", "Home & Garden"], "city": "Karlsruhe", "review_count": 3, "name": "Nanu-Nana", "neighborhoods": [], "longitude": 8.40208, "state": "BW", "stars": 5.0, "latitude": 49.0067, "attributes": {"Accepts Credit Cards": true, "Price Range": 3}, "type": "business"}
{"business_id": "tb7-JM1FYdITIQBWES7XRA", "full_address": "Benzstra\u00dfe 7 - 9\n76307 Karlsbad", "hours": {"Monday": {"close": "19:00", "open": "08:30"}, "Tuesday": {"close": "19:00", "open": "08:30"}, "Friday": {"close": "19:00", "open": "08:30"}, "Wednesday": {"close": "19:00", "open": "08:30"}, "Thursday": {"close": "19:00", "open": "08:30"}, "Saturday": {"close": "18:00", "open": "08:30"}}, "open": true, "categories": ["Hardware Stores", "Shopping", "Home & Garden"], "city": "Karlsbad", "review_count": 3, "name": "Profi Schroth Fachmarkt Center", "neighborhoods": [], "longitude": 8.50174, "state": "BW", "stars": 3.5, "latitude": 48.9201, "attributes": {"Accepts Credit Cards": true, "Price Range": 3}, "type": "business"}
{"business_id": "OMed9SgOJ4H1G5gqUn_umA", "full_address": "Ziegelstr. 1\n76185 Karlsruhe", "hours": {"Monday": {"close": "19:00", "open": "10:00"}, "Tuesday": {"close": "19:00", "open": "10:00"}, "Friday": {"close": "19:00", "open": "10:00"}, "Wednesday": {"close": "19:00", "open": "10:00"}, "Thursday": {"close": "21:00", "open": "10:00"}, "Sunday": {"close": "17:00", "open": "13:00"}, "Saturday": {"close": "18:00", "open": "10:00"}}, "open": true, "categories": ["Shopping", "Outlet Stores", "Home & Garden"], "city": "Karlsruhe", "review_count": 3, "name": "Outlet Store Gartenm\u00f6bel", "neighborhoods": [], "longitude": 8.3615657171232, "state": "BW", "stars": 4.5, "latitude": 49.006811427221, "attributes": {"Parking": {"garage": false, "validated": false, "street": false, "lot": false, "valet": false}, "Accepts Credit Cards": false, "Wheelchair Accessible": true, "Price Range": 3}, "type": "business"}
{"business_id": "zik3Lj994wNXYkYoK1PqKQ", "full_address": "Am Storrenacker 2\n76139 Karlsruhe", "hours": {"Monday": {"close": "20:00", "open": "10:00"}, "Tuesday": {"close": "20:00", "open": "10:00"}, "Friday": {"close": "20:00", "open": "10:00"}, "Wednesday": {"close": "20:00", "open": "10:00"}, "Thursday": {"close": "20:00", "open": "10:00"}, "Saturday": {"close": "19:00", "open": "09:00"}}, "open": true, "categories": ["Shopping", "Home Decor", "Home & Garden", "Furniture Stores"], "city": "Karlsruhe", "review_count": 7, "name": "M\u00f6max", "neighborhoods": [], "longitude": 8.45814, "state": "BW", "stars": 2.0, "latitude": 49.02025, "attributes": {"Parking": {"garage": false, "validated": false, "street": false, "lot": false, "valet": false}, "Wheelchair Accessible": false, "Price Range": 2}, "type": "business"}
{"business_id": "6G6T-7zxuPtAOLbt6SGwAg", "full_address": "K\u00e4ppelestr. 2\n76131 Karlsruhe", "hours": {}, "open": false, "categories": ["Hardware Stores", "Shopping", "Home Services", "Home & Garden"], "city": "Karlsruhe", "review_count": 9, "name": "Baumarkt Max Bahr GmbH & Co. KG", "neighborhoods": [], "longitude": 8.44044, "state": "BW", "stars": 3.0, "latitude": 49.00817, "attributes": {"Parking": {"garage": false, "validated": false, "street": false, "lot": false, "valet": false}, "Price Range": 2}, "type": "business"}
{"business_id": "eba6WF8cDN1TQ2_0rCkh4g", "full_address": "76131 Karlsruhe", "hours": {}, "open": true, "categories": ["Shopping", "Home & Garden", "Appliances"], "city": "Karlsruhe", "review_count": 4, "name": "Cafe Classico", "neighborhoods": [], "longitude": 8.4303821, "state": "BW", "stars": 4.5, "latitude": 49.0116951, "attributes": {"Parking": {"garage": false, "validated": false, "street": false, "lot": false, "valet": false}, "Accepts Credit Cards": false, "Price Range": 2}, "type": "business"}
{"business_id": "HN7n-Ms4X-sXn2Yz-pKgwA", "full_address": "Ettlinger-Tor-Platz 1\n76133 Karlsruhe", "hours": {}, "open": true, "categories": ["Shopping", "Home Decor", "Home & Garden"], "city": "Karlsruhe", "review_count": 4, "name": "Depot", "neighborhoods": [], "longitude": 8.40308, "state": "BW", "stars": 5.0, "latitude": 49.0059, "attributes": {}, "type": "business"}
{"business_id": "tbLeodBE9W6ozoDgYuXM7w", "full_address": "Karlstr. 1a\n76133 Karlsruhe", "hours": {"Monday": {"close": "19:00", "open": "10:00"}, "Tuesday": {"close": "19:00", "open": "10:00"}, "Friday": {"close": "19:00", "open": "10:00"}, "Wednesday": {"close": "19:00", "open": "10:00"}, "Thursday": {"close": "19:00", "open": "10:00"}, "Saturday": {"close": "17:00", "open": "10:00"}}, "open": true, "categories": ["Home & Garden", "Flowers & Gifts", "Shopping", "Home Decor", "Florists"], "city": "Karlsruhe", "review_count": 3, "name": "Thomas Seith", "neighborhoods": [], "longitude": 8.3954, "state": "BW", "stars": 5.0, "latitude": 49.0118, "attributes": {}, "type": "business"}
{"business_id": "ujc_1tzKrEEPMv9oOSF3wA", "full_address": "Ettlinger Tor Platz 1\n76133 Karlsruhe", "hours": {"Monday": {"close": "20:00", "open": "10:00"}, "Tuesday": {"close": "20:00", "open": "10:00"}, "Friday": {"close": "20:00", "open": "10:00"}, "Wednesday": {"close": "20:00", "open": "10:00"}, "Thursday": {"close": "22:00", "open": "10:00"}, "Saturday": {"close": "20:00", "open": "10:00"}}, "open": true, "categories": ["Electronics", "Computers", "Shopping", "Home & Garden", "Appliances"], "city": "Karlsruhe", "review_count": 11, "name": "Media Markt", "neighborhoods": [], "longitude": 8.40251955605882, "state": "BW", "stars": 2.0, "latitude": 49.0060805453703, "attributes": {"Parking": {"garage": false, "validated": false, "street": false, "lot": false, "valet": false}, "Accepts Credit Cards": true, "Price Range": 4}, "type": "business"}
