{"business_id": "NEYJeDUNiWVHJY2jQ8AbUA", "full_address": "Ottostr. 22\n76227 Karlsruhe", "hours": {}, "open": true, "categories": ["Auto Repair", "Automotive", "Car Rental", "Car Dealers", "Hotels & Travel"], "city": "Karlsruhe", "review_count": 4, "name": "Ungeheuer Automobile Bmw Vertragsh\u00e4ndler Autohaus", "neighborhoods": [], "longitude": 8.43545, "state": "BW", "stars": 1.0, "latitude": 48.9966, "attributes": {"Price Range": 4}, "type": "business"}
{"business_id": "HIZTPZ4tXvB_EbNh3DFFNQ", "full_address": "Ludwig-Wilhelm-Str. 15\n76131 Karlsruhe", "hours": {}, "open": true, "categories": ["Hotels & Travel", "Car Rental", "Automotive"], "city": "Karlsruhe", "review_count": 10, "name": "Stadtmobil CarSharing", "neighborhoods": [], "longitude": 8.42235, "state": "BW", "stars": 4.5, "latitude": 49.0095, "attributes": {"Price Range": 1}, "type": "business"}
{"business_id": "NEYJeDUNiWVHJY2jQ8AbUA", "full_address": "Ottostr. 22\n76227 Karlsruhe", "hours": {}, "open": true, "categories": ["Auto Repair", "Automotive", "Car Rental", "Car Dealers", "Hotels & Travel"], "city": "Karlsruhe", "review_count": 4, "name": "Ungeheuer Automobile Bmw Vertragsh\u00e4ndler Autohaus", "neighborhoods": [], "longitude": 8.43545, "state": "BW", "stars": 1.0, "latitude": 48.9966, "attributes": {"Price Range": 4}, "type": "business"}
{"business_id": "HIZTPZ4tXvB_EbNh3DFFNQ", "full_address": "Ludwig-Wilhelm-Str. 15\n76131 Karlsruhe", "hours": {}, "open": true, "categories": ["Hotels & Travel", "Car Rental", "Automotive"], "city": "Karlsruhe", "review_count": 10, "name": "Stadtmobil CarSharing", "neighborhoods": [], "longitude": 8.42235, "state": "BW", "stars": 4.5, "latitude": 49.0095, "attributes": {"Price Range": 1}, "type": "business"}
{"business_id": "NEYJeDUNiWVHJY2jQ8AbUA", "full_address": "Ottostr. 22\n76227 Karlsruhe", "hours": {}, "open": true, "categories": ["Auto Repair", "Automotive", "Car Rental", "Car Dealers", "Hotels & Travel"], "city": "Karlsruhe", "review_count": 4, "name": "Ungeheuer Automobile Bmw Vertragsh\u00e4ndler Autohaus", "neighborhoods": [], "longitude": 8.43545, "state": "BW", "stars": 1.0, "latitude": 48.9966, "attributes": {"Price Range": 4}, "type": "business"}
{"business_id": "HIZTPZ4tXvB_EbNh3DFFNQ", "full_address": "Ludwig-Wilhelm-Str. 15\n76131 Karlsruhe", "hours": {}, "open": true, "categories": ["Hotels & Travel", "Car Rental", "Automotive"], "city": "Karlsruhe", "review_count": 10, "name": "Stadtmobil CarSharing", "neighborhoods": [], "longitude": 8.42235, "state": "BW", "stars": 4.5, "latitude": 49.0095, "attributes": {"Price Range": 1}, "type": "business"}
{"business_id": "NEYJeDUNiWVHJY2jQ8AbUA", "full_address": "Ottostr. 22\n76227 Karlsruhe", "hours": {}, "open": true, "categories": ["Auto Repair", "Automotive", "Car Rental", "Car Dealers", "Hotels & Travel"], "city": "Karlsruhe", "review_count": 4, "name": "Ungeheuer Automobile Bmw Vertragsh\u00e4ndler Autohaus", "neighborhoods": [], "longitude": 8.43545, "state": "BW", "stars": 1.0, "latitude": 48.9966, "attributes": {"Price Range": 4}, "type": "business"}
{"business_id": "HIZTPZ4tXvB_EbNh3DFFNQ", "full_address": "Ludwig-Wilhelm-Str. 15\n76131 Karlsruhe", "hours": {}, "open": true, "categories": ["Hotels & Travel", "Car Rental", "Automotive"], "city": "Karlsruhe", "review_count": 10, "name": "Stadtmobil CarSharing", "neighborhoods": [], "longitude": 8.42235, "state": "BW", "stars": 4.5, "latitude": 49.0095, "attributes": {"Price Range": 1}, "type": "business"}
{"business_id": "NEYJeDUNiWVHJY2jQ8AbUA", "full_address": "Ottostr. 22\n76227 Karlsruhe", "hours": {}, "open": true, "categories": ["Auto Repair", "Automotive", "Car Rental", "Car Dealers", "Hotels & Travel"], "city": "Karlsruhe", "review_count": 4, "name": "Ungeheuer Automobile Bmw Vertragsh\u00e4ndler Autohaus", "neighborhoods": [], "longitude": 8.43545, "state": "BW", "stars": 1.0, "latitude": 48.9966, "attributes": {"Price Range": 4}, "type": "business"}
{"business_id": "HIZTPZ4tXvB_EbNh3DFFNQ", "full_address": "Ludwig-Wilhelm-Str. 15\n76131 Karlsruhe", "hours": {}, "open": true, "categories": ["Hotels & Travel", "Car Rental", "Automotive"], "city": "Karlsruhe", "review_count": 10, "name": "Stadtmobil CarSharing", "neighborhoods": [], "longitude": 8.42235, "state": "BW", "stars": 4.5, "latitude": 49.0095, "attributes": {"Price Range": 1}, "type": "business"}
{"business_id": "NEYJeDUNiWVHJY2jQ8AbUA", "full_address": "Ottostr. 22\n76227 Karlsruhe", "hours": {}, "open": true, "categories": ["Auto Repair", "Automotive", "Car Rental", "Car Dealers", "Hotels & Travel"], "city": "Karlsruhe", "review_count": 4, "name": "Ungeheuer Automobile Bmw Vertragsh\u00e4ndler Autohaus", "neighborhoods": [], "longitude": 8.43545, "state": "BW", "stars": 1.0, "latitude": 48.9966, "attributes": {"Price Range": 4}, "type": "business"}
{"business_id": "HIZTPZ4tXvB_EbNh3DFFNQ", "full_address": "Ludwig-Wilhelm-Str. 15\n76131 Karlsruhe", "hours": {}, "open": true, "categories": ["Hotels & Travel", "Car Rental", "Automotive"], "city": "Karlsruhe", "review_count": 10, "name": "Stadtmobil CarSharing", "neighborhoods": [], "longitude": 8.42235, "state": "BW", "stars": 4.5, "latitude": 49.0095, "attributes": {"Price Range": 1}, "type": "business"}
