{"business_id": "YEFiDsEOdEBbbQVgkIg8_g", "full_address": "Karlstr. 61\n76133 Karlsruhe", "hours": {"Monday": {"close": "18:00", "open": "08:30"}, "Friday": {"close": "18:00", "open": "08:30"}, "Wednesday": {"close": "18:00", "open": "08:30"}, "Thursday": {"close": "18:00", "open": "08:30"}, "Sunday": {"close": "18:00", "open": "10:00"}, "Saturday": {"close": "18:00", "open": "08:30"}}, "open": true, "categories": ["Food", "Desserts", "Specialty Food", "Chocolatiers & Shops"], "city": "Karlsruhe", "review_count": 11, "name": "Caf\u00e9 Brenner", "neighborhoods": [], "longitude": 8.39495, "state": "BW", "stars": 3.0, "latitude": 49.0031, "attributes": {"Take-out": true, "Price Range": 2, "Delivery": false, "Dogs Allowed": false, "Outdoor Seating": true, "Parking": {"garage": false, "validated": false, "street": false, "lot": false, "valet": false}, "Smoking": "outdoor", "Accepts Credit Cards": false, "Wheelchair Accessible": true}, "type": "business"}
{"business_id": "V2sfga9fwgmwpFELSWrQCw", "full_address": "Bahnhofstr. 5\n76356 Weingarten", "hours": {}, "open": true, "categories": ["Children's Clothing", "Fashion", "Shopping", "Food", "Chocolatiers & Shops", "Specialty Food"], "city": "Weingarten", "review_count": 4, "name": "La Casetta del Caff\u00e9", "neighborhoods": [], "longitude": 8.53132, "state": "BW", "stars": 4.0, "latitude": 49.0515, "attributes": {"Parking": {"garage": false, "validated": false, "street": false, "lot": false, "valet": false}, "Price Range": 1}, "type": "business"}
{"business_id": "l-pMt_YiLJXUGMeQOdtd_g", "full_address": "Werderstr.34\n76137 Karlsruhe", "hours": {}, "open": true, "categories": ["Food", "Specialty Food", "Coffee & Tea", "Desserts", "Chocolatiers & Shops"], "city": "Karlsruhe", "review_count": 7, "name": "Zuckerbecker", "neighborhoods": [], "longitude": 8.406358, "state": "BW", "stars": 5.0, "latitude": 49.0013779, "attributes": {"Price Range": 3}, "type": "business"}
{"business_id": "XJGMtkWT1d-SFYQlkYOXJA", "full_address": "Kaiserstra\u00dfe 223 223c\nSparkassengeb\u00e4ude\n76133 Karlsruhe", "hours": {"Monday": {"close": "19:00", "open": "10:00"}, "Tuesday": {"close": "19:00", "open": "10:00"}, "Friday": {"close": "19:00", "open": "10:00"}, "Wednesday": {"close": "19:00", "open": "10:00"}, "Thursday": {"close": "19:00", "open": "10:00"}, "Saturday": {"close": "18:00", "open": "10:00"}}, "open": true, "categories": ["Food", "Specialty Food", "Chocolatiers & Shops"], "city": "Karlsruhe", "review_count": 4, "name": "Gummi-B\u00e4ren-Land", "neighborhoods": [], "longitude": 8.393843, "state": "BW", "stars": 5.0, "latitude": 49.0067498, "attributes": {"Parking": {"garage": false, "validated": false, "street": false, "lot": false, "valet": false}, "Wheelchair Accessible": true, "Price Range": 1}, "type": "business"}
{"business_id": "k3anEHyapYdF6w8AlGYTzA", "full_address": "Kaiserstr. 82\n76133 Karlsruhe", "hours": {}, "open": true, "categories": ["Food", "Specialty Food", "Chocolatiers & Shops"], "city": "Karlsruhe", "review_count": 3, "name": "L\u00e4derach", "neighborhoods": [], "longitude": 8.40318, "state": "BW", "stars": 3.5, "latitude": 49.0097, "attributes": {"Price Range": 4}, "type": "business"}
{"business_id": "4yesmwc2ySsEetCAcDvv4Q", "full_address": "Hebelstr. 21\n76133 Karlsruhe", "hours": {}, "open": true, "categories": ["Food", "Specialty Food", "Chocolatiers & Shops"], "city": "Karlsruhe", "review_count": 4, "name": "Pralina", "neighborhoods": [], "longitude": 8.40257, "state": "BW", "stars": 5.0, "latitude": 49.0082, "attributes": {"Price Range": 3}, "type": "business"}
{"business_id": "YEFiDsEOdEBbbQVgkIg8_g", "full_address": "Karlstr. 61\n76133 Karlsruhe", "hours": {"Monday": {"close": "18:00", "open": "08:30"}, "Friday": {"close": "18:00", "open": "08:30"}, "Wednesday": {"close": "18:00", "open": "08:30"}, "Thursday": {"close": "18:00", "open": "08:30"}, "Sunday": {"close": "18:00", "open": "10:00"}, "Saturday": {"close": "18:00", "open": "08:30"}}, "open": true, "categories": ["Food", "Desserts", "Specialty Food", "Chocolatiers & Shops"], "city": "Karlsruhe", "review_count": 11, "name": "Caf\u00e9 Brenner", "neighborhoods": [], "longitude": 8.39495, "state": "BW", "stars": 3.0, "latitude": 49.0031, "attributes": {"Take-out": true, "Price Range": 2, "Delivery": false, "Dogs Allowed": false, "Outdoor Seating": true, "Parking": {"garage": false, "validated": false, "street": false, "lot": false, "valet": false}, "Smoking": "outdoor", "Accepts Credit Cards": false, "Wheelchair Accessible": true}, "type": "business"}
{"business_id": "V2sfga9fwgmwpFELSWrQCw", "full_address": "Bahnhofstr. 5\n76356 Weingarten", "hours": {}, "open": true, "categories": ["Children's Clothing", "Fashion", "Shopping", "Food", "Chocolatiers & Shops", "Specialty Food"], "city": "Weingarten", "review_count": 4, "name": "La Casetta del Caff\u00e9", "neighborhoods": [], "longitude": 8.53132, "state": "BW", "stars": 4.0, "latitude": 49.0515, "attributes": {"Parking": {"garage": false, "validated": false, "street": false, "lot": false, "valet": false}, "Price Range": 1}, "type": "business"}
{"business_id": "l-pMt_YiLJXUGMeQOdtd_g", "full_address": "Werderstr.34\n76137 Karlsruhe", "hours": {}, "open": true, "categories": ["Food", "Specialty Food", "Coffee & Tea", "Desserts", "Chocolatiers & Shops"], "city": "Karlsruhe", "review_count": 7, "name": "Zuckerbecker", "neighborhoods": [], "longitude": 8.406358, "state": "BW", "stars": 5.0, "latitude": 49.0013779, "attributes": {"Price Range": 3}, "type": "business"}
{"business_id": "XJGMtkWT1d-SFYQlkYOXJA", "full_address": "Kaiserstra\u00dfe 223 223c\nSparkassengeb\u00e4ude\n76133 Karlsruhe", "hours": {"Monday": {"close": "19:00", "open": "10:00"}, "Tuesday": {"close": "19:00", "open": "10:00"}, "Friday": {"close": "19:00", "open": "10:00"}, "Wednesday": {"close": "19:00", "open": "10:00"}, "Thursday": {"close": "19:00", "open": "10:00"}, "Saturday": {"close": "18:00", "open": "10:00"}}, "open": true, "categories": ["Food", "Specialty Food", "Chocolatiers & Shops"], "city": "Karlsruhe", "review_count": 4, "name": "Gummi-B\u00e4ren-Land", "neighborhoods": [], "longitude": 8.393843, "state": "BW", "stars": 5.0, "latitude": 49.0067498, "attributes": {"Parking": {"garage": false, "validated": false, "street": false, "lot": false, "valet": false}, "Wheelchair Accessible": true, "Price Range": 1}, "type": "business"}
{"business_id": "k3anEHyapYdF6w8AlGYTzA", "full_address": "Kaiserstr. 82\n76133 Karlsruhe", "hours": {}, "open": true, "categories": ["Food", "Specialty Food", "Chocolatiers & Shops"], "city": "Karlsruhe", "review_count": 3, "name": "L\u00e4derach", "neighborhoods": [], "longitude": 8.40318, "state": "BW", "stars": 3.5, "latitude": 49.0097, "attributes": {"Price Range": 4}, "type": "business"}
{"business_id": "4yesmwc2ySsEetCAcDvv4Q", "full_address": "Hebelstr. 21\n76133 Karlsruhe", "hours": {}, "open": true, "categories": ["Food", "Specialty Food", "Chocolatiers & Shops"], "city": "Karlsruhe", "review_count": 4, "name": "Pralina", "neighborhoods": [], "longitude": 8.40257, "state": "BW", "stars": 5.0, "latitude": 49.0082, "attributes": {"Price Range": 3}, "type": "business"}
{"business_id": "YEFiDsEOdEBbbQVgkIg8_g", "full_address": "Karlstr. 61\n76133 Karlsruhe", "hours": {"Monday": {"close": "18:00", "open": "08:30"}, "Friday": {"close": "18:00", "open": "08:30"}, "Wednesday": {"close": "18:00", "open": "08:30"}, "Thursday": {"close": "18:00", "open": "08:30"}, "Sunday": {"close": "18:00", "open": "10:00"}, "Saturday": {"close": "18:00", "open": "08:30"}}, "open": true, "categories": ["Food", "Desserts", "Specialty Food", "Chocolatiers & Shops"], "city": "Karlsruhe", "review_count": 11, "name": "Caf\u00e9 Brenner", "neighborhoods": [], "longitude": 8.39495, "state": "BW", "stars": 3.0, "latitude": 49.0031, "attributes": {"Take-out": true, "Price Range": 2, "Delivery": false, "Dogs Allowed": false, "Outdoor Seating": true, "Parking": {"garage": false, "validated": false, "street": false, "lot": false, "valet": false}, "Smoking": "outdoor", "Accepts Credit Cards": false, "Wheelchair Accessible": true}, "type": "business"}
{"business_id": "V2sfga9fwgmwpFELSWrQCw", "full_address": "Bahnhofstr. 5\n76356 Weingarten", "hours": {}, "open": true, "categories": ["Children's Clothing", "Fashion", "Shopping", "Food", "Chocolatiers & Shops", "Specialty Food"], "city": "Weingarten", "review_count": 4, "name": "La Casetta del Caff\u00e9", "neighborhoods": [], "longitude": 8.53132, "state": "BW", "stars": 4.0, "latitude": 49.0515, "attributes": {"Parking": {"garage": false, "validated": false, "street": false, "lot": false, "valet": false}, "Price Range": 1}, "type": "business"}
{"business_id": "l-pMt_YiLJXUGMeQOdtd_g", "full_address": "Werderstr.34\n76137 Karlsruhe", "hours": {}, "open": true, "categories": ["Food", "Specialty Food", "Coffee & Tea", "Desserts", "Chocolatiers & Shops"], "city": "Karlsruhe", "review_count": 7, "name": "Zuckerbecker", "neighborhoods": [], "longitude": 8.406358, "state": "BW", "stars": 5.0, "latitude": 49.0013779, "attributes": {"Price Range": 3}, "type": "business"}
{"business_id": "XJGMtkWT1d-SFYQlkYOXJA", "full_address": "Kaiserstra\u00dfe 223 223c\nSparkassengeb\u00e4ude\n76133 Karlsruhe", "hours": {"Monday": {"close": "19:00", "open": "10:00"}, "Tuesday": {"close": "19:00", "open": "10:00"}, "Friday": {"close": "19:00", "open": "10:00"}, "Wednesday": {"close": "19:00", "open": "10:00"}, "Thursday": {"close": "19:00", "open": "10:00"}, "Saturday": {"close": "18:00", "open": "10:00"}}, "open": true, "categories": ["Food", "Specialty Food", "Chocolatiers & Shops"], "city": "Karlsruhe", "review_count": 4, "name": "Gummi-B\u00e4ren-Land", "neighborhoods": [], "longitude": 8.393843, "state": "BW", "stars": 5.0, "latitude": 49.0067498, "attributes": {"Parking": {"garage": false, "validated": false, "street": false, "lot": false, "valet": false}, "Wheelchair Accessible": true, "Price Range": 1}, "type": "business"}
{"business_id": "k3anEHyapYdF6w8AlGYTzA", "full_address": "Kaiserstr. 82\n76133 Karlsruhe", "hours": {}, "open": true, "categories": ["Food", "Specialty Food", "Chocolatiers & Shops"], "city": "Karlsruhe", "review_count": 3, "name": "L\u00e4derach", "neighborhoods": [], "longitude": 8.40318, "state": "BW", "stars": 3.5, "latitude": 49.0097, "attributes": {"Price Range": 4}, "type": "business"}
{"business_id": "4yesmwc2ySsEetCAcDvv4Q", "full_address": "Hebelstr. 21\n76133 Karlsruhe", "hours": {}, "open": true, "categories": ["Food", "Specialty Food", "Chocolatiers & Shops"], "city": "Karlsruhe", "review_count": 4, "name": "Pralina", "neighborhoods": [], "longitude": 8.40257, "state": "BW", "stars": 5.0, "latitude": 49.0082, "attributes": {"Price Range": 3}, "type": "business"}
{"business_id": "YEFiDsEOdEBbbQVgkIg8_g", "full_address": "Karlstr. 61\n76133 Karlsruhe", "hours": {"Monday": {"close": "18:00", "open": "08:30"}, "Friday": {"close": "18:00", "open": "08:30"}, "Wednesday": {"close": "18:00", "open": "08:30"}, "Thursday": {"close": "18:00", "open": "08:30"}, "Sunday": {"close": "18:00", "open": "10:00"}, "Saturday": {"close": "18:00", "open": "08:30"}}, "open": true, "categories": ["Food", "Desserts", "Specialty Food", "Chocolatiers & Shops"], "city": "Karlsruhe", "review_count": 11, "name": "Caf\u00e9 Brenner", "neighborhoods": [], "longitude": 8.39495, "state": "BW", "stars": 3.0, "latitude": 49.0031, "attributes": {"Take-out": true, "Price Range": 2, "Delivery": false, "Dogs Allowed": false, "Outdoor Seating": true, "Parking": {"garage": false, "validated": false, "street": false, "lot": false, "valet": false}, "Smoking": "outdoor", "Accepts Credit Cards": false, "Wheelchair Accessible": true}, "type": "business"}
{"business_id": "V2sfga9fwgmwpFELSWrQCw", "full_address": "Bahnhofstr. 5\n76356 Weingarten", "hours": {}, "open": true, "categories": ["Children's Clothing", "Fashion", "Shopping", "Food", "Chocolatiers & Shops", "Specialty Food"], "city": "Weingarten", "review_count": 4, "name": "La Casetta del Caff\u00e9", "neighborhoods": [], "longitude": 8.53132, "state": "BW", "stars": 4.0, "latitude": 49.0515, "attributes": {"Parking": {"garage": false, "validated": false, "street": false, "lot": false, "valet": false}, "Price Range": 1}, "type": "business"}
{"business_id": "l-pMt_YiLJXUGMeQOdtd_g", "full_address": "Werderstr.34\n76137 Karlsruhe", "hours": {}, "open": true, "categories": ["Food", "Specialty Food", "Coffee & Tea", "Desserts", "Chocolatiers & Shops"], "city": "Karlsruhe", "review_count": 7, "name": "Zuckerbecker", "neighborhoods": [], "longitude": 8.406358, "state": "BW", "stars": 5.0, "latitude": 49.0013779, "attributes": {"Price Range": 3}, "type": "business"}
{"business_id": "XJGMtkWT1d-SFYQlkYOXJA", "full_address": "Kaiserstra\u00dfe 223 223c\nSparkassengeb\u00e4ude\n76133 Karlsruhe", "hours": {"Monday": {"close": "19:00", "open": "10:00"}, "Tuesday": {"close": "19:00", "open": "10:00"}, "Friday": {"close": "19:00", "open": "10:00"}, "Wednesday": {"close": "19:00", "open": "10:00"}, "Thursday": {"close": "19:00", "open": "10:00"}, "Saturday": {"close": "18:00", "open": "10:00"}}, "open": true, "categories": ["Food", "Specialty Food", "Chocolatiers & Shops"], "city": "Karlsruhe", "review_count": 4, "name": "Gummi-B\u00e4ren-Land", "neighborhoods": [], "longitude": 8.393843, "state": "BW", "stars": 5.0, "latitude": 49.0067498, "attributes": {"Parking": {"garage": false, "validated": false, "street": false, "lot": false, "valet": false}, "Wheelchair Accessible": true, "Price Range": 1}, "type": "business"}
{"business_id": "k3anEHyapYdF6w8AlGYTzA", "full_address": "Kaiserstr. 82\n76133 Karlsruhe", "hours": {}, "open": true, "categories": ["Food", "Specialty Food", "Chocolatiers & Shops"], "city": "Karlsruhe", "review_count": 3, "name": "L\u00e4derach", "neighborhoods": [], "longitude": 8.40318, "state": "BW", "stars": 3.5, "latitude": 49.0097, "attributes": {"Price Range": 4}, "type": "business"}
{"business_id": "4yesmwc2ySsEetCAcDvv4Q", "full_address": "Hebelstr. 21\n76133 Karlsruhe", "hours": {}, "open": true, "categories": ["Food", "Specialty Food", "Chocolatiers & Shops"], "city": "Karlsruhe", "review_count": 4, "name": "Pralina", "neighborhoods": [], "longitude": 8.40257, "state": "BW", "stars": 5.0, "latitude": 49.0082, "attributes": {"Price Range": 3}, "type": "business"}
{"business_id": "YEFiDsEOdEBbbQVgkIg8_g", "full_address": "Karlstr. 61\n76133 Karlsruhe", "hours": {"Monday": {"close": "18:00", "open": "08:30"}, "Friday": {"close": "18:00", "open": "08:30"}, "Wednesday": {"close": "18:00", "open": "08:30"}, "Thursday": {"close": "18:00", "open": "08:30"}, "Sunday": {"close": "18:00", "open": "10:00"}, "Saturday": {"close": "18:00", "open": "08:30"}}, "open": true, "categories": ["Food", "Desserts", "Specialty Food", "Chocolatiers & Shops"], "city": "Karlsruhe", "review_count": 11, "name": "Caf\u00e9 Brenner", "neighborhoods": [], "longitude": 8.39495, "state": "BW", "stars": 3.0, "latitude": 49.0031, "attributes": {"Take-out": true, "Price Range": 2, "Delivery": false, "Dogs Allowed": false, "Outdoor Seating": true, "Parking": {"garage": false, "validated": false, "street": false, "lot": false, "valet": false}, "Smoking": "outdoor", "Accepts Credit Cards": false, "Wheelchair Accessible": true}, "type": "business"}
{"business_id": "V2sfga9fwgmwpFELSWrQCw", "full_address": "Bahnhofstr. 5\n76356 Weingarten", "hours": {}, "open": true, "categories": ["Children's Clothing", "Fashion", "Shopping", "Food", "Chocolatiers & Shops", "Specialty Food"], "city": "Weingarten", "review_count": 4, "name": "La Casetta del Caff\u00e9", "neighborhoods": [], "longitude": 8.53132, "state": "BW", "stars": 4.0, "latitude": 49.0515, "attributes": {"Parking": {"garage": false, "validated": false, "street": false, "lot": false, "valet": false}, "Price Range": 1}, "type": "business"}
{"business_id": "l-pMt_YiLJXUGMeQOdtd_g", "full_address": "Werderstr.34\n76137 Karlsruhe", "hours": {}, "open": true, "categories": ["Food", "Specialty Food", "Coffee & Tea", "Desserts", "Chocolatiers & Shops"], "city": "Karlsruhe", "review_count": 7, "name": "Zuckerbecker", "neighborhoods": [], "longitude": 8.406358, "state": "BW", "stars": 5.0, "latitude": 49.0013779, "attributes": {"Price Range": 3}, "type": "business"}
{"business_id": "XJGMtkWT1d-SFYQlkYOXJA", "full_address": "Kaiserstra\u00dfe 223 223c\nSparkassengeb\u00e4ude\n76133 Karlsruhe", "hours": {"Monday": {"close": "19:00", "open": "10:00"}, "Tuesday": {"close": "19:00", "open": "10:00"}, "Friday": {"close": "19:00", "open": "10:00"}, "Wednesday": {"close": "19:00", "open": "10:00"}, "Thursday": {"close": "19:00", "open": "10:00"}, "Saturday": {"close": "18:00", "open": "10:00"}}, "open": true, "categories": ["Food", "Specialty Food", "Chocolatiers & Shops"], "city": "Karlsruhe", "review_count": 4, "name": "Gummi-B\u00e4ren-Land", "neighborhoods": [], "longitude": 8.393843, "state": "BW", "stars": 5.0, "latitude": 49.0067498, "attributes": {"Parking": {"garage": false, "validated": false, "street": false, "lot": false, "valet": false}, "Wheelchair Accessible": true, "Price Range": 1}, "type": "business"}
{"business_id": "k3anEHyapYdF6w8AlGYTzA", "full_address": "Kaiserstr. 82\n76133 Karlsruhe", "hours": {}, "open": true, "categories": ["Food", "Specialty Food", "Chocolatiers & Shops"], "city": "Karlsruhe", "review_count": 3, "name": "L\u00e4derach", "neighborhoods": [], "longitude": 8.40318, "state": "BW", "stars": 3.5, "latitude": 49.0097, "attributes": {"Price Range": 4}, "type": "business"}
{"business_id": "4yesmwc2ySsEetCAcDvv4Q", "full_address": "Hebelstr. 21\n76133 Karlsruhe", "hours": {}, "open": true, "categories": ["Food", "Specialty Food", "Chocolatiers & Shops"], "city": "Karlsruhe", "review_count": 4, "name": "Pralina", "neighborhoods": [], "longitude": 8.40257, "state": "BW", "stars": 5.0, "latitude": 49.0082, "attributes": {"Price Range": 3}, "type": "business"}
{"business_id": "YEFiDsEOdEBbbQVgkIg8_g", "full_address": "Karlstr. 61\n76133 Karlsruhe", "hours": {"Monday": {"close": "18:00", "open": "08:30"}, "Friday": {"close": "18:00", "open": "08:30"}, "Wednesday": {"close": "18:00", "open": "08:30"}, "Thursday": {"close": "18:00", "open": "08:30"}, "Sunday": {"close": "18:00", "open": "10:00"}, "Saturday": {"close": "18:00", "open": "08:30"}}, "open": true, "categories": ["Food", "Desserts", "Specialty Food", "Chocolatiers & Shops"], "city": "Karlsruhe", "review_count": 11, "name": "Caf\u00e9 Brenner", "neighborhoods": [], "longitude": 8.39495, "state": "BW", "stars": 3.0, "latitude": 49.0031, "attributes": {"Take-out": true, "Price Range": 2, "Delivery": false, "Dogs Allowed": false, "Outdoor Seating": true, "Parking": {"garage": false, "validated": false, "street": false, "lot": false, "valet": false}, "Smoking": "outdoor", "Accepts Credit Cards": false, "Wheelchair Accessible": true}, "type": "business"}
{"business_id": "V2sfga9fwgmwpFELSWrQCw", "full_address": "Bahnhofstr. 5\n76356 Weingarten", "hours": {}, "open": true, "categories": ["Children's Clothing", "Fashion", "Shopping", "Food", "Chocolatiers & Shops", "Specialty Food"], "city": "Weingarten", "review_count": 4, "name": "La Casetta del Caff\u00e9", "neighborhoods": [], "longitude": 8.53132, "state": "BW", "stars": 4.0, "latitude": 49.0515, "attributes": {"Parking": {"garage": false, "validated": false, "street": false, "lot": false, "valet": false}, "Price Range": 1}, "type": "business"}
{"business_id": "l-pMt_YiLJXUGMeQOdtd_g", "full_address": "Werderstr.34\n76137 Karlsruhe", "hours": {}, "open": true, "categories": ["Food", "Specialty Food", "Coffee & Tea", "Desserts", "Chocolatiers & Shops"], "city": "Karlsruhe", "review_count": 7, "name": "Zuckerbecker", "neighborhoods": [], "longitude": 8.406358, "state": "BW", "stars": 5.0, "latitude": 49.0013779, "attributes": {"Price Range": 3}, "type": "business"}
{"business_id": "XJGMtkWT1d-SFYQlkYOXJA", "full_address": "Kaiserstra\u00dfe 223 223c\nSparkassengeb\u00e4ude\n76133 Karlsruhe", "hours": {"Monday": {"close": "19:00", "open": "10:00"}, "Tuesday": {"close": "19:00", "open": "10:00"}, "Friday": {"close": "19:00", "open": "10:00"}, "Wednesday": {"close": "19:00", "open": "10:00"}, "Thursday": {"close": "19:00", "open": "10:00"}, "Saturday": {"close": "18:00", "open": "10:00"}}, "open": true, "categories": ["Food", "Specialty Food", "Chocolatiers & Shops"], "city": "Karlsruhe", "review_count": 4, "name": "Gummi-B\u00e4ren-Land", "neighborhoods": [], "longitude": 8.393843, "state": "BW", "stars": 5.0, "latitude": 49.0067498, "attributes": {"Parking": {"garage": false, "validated": false, "street": false, "lot": false, "valet": false}, "Wheelchair Accessible": true, "Price Range": 1}, "type": "business"}
{"business_id": "k3anEHyapYdF6w8AlGYTzA", "full_address": "Kaiserstr. 82\n76133 Karlsruhe", "hours": {}, "open": true, "categories": ["Food", "Specialty Food", "Chocolatiers & Shops"], "city": "Karlsruhe", "review_count": 3, "name": "L\u00e4derach", "neighborhoods": [], "longitude": 8.40318, "state": "BW", "stars": 3.5, "latitude": 49.0097, "attributes": {"Price Range": 4}, "type": "business"}
{"business_id": "4yesmwc2ySsEetCAcDvv4Q", "full_address": "Hebelstr. 21\n76133 Karlsruhe", "hours": {}, "open": true, "categories": ["Food", "Specialty Food", "Chocolatiers & Shops"], "city": "Karlsruhe", "review_count": 4, "name": "Pralina", "neighborhoods": [], "longitude": 8.40257, "state": "BW", "stars": 5.0, "latitude": 49.0082, "attributes": {"Price Range": 3}, "type": "business"}
