{"business_id": "7VVJwBvw0NG-LCKZ_EuCoA", "full_address": "Hans-Thoma-Str. 2-6\n76133 Karlsruhe", "hours": {}, "open": true, "categories": ["Museums", "Arts & Entertainment"], "city": "Karlsruhe", "review_count": 8, "name": "Staatliche Kunsthalle Karlsruhe", "neighborhoods": [], "longitude": 8.4002493, "state": "BW", "stars": 5.0, "latitude": 49.0115823, "attributes": {"Good for Kids": true, "Parking": {"garage": false, "validated": false, "street": false, "lot": false, "valet": false}}, "type": "business"}
{"business_id": "I_Xw9RZ01FB_7MetXIlrfw", "full_address": "Erbprinzenstra\u00dfe  13\n73133 Karlsruhe", "hours": {}, "open": true, "categories": ["Museums", "Arts & Entertainment"], "city": "Karlsruhe", "review_count": 6, "name": "Staatliches Museum f\u00fcr Naturkunde", "neighborhoods": [], "longitude": 8.4007324, "state": "BW", "stars": 4.5, "latitude": 49.0078044, "attributes": {"Wheelchair Accessible": true, "Parking": {"garage": false, "validated": false, "street": false, "lot": false, "valet": false}}, "type": "business"}
{"business_id": "HE5iuNFpQ1uKs1KuzLgQow", "full_address": "Schlo\u00dfbezirk 10\nSchloss\n76131 Karlsruhe", "hours": {}, "open": true, "categories": ["Museums", "Arts & Entertainment"], "city": "Karlsruhe", "review_count": 6, "name": "Badisches Landesmuseum", "neighborhoods": [], "longitude": 8.4043185, "state": "BW", "stars": 5.0, "latitude": 49.0134235, "attributes": {"Wheelchair Accessible": true, "Good for Kids": true, "Price Range": 4}, "type": "business"}
{"business_id": "-czvRRDB6tTlo6HUzBTMwg", "full_address": "Ahaweg 6\n76131 Karlsruhe", "hours": {}, "open": true, "categories": ["Museums", "Arts & Entertainment", "Shopping", "Home Services", "Home & Garden", "Painters", "Home Decor"], "city": "Karlsruhe", "review_count": 4, "name": "Staatliche Majolika Manufaktur Karlsruhe", "neighborhoods": [], "longitude": 8.4023623, "state": "BW", "stars": 3.5, "latitude": 49.0177377, "attributes": {"Parking": {"garage": false, "street": false, "validated": false, "lot": false, "valet": false}, "Accepts Credit Cards": true, "Good for Kids": false, "Price Range": 4}, "type": "business"}
{"business_id": "byFsjYzzttWh6DLptWx_fg", "full_address": "Lorenzstr. 19\n76135 Karlsruhe", "hours": {"Sunday": {"close": "18:00", "open": "11:00"}, "Friday": {"close": "18:00", "open": "10:00"}, "Wednesday": {"close": "18:00", "open": "10:00"}, "Thursday": {"close": "18:00", "open": "10:00"}, "Saturday": {"close": "18:00", "open": "11:00"}}, "open": true, "categories": ["Museums", "Arts & Entertainment"], "city": "Karlsruhe", "review_count": 27, "name": "ZkM | Zentrum f\u00fcr Kunst und Medientechnologie", "neighborhoods": [], "longitude": 8.3831, "state": "BW", "stars": 4.5, "latitude": 49.0018, "attributes": {"Price Range": 2, "Parking": {"garage": true, "street": false, "validated": false, "lot": false, "valet": false}, "By Appointment Only": false, "Accepts Credit Cards": true, "Good for Kids": true, "Wheelchair Accessible": true}, "type": "business"}
{"business_id": "XlytpM7Y7EIMrqy3gK2xjg", "full_address": "Schlossbezirk 10\n76131 Karlsruhe", "hours": {}, "open": true, "categories": ["Castles", "Museums", "Arts & Entertainment"], "city": "Karlsruhe", "review_count": 5, "name": "Schloss Karlsruhe", "neighborhoods": [], "longitude": 8.404352, "state": "BW", "stars": 4.5, "latitude": 49.013532, "attributes": {"Good for Kids": true, "Price Range": 1}, "type": "business"}
{"business_id": "7VVJwBvw0NG-LCKZ_EuCoA", "full_address": "Hans-Thoma-Str. 2-6\n76133 Karlsruhe", "hours": {}, "open": true, "categories": ["Museums", "Arts & Entertainment"], "city": "Karlsruhe", "review_count": 8, "name": "Staatliche Kunsthalle Karlsruhe", "neighborhoods": [], "longitude": 8.4002493, "state": "BW", "stars": 5.0, "latitude": 49.0115823, "attributes": {"Good for Kids": true, "Parking": {"garage": false, "validated": false, "street": false, "lot": false, "valet": false}}, "type": "business"}
{"business_id": "I_Xw9RZ01FB_7MetXIlrfw", "full_address": "Erbprinzenstra\u00dfe  13\n73133 Karlsruhe", "hours": {}, "open": true, "categories": ["Museums", "Arts & Entertainment"], "city": "Karlsruhe", "review_count": 6, "name": "Staatliches Museum f\u00fcr Naturkunde", "neighborhoods": [], "longitude": 8.4007324, "state": "BW", "stars": 4.5, "latitude": 49.0078044, "attributes": {"Wheelchair Accessible": true, "Parking": {"garage": false, "validated": false, "street": false, "lot": false, "valet": false}}, "type": "business"}
{"business_id": "HE5iuNFpQ1uKs1KuzLgQow", "full_address": "Schlo\u00dfbezirk 10\nSchloss\n76131 Karlsruhe", "hours": {}, "open": true, "categories": ["Museums", "Arts & Entertainment"], "city": "Karlsruhe", "review_count": 6, "name": "Badisches Landesmuseum", "neighborhoods": [], "longitude": 8.4043185, "state": "BW", "stars": 5.0, "latitude": 49.0134235, "attributes": {"Wheelchair Accessible": true, "Good for Kids": true, "Price Range": 4}, "type": "business"}
{"business_id": "-czvRRDB6tTlo6HUzBTMwg", "full_address": "Ahaweg 6\n76131 Karlsruhe", "hours": {}, "open": true, "categories": ["Museums", "Arts & Entertainment", "Shopping", "Home Services", "Home & Garden", "Painters", "Home Decor"], "city": "Karlsruhe", "review_count": 4, "name": "Staatliche Majolika Manufaktur Karlsruhe", "neighborhoods": [], "longitude": 8.4023623, "state": "BW", "stars": 3.5, "latitude": 49.0177377, "attributes": {"Parking": {"garage": false, "street": false, "validated": false, "lot": false, "valet": false}, "Accepts Credit Cards": true, "Good for Kids": false, "Price Range": 4}, "type": "business"}
{"business_id": "byFsjYzzttWh6DLptWx_fg", "full_address": "Lorenzstr. 19\n76135 Karlsruhe", "hours": {"Sunday": {"close": "18:00", "open": "11:00"}, "Friday": {"close": "18:00", "open": "10:00"}, "Wednesday": {"close": "18:00", "open": "10:00"}, "Thursday": {"close": "18:00", "open": "10:00"}, "Saturday": {"close": "18:00", "open": "11:00"}}, "open": true, "categories": ["Museums", "Arts & Entertainment"], "city": "Karlsruhe", "review_count": 27, "name": "ZkM | Zentrum f\u00fcr Kunst und Medientechnologie", "neighborhoods": [], "longitude": 8.3831, "state": "BW", "stars": 4.5, "latitude": 49.0018, "attributes": {"Price Range": 2, "Parking": {"garage": true, "street": false, "validated": false, "lot": false, "valet": false}, "By Appointment Only": false, "Accepts Credit Cards": true, "Good for Kids": true, "Wheelchair Accessible": true}, "type": "business"}
{"business_id": "XlytpM7Y7EIMrqy3gK2xjg", "full_address": "Schlossbezirk 10\n76131 Karlsruhe", "hours": {}, "open": true, "categories": ["Castles", "Museums", "Arts & Entertainment"], "city": "Karlsruhe", "review_count": 5, "name": "Schloss Karlsruhe", "neighborhoods": [], "longitude": 8.404352, "state": "BW", "stars": 4.5, "latitude": 49.013532, "attributes": {"Good for Kids": true, "Price Range": 1}, "type": "business"}
{"business_id": "7VVJwBvw0NG-LCKZ_EuCoA", "full_address": "Hans-Thoma-Str. 2-6\n76133 Karlsruhe", "hours": {}, "open": true, "categories": ["Museums", "Arts & Entertainment"], "city": "Karlsruhe", "review_count": 8, "name": "Staatliche Kunsthalle Karlsruhe", "neighborhoods": [], "longitude": 8.4002493, "state": "BW", "stars": 5.0, "latitude": 49.0115823, "attributes": {"Good for Kids": true, "Parking": {"garage": false, "validated": false, "street": false, "lot": false, "valet": false}}, "type": "business"}
{"business_id": "I_Xw9RZ01FB_7MetXIlrfw", "full_address": "Erbprinzenstra\u00dfe  13\n73133 Karlsruhe", "hours": {}, "open": true, "categories": ["Museums", "Arts & Entertainment"], "city": "Karlsruhe", "review_count": 6, "name": "Staatliches Museum f\u00fcr Naturkunde", "neighborhoods": [], "longitude": 8.4007324, "state": "BW", "stars": 4.5, "latitude": 49.0078044, "attributes": {"Wheelchair Accessible": true, "Parking": {"garage": false, "validated": false, "street": false, "lot": false, "valet": false}}, "type": "business"}
{"business_id": "HE5iuNFpQ1uKs1KuzLgQow", "full_address": "Schlo\u00dfbezirk 10\nSchloss\n76131 Karlsruhe", "hours": {}, "open": true, "categories": ["Museums", "Arts & Entertainment"], "city": "Karlsruhe", "review_count": 6, "name": "Badisches Landesmuseum", "neighborhoods": [], "longitude": 8.4043185, "state": "BW", "stars": 5.0, "latitude": 49.0134235, "attributes": {"Wheelchair Accessible": true, "Good for Kids": true, "Price Range": 4}, "type": "business"}
{"business_id": "-czvRRDB6tTlo6HUzBTMwg", "full_address": "Ahaweg 6\n76131 Karlsruhe", "hours": {}, "open": true, "categories": ["Museums", "Arts & Entertainment", "Shopping", "Home Services", "Home & Garden", "Painters", "Home Decor"], "city": "Karlsruhe", "review_count": 4, "name": "Staatliche Majolika Manufaktur Karlsruhe", "neighborhoods": [], "longitude": 8.4023623, "state": "BW", "stars": 3.5, "latitude": 49.0177377, "attributes": {"Parking": {"garage": false, "street": false, "validated": false, "lot": false, "valet": false}, "Accepts Credit Cards": true, "Good for Kids": false, "Price Range": 4}, "type": "business"}
{"business_id": "byFsjYzzttWh6DLptWx_fg", "full_address": "Lorenzstr. 19\n76135 Karlsruhe", "hours": {"Sunday": {"close": "18:00", "open": "11:00"}, "Friday": {"close": "18:00", "open": "10:00"}, "Wednesday": {"close": "18:00", "open": "10:00"}, "Thursday": {"close": "18:00", "open": "10:00"}, "Saturday": {"close": "18:00", "open": "11:00"}}, "open": true, "categories": ["Museums", "Arts & Entertainment"], "city": "Karlsruhe", "review_count": 27, "name": "ZkM | Zentrum f\u00fcr Kunst und Medientechnologie", "neighborhoods": [], "longitude": 8.3831, "state": "BW", "stars": 4.5, "latitude": 49.0018, "attributes": {"Price Range": 2, "Parking": {"garage": true, "street": false, "validated": false, "lot": false, "valet": false}, "By Appointment Only": false, "Accepts Credit Cards": true, "Good for Kids": true, "Wheelchair Accessible": true}, "type": "business"}
{"business_id": "XlytpM7Y7EIMrqy3gK2xjg", "full_address": "Schlossbezirk 10\n76131 Karlsruhe", "hours": {}, "open": true, "categories": ["Castles", "Museums", "Arts & Entertainment"], "city": "Karlsruhe", "review_count": 5, "name": "Schloss Karlsruhe", "neighborhoods": [], "longitude": 8.404352, "state": "BW", "stars": 4.5, "latitude": 49.013532, "attributes": {"Good for Kids": true, "Price Range": 1}, "type": "business"}
{"business_id": "7VVJwBvw0NG-LCKZ_EuCoA", "full_address": "Hans-Thoma-Str. 2-6\n76133 Karlsruhe", "hours": {}, "open": true, "categories": ["Museums", "Arts & Entertainment"], "city": "Karlsruhe", "review_count": 8, "name": "Staatliche Kunsthalle Karlsruhe", "neighborhoods": [], "longitude": 8.4002493, "state": "BW", "stars": 5.0, "latitude": 49.0115823, "attributes": {"Good for Kids": true, "Parking": {"garage": false, "validated": false, "street": false, "lot": false, "valet": false}}, "type": "business"}
{"business_id": "I_Xw9RZ01FB_7MetXIlrfw", "full_address": "Erbprinzenstra\u00dfe  13\n73133 Karlsruhe", "hours": {}, "open": true, "categories": ["Museums", "Arts & Entertainment"], "city": "Karlsruhe", "review_count": 6, "name": "Staatliches Museum f\u00fcr Naturkunde", "neighborhoods": [], "longitude": 8.4007324, "state": "BW", "stars": 4.5, "latitude": 49.0078044, "attributes": {"Wheelchair Accessible": true, "Parking": {"garage": false, "validated": false, "street": false, "lot": false, "valet": false}}, "type": "business"}
{"business_id": "HE5iuNFpQ1uKs1KuzLgQow", "full_address": "Schlo\u00dfbezirk 10\nSchloss\n76131 Karlsruhe", "hours": {}, "open": true, "categories": ["Museums", "Arts & Entertainment"], "city": "Karlsruhe", "review_count": 6, "name": "Badisches Landesmuseum", "neighborhoods": [], "longitude": 8.4043185, "state": "BW", "stars": 5.0, "latitude": 49.0134235, "attributes": {"Wheelchair Accessible": true, "Good for Kids": true, "Price Range": 4}, "type": "business"}
{"business_id": "-czvRRDB6tTlo6HUzBTMwg", "full_address": "Ahaweg 6\n76131 Karlsruhe", "hours": {}, "open": true, "categories": ["Museums", "Arts & Entertainment", "Shopping", "Home Services", "Home & Garden", "Painters", "Home Decor"], "city": "Karlsruhe", "review_count": 4, "name": "Staatliche Majolika Manufaktur Karlsruhe", "neighborhoods": [], "longitude": 8.4023623, "state": "BW", "stars": 3.5, "latitude": 49.0177377, "attributes": {"Parking": {"garage": false, "street": false, "validated": false, "lot": false, "valet": false}, "Accepts Credit Cards": true, "Good for Kids": false, "Price Range": 4}, "type": "business"}
{"business_id": "byFsjYzzttWh6DLptWx_fg", "full_address": "Lorenzstr. 19\n76135 Karlsruhe", "hours": {"Sunday": {"close": "18:00", "open": "11:00"}, "Friday": {"close": "18:00", "open": "10:00"}, "Wednesday": {"close": "18:00", "open": "10:00"}, "Thursday": {"close": "18:00", "open": "10:00"}, "Saturday": {"close": "18:00", "open": "11:00"}}, "open": true, "categories": ["Museums", "Arts & Entertainment"], "city": "Karlsruhe", "review_count": 27, "name": "ZkM | Zentrum f\u00fcr Kunst und Medientechnologie", "neighborhoods": [], "longitude": 8.3831, "state": "BW", "stars": 4.5, "latitude": 49.0018, "attributes": {"Price Range": 2, "Parking": {"garage": true, "street": false, "validated": false, "lot": false, "valet": false}, "By Appointment Only": false, "Accepts Credit Cards": true, "Good for Kids": true, "Wheelchair Accessible": true}, "type": "business"}
{"business_id": "XlytpM7Y7EIMrqy3gK2xjg", "full_address": "Schlossbezirk 10\n76131 Karlsruhe", "hours": {}, "open": true, "categories": ["Castles", "Museums", "Arts & Entertainment"], "city": "Karlsruhe", "review_count": 5, "name": "Schloss Karlsruhe", "neighborhoods": [], "longitude": 8.404352, "state": "BW", "stars": 4.5, "latitude": 49.013532, "attributes": {"Good for Kids": true, "Price Range": 1}, "type": "business"}
{"business_id": "7VVJwBvw0NG-LCKZ_EuCoA", "full_address": "Hans-Thoma-Str. 2-6\n76133 Karlsruhe", "hours": {}, "open": true, "categories": ["Museums", "Arts & Entertainment"], "city": "Karlsruhe", "review_count": 8, "name": "Staatliche Kunsthalle Karlsruhe", "neighborhoods": [], "longitude": 8.4002493, "state": "BW", "stars": 5.0, "latitude": 49.0115823, "attributes": {"Good for Kids": true, "Parking": {"garage": false, "validated": false, "street": false, "lot": false, "valet": false}}, "type": "business"}
{"business_id": "I_Xw9RZ01FB_7MetXIlrfw", "full_address": "Erbprinzenstra\u00dfe  13\n73133 Karlsruhe", "hours": {}, "open": true, "categories": ["Museums", "Arts & Entertainment"], "city": "Karlsruhe", "review_count": 6, "name": "Staatliches Museum f\u00fcr Naturkunde", "neighborhoods": [], "longitude": 8.4007324, "state": "BW", "stars": 4.5, "latitude": 49.0078044, "attributes": {"Wheelchair Accessible": true, "Parking": {"garage": false, "validated": false, "street": false, "lot": false, "valet": false}}, "type": "business"}
{"business_id": "HE5iuNFpQ1uKs1KuzLgQow", "full_address": "Schlo\u00dfbezirk 10\nSchloss\n76131 Karlsruhe", "hours": {}, "open": true, "categories": ["Museums", "Arts & Entertainment"], "city": "Karlsruhe", "review_count": 6, "name": "Badisches Landesmuseum", "neighborhoods": [], "longitude": 8.4043185, "state": "BW", "stars": 5.0, "latitude": 49.0134235, "attributes": {"Wheelchair Accessible": true, "Good for Kids": true, "Price Range": 4}, "type": "business"}
{"business_id": "-czvRRDB6tTlo6HUzBTMwg", "full_address": "Ahaweg 6\n76131 Karlsruhe", "hours": {}, "open": true, "categories": ["Museums", "Arts & Entertainment", "Shopping", "Home Services", "Home & Garden", "Painters", "Home Decor"], "city": "Karlsruhe", "review_count": 4, "name": "Staatliche Majolika Manufaktur Karlsruhe", "neighborhoods": [], "longitude": 8.4023623, "state": "BW", "stars": 3.5, "latitude": 49.0177377, "attributes": {"Parking": {"garage": false, "street": false, "validated": false, "lot": false, "valet": false}, "Accepts Credit Cards": true, "Good for Kids": false, "Price Range": 4}, "type": "business"}
{"business_id": "byFsjYzzttWh6DLptWx_fg", "full_address": "Lorenzstr. 19\n76135 Karlsruhe", "hours": {"Sunday": {"close": "18:00", "open": "11:00"}, "Friday": {"close": "18:00", "open": "10:00"}, "Wednesday": {"close": "18:00", "open": "10:00"}, "Thursday": {"close": "18:00", "open": "10:00"}, "Saturday": {"close": "18:00", "open": "11:00"}}, "open": true, "categories": ["Museums", "Arts & Entertainment"], "city": "Karlsruhe", "review_count": 27, "name": "ZkM | Zentrum f\u00fcr Kunst und Medientechnologie", "neighborhoods": [], "longitude": 8.3831, "state": "BW", "stars": 4.5, "latitude": 49.0018, "attributes": {"Price Range": 2, "Parking": {"garage": true, "street": false, "validated": false, "lot": false, "valet": false}, "By Appointment Only": false, "Accepts Credit Cards": true, "Good for Kids": true, "Wheelchair Accessible": true}, "type": "business"}
{"business_id": "XlytpM7Y7EIMrqy3gK2xjg", "full_address": "Schlossbezirk 10\n76131 Karlsruhe", "hours": {}, "open": true, "categories": ["Castles", "Museums", "Arts & Entertainment"], "city": "Karlsruhe", "review_count": 5, "name": "Schloss Karlsruhe", "neighborhoods": [], "longitude": 8.404352, "state": "BW", "stars": 4.5, "latitude": 49.013532, "attributes": {"Good for Kids": true, "Price Range": 1}, "type": "business"}
{"business_id": "7VVJwBvw0NG-LCKZ_EuCoA", "full_address": "Hans-Thoma-Str. 2-6\n76133 Karlsruhe", "hours": {}, "open": true, "categories": ["Museums", "Arts & Entertainment"], "city": "Karlsruhe", "review_count": 8, "name": "Staatliche Kunsthalle Karlsruhe", "neighborhoods": [], "longitude": 8.4002493, "state": "BW", "stars": 5.0, "latitude": 49.0115823, "attributes": {"Good for Kids": true, "Parking": {"garage": false, "validated": false, "street": false, "lot": false, "valet": false}}, "type": "business"}
{"business_id": "I_Xw9RZ01FB_7MetXIlrfw", "full_address": "Erbprinzenstra\u00dfe  13\n73133 Karlsruhe", "hours": {}, "open": true, "categories": ["Museums", "Arts & Entertainment"], "city": "Karlsruhe", "review_count": 6, "name": "Staatliches Museum f\u00fcr Naturkunde", "neighborhoods": [], "longitude": 8.4007324, "state": "BW", "stars": 4.5, "latitude": 49.0078044, "attributes": {"Wheelchair Accessible": true, "Parking": {"garage": false, "validated": false, "street": false, "lot": false, "valet": false}}, "type": "business"}
{"business_id": "HE5iuNFpQ1uKs1KuzLgQow", "full_address": "Schlo\u00dfbezirk 10\nSchloss\n76131 Karlsruhe", "hours": {}, "open": true, "categories": ["Museums", "Arts & Entertainment"], "city": "Karlsruhe", "review_count": 6, "name": "Badisches Landesmuseum", "neighborhoods": [], "longitude": 8.4043185, "state": "BW", "stars": 5.0, "latitude": 49.0134235, "attributes": {"Wheelchair Accessible": true, "Good for Kids": true, "Price Range": 4}, "type": "business"}
{"business_id": "-czvRRDB6tTlo6HUzBTMwg", "full_address": "Ahaweg 6\n76131 Karlsruhe", "hours": {}, "open": true, "categories": ["Museums", "Arts & Entertainment", "Shopping", "Home Services", "Home & Garden", "Painters", "Home Decor"], "city": "Karlsruhe", "review_count": 4, "name": "Staatliche Majolika Manufaktur Karlsruhe", "neighborhoods": [], "longitude": 8.4023623, "state": "BW", "stars": 3.5, "latitude": 49.0177377, "attributes": {"Parking": {"garage": false, "street": false, "validated": false, "lot": false, "valet": false}, "Accepts Credit Cards": true, "Good for Kids": false, "Price Range": 4}, "type": "business"}
{"business_id": "byFsjYzzttWh6DLptWx_fg", "full_address": "Lorenzstr. 19\n76135 Karlsruhe", "hours": {"Sunday": {"close": "18:00", "open": "11:00"}, "Friday": {"close": "18:00", "open": "10:00"}, "Wednesday": {"close": "18:00", "open": "10:00"}, "Thursday": {"close": "18:00", "open": "10:00"}, "Saturday": {"close": "18:00", "open": "11:00"}}, "open": true, "categories": ["Museums", "Arts & Entertainment"], "city": "Karlsruhe", "review_count": 27, "name": "ZkM | Zentrum f\u00fcr Kunst und Medientechnologie", "neighborhoods": [], "longitude": 8.3831, "state": "BW", "stars": 4.5, "latitude": 49.0018, "attributes": {"Price Range": 2, "Parking": {"garage": true, "street": false, "validated": false, "lot": false, "valet": false}, "By Appointment Only": false, "Accepts Credit Cards": true, "Good for Kids": true, "Wheelchair Accessible": true}, "type": "business"}
{"business_id": "XlytpM7Y7EIMrqy3gK2xjg", "full_address": "Schlossbezirk 10\n76131 Karlsruhe", "hours": {}, "open": true, "categories": ["Castles", "Museums", "Arts & Entertainment"], "city": "Karlsruhe", "review_count": 5, "name": "Schloss Karlsruhe", "neighborhoods": [], "longitude": 8.404352, "state": "BW", "stars": 4.5, "latitude": 49.013532, "attributes": {"Good for Kids": true, "Price Range": 1}, "type": "business"}
