{"business_id": "S0wr9Gj5RFscgffwYiJ4Iw", "full_address": "Karlstr. 18\n76133 Karlsruhe", "hours": {}, "open": true, "categories": ["Health & Medical", "Pharmacy"], "city": "Karlsruhe", "review_count": 6, "name": "Karl-Apotheke", "neighborhoods": [], "longitude": 8.39467, "state": "BW", "stars": 4.0, "latitude": 49.0082, "attributes": {"Parking": {"garage": false, "street": false, "validated": false, "lot": false, "valet": false}, "Accepts Credit Cards": true, "Wheelchair Accessible": true, "Price Range": 2}, "type": "business"}
{"business_id": "zRBgEqzMrrlnya2_eeRHYA", "full_address": "Brettener Str. 1\n76131 Karlsruhe", "hours": {}, "open": true, "categories": ["Health & Medical", "Pharmacy"], "city": "Karlsruhe", "review_count": 3, "name": "Minerva Apotheke", "neighborhoods": [], "longitude": 8.44314, "state": "BW", "stars": 5.0, "latitude": 49.0173, "attributes": {}, "type": "business"}
{"business_id": "UJZKaJKEyYlBEa7byP-uQw", "full_address": "Karlstr. 115\n76137 Karlsruhe", "hours": {}, "open": true, "categories": ["Health & Medical", "Pharmacy"], "city": "Karlsruhe", "review_count": 5, "name": "OK  Apotheke", "neighborhoods": [], "longitude": 8.3938408, "state": "BW", "stars": 4.0, "latitude": 48.9969597, "attributes": {"Wheelchair Accessible": true, "Parking": {"garage": false, "validated": false, "street": false, "lot": false, "valet": false}}, "type": "business"}
{"business_id": "-yS-eOYb9q88ffWwVVFzng", "full_address": "R\u00fcppurrer Str. 1\n76137 Karlsruhe", "hours": {"Monday": {"close": "22:00", "open": "08:00"}, "Tuesday": {"close": "22:00", "open": "08:00"}, "Friday": {"close": "22:00", "open": "08:00"}, "Wednesday": {"close": "22:00", "open": "08:00"}, "Thursday": {"close": "22:00", "open": "08:00"}, "Saturday": {"close": "22:00", "open": "08:00"}}, "open": true, "categories": ["Health & Medical", "Pharmacy"], "city": "Karlsruhe", "review_count": 3, "name": "Apotheke im Scheck in Center", "neighborhoods": [], "longitude": 8.41053, "state": "BW", "stars": 3.5, "latitude": 49.0052, "attributes": {}, "type": "business"}
{"business_id": "S0wr9Gj5RFscgffwYiJ4Iw", "full_address": "Karlstr. 18\n76133 Karlsruhe", "hours": {}, "open": true, "categories": ["Health & Medical", "Pharmacy"], "city": "Karlsruhe", "review_count": 6, "name": "Karl-Apotheke", "neighborhoods": [], "longitude": 8.39467, "state": "BW", "stars": 4.0, "latitude": 49.0082, "attributes": {"Parking": {"garage": false, "street": false, "validated": false, "lot": false, "valet": false}, "Accepts Credit Cards": true, "Wheelchair Accessible": true, "Price Range": 2}, "type": "business"}
{"business_id": "zRBgEqzMrrlnya2_eeRHYA", "full_address": "Brettener Str. 1\n76131 Karlsruhe", "hours": {}, "open": true, "categories": ["Health & Medical", "Pharmacy"], "city": "Karlsruhe", "review_count": 3, "name": "Minerva Apotheke", "neighborhoods": [], "longitude": 8.44314, "state": "BW", "stars": 5.0, "latitude": 49.0173, "attributes": {}, "type": "business"}
{"business_id": "UJZKaJKEyYlBEa7byP-uQw", "full_address": "Karlstr. 115\n76137 Karlsruhe", "hours": {}, "open": true, "categories": ["Health & Medical", "Pharmacy"], "city": "Karlsruhe", "review_count": 5, "name": "OK  Apotheke", "neighborhoods": [], "longitude": 8.3938408, "state": "BW", "stars": 4.0, "latitude": 48.9969597, "attributes": {"Wheelchair Accessible": true, "Parking": {"garage": false, "validated": false, "street": false, "lot": false, "valet": false}}, "type": "business"}
{"business_id": "-yS-eOYb9q88ffWwVVFzng", "full_address": "R\u00fcppurrer Str. 1\n76137 Karlsruhe", "hours": {"Monday": {"close": "22:00", "open": "08:00"}, "Tuesday": {"close": "22:00", "open": "08:00"}, "Friday": {"close": "22:00", "open": "08:00"}, "Wednesday": {"close": "22:00", "open": "08:00"}, "Thursday": {"close": "22:00", "open": "08:00"}, "Saturday": {"close": "22:00", "open": "08:00"}}, "open": true, "categories": ["Health & Medical", "Pharmacy"], "city": "Karlsruhe", "review_count": 3, "name": "Apotheke im Scheck in Center", "neighborhoods": [], "longitude": 8.41053, "state": "BW", "stars": 3.5, "latitude": 49.0052, "attributes": {}, "type": "business"}
{"business_id": "S0wr9Gj5RFscgffwYiJ4Iw", "full_address": "Karlstr. 18\n76133 Karlsruhe", "hours": {}, "open": true, "categories": ["Health & Medical", "Pharmacy"], "city": "Karlsruhe", "review_count": 6, "name": "Karl-Apotheke", "neighborhoods": [], "longitude": 8.39467, "state": "BW", "stars": 4.0, "latitude": 49.0082, "attributes": {"Parking": {"garage": false, "street": false, "validated": false, "lot": false, "valet": false}, "Accepts Credit Cards": true, "Wheelchair Accessible": true, "Price Range": 2}, "type": "business"}
{"business_id": "zRBgEqzMrrlnya2_eeRHYA", "full_address": "Brettener Str. 1\n76131 Karlsruhe", "hours": {}, "open": true, "categories": ["Health & Medical", "Pharmacy"], "city": "Karlsruhe", "review_count": 3, "name": "Minerva Apotheke", "neighborhoods": [], "longitude": 8.44314, "state": "BW", "stars": 5.0, "latitude": 49.0173, "attributes": {}, "type": "business"}
{"business_id": "UJZKaJKEyYlBEa7byP-uQw", "full_address": "Karlstr. 115\n76137 Karlsruhe", "hours": {}, "open": true, "categories": ["Health & Medical", "Pharmacy"], "city": "Karlsruhe", "review_count": 5, "name": "OK  Apotheke", "neighborhoods": [], "longitude": 8.3938408, "state": "BW", "stars": 4.0, "latitude": 48.9969597, "attributes": {"Wheelchair Accessible": true, "Parking": {"garage": false, "validated": false, "street": false, "lot": false, "valet": false}}, "type": "business"}
{"business_id": "-yS-eOYb9q88ffWwVVFzng", "full_address": "R\u00fcppurrer Str. 1\n76137 Karlsruhe", "hours": {"Monday": {"close": "22:00", "open": "08:00"}, "Tuesday": {"close": "22:00", "open": "08:00"}, "Friday": {"close": "22:00", "open": "08:00"}, "Wednesday": {"close": "22:00", "open": "08:00"}, "Thursday": {"close": "22:00", "open": "08:00"}, "Saturday": {"close": "22:00", "open": "08:00"}}, "open": true, "categories": ["Health & Medical", "Pharmacy"], "city": "Karlsruhe", "review_count": 3, "name": "Apotheke im Scheck in Center", "neighborhoods": [], "longitude": 8.41053, "state": "BW", "stars": 3.5, "latitude": 49.0052, "attributes": {}, "type": "business"}
{"business_id": "S0wr9Gj5RFscgffwYiJ4Iw", "full_address": "Karlstr. 18\n76133 Karlsruhe", "hours": {}, "open": true, "categories": ["Health & Medical", "Pharmacy"], "city": "Karlsruhe", "review_count": 6, "name": "Karl-Apotheke", "neighborhoods": [], "longitude": 8.39467, "state": "BW", "stars": 4.0, "latitude": 49.0082, "attributes": {"Parking": {"garage": false, "street": false, "validated": false, "lot": false, "valet": false}, "Accepts Credit Cards": true, "Wheelchair Accessible": true, "Price Range": 2}, "type": "business"}
{"business_id": "zRBgEqzMrrlnya2_eeRHYA", "full_address": "Brettener Str. 1\n76131 Karlsruhe", "hours": {}, "open": true, "categories": ["Health & Medical", "Pharmacy"], "city": "Karlsruhe", "review_count": 3, "name": "Minerva Apotheke", "neighborhoods": [], "longitude": 8.44314, "state": "BW", "stars": 5.0, "latitude": 49.0173, "attributes": {}, "type": "business"}
{"business_id": "UJZKaJKEyYlBEa7byP-uQw", "full_address": "Karlstr. 115\n76137 Karlsruhe", "hours": {}, "open": true, "categories": ["Health & Medical", "Pharmacy"], "city": "Karlsruhe", "review_count": 5, "name": "OK  Apotheke", "neighborhoods": [], "longitude": 8.3938408, "state": "BW", "stars": 4.0, "latitude": 48.9969597, "attributes": {"Wheelchair Accessible": true, "Parking": {"garage": false, "validated": false, "street": false, "lot": false, "valet": false}}, "type": "business"}
{"business_id": "-yS-eOYb9q88ffWwVVFzng", "full_address": "R\u00fcppurrer Str. 1\n76137 Karlsruhe", "hours": {"Monday": {"close": "22:00", "open": "08:00"}, "Tuesday": {"close": "22:00", "open": "08:00"}, "Friday": {"close": "22:00", "open": "08:00"}, "Wednesday": {"close": "22:00", "open": "08:00"}, "Thursday": {"close": "22:00", "open": "08:00"}, "Saturday": {"close": "22:00", "open": "08:00"}}, "open": true, "categories": ["Health & Medical", "Pharmacy"], "city": "Karlsruhe", "review_count": 3, "name": "Apotheke im Scheck in Center", "neighborhoods": [], "longitude": 8.41053, "state": "BW", "stars": 3.5, "latitude": 49.0052, "attributes": {}, "type": "business"}
{"business_id": "S0wr9Gj5RFscgffwYiJ4Iw", "full_address": "Karlstr. 18\n76133 Karlsruhe", "hours": {}, "open": true, "categories": ["Health & Medical", "Pharmacy"], "city": "Karlsruhe", "review_count": 6, "name": "Karl-Apotheke", "neighborhoods": [], "longitude": 8.39467, "state": "BW", "stars": 4.0, "latitude": 49.0082, "attributes": {"Parking": {"garage": false, "street": false, "validated": false, "lot": false, "valet": false}, "Accepts Credit Cards": true, "Wheelchair Accessible": true, "Price Range": 2}, "type": "business"}
{"business_id": "zRBgEqzMrrlnya2_eeRHYA", "full_address": "Brettener Str. 1\n76131 Karlsruhe", "hours": {}, "open": true, "categories": ["Health & Medical", "Pharmacy"], "city": "Karlsruhe", "review_count": 3, "name": "Minerva Apotheke", "neighborhoods": [], "longitude": 8.44314, "state": "BW", "stars": 5.0, "latitude": 49.0173, "attributes": {}, "type": "business"}
{"business_id": "UJZKaJKEyYlBEa7byP-uQw", "full_address": "Karlstr. 115\n76137 Karlsruhe", "hours": {}, "open": true, "categories": ["Health & Medical", "Pharmacy"], "city": "Karlsruhe", "review_count": 5, "name": "OK  Apotheke", "neighborhoods": [], "longitude": 8.3938408, "state": "BW", "stars": 4.0, "latitude": 48.9969597, "attributes": {"Wheelchair Accessible": true, "Parking": {"garage": false, "validated": false, "street": false, "lot": false, "valet": false}}, "type": "business"}
{"business_id": "-yS-eOYb9q88ffWwVVFzng", "full_address": "R\u00fcppurrer Str. 1\n76137 Karlsruhe", "hours": {"Monday": {"close": "22:00", "open": "08:00"}, "Tuesday": {"close": "22:00", "open": "08:00"}, "Friday": {"close": "22:00", "open": "08:00"}, "Wednesday": {"close": "22:00", "open": "08:00"}, "Thursday": {"close": "22:00", "open": "08:00"}, "Saturday": {"close": "22:00", "open": "08:00"}}, "open": true, "categories": ["Health & Medical", "Pharmacy"], "city": "Karlsruhe", "review_count": 3, "name": "Apotheke im Scheck in Center", "neighborhoods": [], "longitude": 8.41053, "state": "BW", "stars": 3.5, "latitude": 49.0052, "attributes": {}, "type": "business"}
{"business_id": "S0wr9Gj5RFscgffwYiJ4Iw", "full_address": "Karlstr. 18\n76133 Karlsruhe", "hours": {}, "open": true, "categories": ["Health & Medical", "Pharmacy"], "city": "Karlsruhe", "review_count": 6, "name": "Karl-Apotheke", "neighborhoods": [], "longitude": 8.39467, "state": "BW", "stars": 4.0, "latitude": 49.0082, "attributes": {"Parking": {"garage": false, "street": false, "validated": false, "lot": false, "valet": false}, "Accepts Credit Cards": true, "Wheelchair Accessible": true, "Price Range": 2}, "type": "business"}
{"business_id": "zRBgEqzMrrlnya2_eeRHYA", "full_address": "Brettener Str. 1\n76131 Karlsruhe", "hours": {}, "open": true, "categories": ["Health & Medical", "Pharmacy"], "city": "Karlsruhe", "review_count": 3, "name": "Minerva Apotheke", "neighborhoods": [], "longitude": 8.44314, "state": "BW", "stars": 5.0, "latitude": 49.0173, "attributes": {}, "type": "business"}
{"business_id": "UJZKaJKEyYlBEa7byP-uQw", "full_address": "Karlstr. 115\n76137 Karlsruhe", "hours": {}, "open": true, "categories": ["Health & Medical", "Pharmacy"], "city": "Karlsruhe", "review_count": 5, "name": "OK  Apotheke", "neighborhoods": [], "longitude": 8.3938408, "state": "BW", "stars": 4.0, "latitude": 48.9969597, "attributes": {"Wheelchair Accessible": true, "Parking": {"garage": false, "validated": false, "street": false, "lot": false, "valet": false}}, "type": "business"}
{"business_id": "-yS-eOYb9q88ffWwVVFzng", "full_address": "R\u00fcppurrer Str. 1\n76137 Karlsruhe", "hours": {"Monday": {"close": "22:00", "open": "08:00"}, "Tuesday": {"close": "22:00", "open": "08:00"}, "Friday": {"close": "22:00", "open": "08:00"}, "Wednesday": {"close": "22:00", "open": "08:00"}, "Thursday": {"close": "22:00", "open": "08:00"}, "Saturday": {"close": "22:00", "open": "08:00"}}, "open": true, "categories": ["Health & Medical", "Pharmacy"], "city": "Karlsruhe", "review_count": 3, "name": "Apotheke im Scheck in Center", "neighborhoods": [], "longitude": 8.41053, "state": "BW", "stars": 3.5, "latitude": 49.0052, "attributes": {}, "type": "business"}
