{"business_id": "195hVRlAgcgMNNt8Ttdu8g", "full_address": "Erbprinzenstra\u00dfe 15\n76133 Karlsruhe", "hours": {}, "open": true, "categories": ["Libraries", "Public Services & Government", "Mass Media"], "city": "Karlsruhe", "review_count": 5, "name": "Badische Landesbibliothek", "neighborhoods": [], "longitude": 8.3994451, "state": "BW", "stars": 5.0, "latitude": 49.0081042, "attributes": {"Price Range": 1}, "type": "business"}
{"business_id": "8btINBSesNjN9uZuUrJ09A", "full_address": "St\u00e4ndehausstr. 2\n76133 Karlsruhe", "hours": {"Tuesday": {"close": "18:30", "open": "10:00"}, "Friday": {"close": "18:30", "open": "10:00"}, "Wednesday": {"close": "18:30", "open": "10:00"}, "Thursday": {"close": "18:30", "open": "10:00"}, "Saturday": {"close": "14:00", "open": "10:00"}}, "open": true, "categories": ["Libraries", "Public Services & Government"], "city": "Karlsruhe", "review_count": 7, "name": "Stadtbibliothek Karlsruhe", "neighborhoods": [], "longitude": 8.3999258, "state": "BW", "stars": 4.5, "latitude": 49.0088319, "attributes": {"Price Range": 1}, "type": "business"}
{"business_id": "2L7zKmpJ20jFaH4oJ3zZxw", "full_address": "Stra\u00dfe am Forum 2\n76131 Karlsruhe", "hours": {}, "open": true, "categories": ["Libraries", "Public Services & Government"], "city": "Karlsruhe", "review_count": 7, "name": "KIT-Bibliothek", "neighborhoods": [], "longitude": 8.4161444, "state": "BW", "stars": 4.5, "latitude": 49.012177, "attributes": {}, "type": "business"}
{"business_id": "195hVRlAgcgMNNt8Ttdu8g", "full_address": "Erbprinzenstra\u00dfe 15\n76133 Karlsruhe", "hours": {}, "open": true, "categories": ["Libraries", "Public Services & Government", "Mass Media"], "city": "Karlsruhe", "review_count": 5, "name": "Badische Landesbibliothek", "neighborhoods": [], "longitude": 8.3994451, "state": "BW", "stars": 5.0, "latitude": 49.0081042, "attributes": {"Price Range": 1}, "type": "business"}
{"business_id": "8btINBSesNjN9uZuUrJ09A", "full_address": "St\u00e4ndehausstr. 2\n76133 Karlsruhe", "hours": {"Tuesday": {"close": "18:30", "open": "10:00"}, "Friday": {"close": "18:30", "open": "10:00"}, "Wednesday": {"close": "18:30", "open": "10:00"}, "Thursday": {"close": "18:30", "open": "10:00"}, "Saturday": {"close": "14:00", "open": "10:00"}}, "open": true, "categories": ["Libraries", "Public Services & Government"], "city": "Karlsruhe", "review_count": 7, "name": "Stadtbibliothek Karlsruhe", "neighborhoods": [], "longitude": 8.3999258, "state": "BW", "stars": 4.5, "latitude": 49.0088319, "attributes": {"Price Range": 1}, "type": "business"}
{"business_id": "2L7zKmpJ20jFaH4oJ3zZxw", "full_address": "Stra\u00dfe am Forum 2\n76131 Karlsruhe", "hours": {}, "open": true, "categories": ["Libraries", "Public Services & Government"], "city": "Karlsruhe", "review_count": 7, "name": "KIT-Bibliothek", "neighborhoods": [], "longitude": 8.4161444, "state": "BW", "stars": 4.5, "latitude": 49.012177, "attributes": {}, "type": "business"}
{"business_id": "195hVRlAgcgMNNt8Ttdu8g", "full_address": "Erbprinzenstra\u00dfe 15\n76133 Karlsruhe", "hours": {}, "open": true, "categories": ["Libraries", "Public Services & Government", "Mass Media"], "city": "Karlsruhe", "review_count": 5, "name": "Badische Landesbibliothek", "neighborhoods": [], "longitude": 8.3994451, "state": "BW", "stars": 5.0, "latitude": 49.0081042, "attributes": {"Price Range": 1}, "type": "business"}
{"business_id": "8btINBSesNjN9uZuUrJ09A", "full_address": "St\u00e4ndehausstr. 2\n76133 Karlsruhe", "hours": {"Tuesday": {"close": "18:30", "open": "10:00"}, "Friday": {"close": "18:30", "open": "10:00"}, "Wednesday": {"close": "18:30", "open": "10:00"}, "Thursday": {"close": "18:30", "open": "10:00"}, "Saturday": {"close": "14:00", "open": "10:00"}}, "open": true, "categories": ["Libraries", "Public Services & Government"], "city": "Karlsruhe", "review_count": 7, "name": "Stadtbibliothek Karlsruhe", "neighborhoods": [], "longitude": 8.3999258, "state": "BW", "stars": 4.5, "latitude": 49.0088319, "attributes": {"Price Range": 1}, "type": "business"}
{"business_id": "2L7zKmpJ20jFaH4oJ3zZxw", "full_address": "Stra\u00dfe am Forum 2\n76131 Karlsruhe", "hours": {}, "open": true, "categories": ["Libraries", "Public Services & Government"], "city": "Karlsruhe", "review_count": 7, "name": "KIT-Bibliothek", "neighborhoods": [], "longitude": 8.4161444, "state": "BW", "stars": 4.5, "latitude": 49.012177, "attributes": {}, "type": "business"}
{"business_id": "195hVRlAgcgMNNt8Ttdu8g", "full_address": "Erbprinzenstra\u00dfe 15\n76133 Karlsruhe", "hours": {}, "open": true, "categories": ["Libraries", "Public Services & Government", "Mass Media"], "city": "Karlsruhe", "review_count": 5, "name": "Badische Landesbibliothek", "neighborhoods": [], "longitude": 8.3994451, "state": "BW", "stars": 5.0, "latitude": 49.0081042, "attributes": {"Price Range": 1}, "type": "business"}
{"business_id": "8btINBSesNjN9uZuUrJ09A", "full_address": "St\u00e4ndehausstr. 2\n76133 Karlsruhe", "hours": {"Tuesday": {"close": "18:30", "open": "10:00"}, "Friday": {"close": "18:30", "open": "10:00"}, "Wednesday": {"close": "18:30", "open": "10:00"}, "Thursday": {"close": "18:30", "open": "10:00"}, "Saturday": {"close": "14:00", "open": "10:00"}}, "open": true, "categories": ["Libraries", "Public Services & Government"], "city": "Karlsruhe", "review_count": 7, "name": "Stadtbibliothek Karlsruhe", "neighborhoods": [], "longitude": 8.3999258, "state": "BW", "stars": 4.5, "latitude": 49.0088319, "attributes": {"Price Range": 1}, "type": "business"}
{"business_id": "2L7zKmpJ20jFaH4oJ3zZxw", "full_address": "Stra\u00dfe am Forum 2\n76131 Karlsruhe", "hours": {}, "open": true, "categories": ["Libraries", "Public Services & Government"], "city": "Karlsruhe", "review_count": 7, "name": "KIT-Bibliothek", "neighborhoods": [], "longitude": 8.4161444, "state": "BW", "stars": 4.5, "latitude": 49.012177, "attributes": {}, "type": "business"}
{"business_id": "195hVRlAgcgMNNt8Ttdu8g", "full_address": "Erbprinzenstra\u00dfe 15\n76133 Karlsruhe", "hours": {}, "open": true, "categories": ["Libraries", "Public Services & Government", "Mass Media"], "city": "Karlsruhe", "review_count": 5, "name": "Badische Landesbibliothek", "neighborhoods": [], "longitude": 8.3994451, "state": "BW", "stars": 5.0, "latitude": 49.0081042, "attributes": {"Price Range": 1}, "type": "business"}
{"business_id": "8btINBSesNjN9uZuUrJ09A", "full_address": "St\u00e4ndehausstr. 2\n76133 Karlsruhe", "hours": {"Tuesday": {"close": "18:30", "open": "10:00"}, "Friday": {"close": "18:30", "open": "10:00"}, "Wednesday": {"close": "18:30", "open": "10:00"}, "Thursday": {"close": "18:30", "open": "10:00"}, "Saturday": {"close": "14:00", "open": "10:00"}}, "open": true, "categories": ["Libraries", "Public Services & Government"], "city": "Karlsruhe", "review_count": 7, "name": "Stadtbibliothek Karlsruhe", "neighborhoods": [], "longitude": 8.3999258, "state": "BW", "stars": 4.5, "latitude": 49.0088319, "attributes": {"Price Range": 1}, "type": "business"}
{"business_id": "2L7zKmpJ20jFaH4oJ3zZxw", "full_address": "Stra\u00dfe am Forum 2\n76131 Karlsruhe", "hours": {}, "open": true, "categories": ["Libraries", "Public Services & Government"], "city": "Karlsruhe", "review_count": 7, "name": "KIT-Bibliothek", "neighborhoods": [], "longitude": 8.4161444, "state": "BW", "stars": 4.5, "latitude": 49.012177, "attributes": {}, "type": "business"}
{"business_id": "195hVRlAgcgMNNt8Ttdu8g", "full_address": "Erbprinzenstra\u00dfe 15\n76133 Karlsruhe", "hours": {}, "open": true, "categories": ["Libraries", "Public Services & Government", "Mass Media"], "city": "Karlsruhe", "review_count": 5, "name": "Badische Landesbibliothek", "neighborhoods": [], "longitude": 8.3994451, "state": "BW", "stars": 5.0, "latitude": 49.0081042, "attributes": {"Price Range": 1}, "type": "business"}
{"business_id": "8btINBSesNjN9uZuUrJ09A", "full_address": "St\u00e4ndehausstr. 2\n76133 Karlsruhe", "hours": {"Tuesday": {"close": "18:30", "open": "10:00"}, "Friday": {"close": "18:30", "open": "10:00"}, "Wednesday": {"close": "18:30", "open": "10:00"}, "Thursday": {"close": "18:30", "open": "10:00"}, "Saturday": {"close": "14:00", "open": "10:00"}}, "open": true, "categories": ["Libraries", "Public Services & Government"], "city": "Karlsruhe", "review_count": 7, "name": "Stadtbibliothek Karlsruhe", "neighborhoods": [], "longitude": 8.3999258, "state": "BW", "stars": 4.5, "latitude": 49.0088319, "attributes": {"Price Range": 1}, "type": "business"}
{"business_id": "2L7zKmpJ20jFaH4oJ3zZxw", "full_address": "Stra\u00dfe am Forum 2\n76131 Karlsruhe", "hours": {}, "open": true, "categories": ["Libraries", "Public Services & Government"], "city": "Karlsruhe", "review_count": 7, "name": "KIT-Bibliothek", "neighborhoods": [], "longitude": 8.4161444, "state": "BW", "stars": 4.5, "latitude": 49.012177, "attributes": {}, "type": "business"}
