{"business_id": "yzujxM_HrrNB3dri5SX18Q", "full_address": "Ettlinger Str.  1\n76307 Karlsbad", "hours": {"Monday": {"close": "23:00", "open": "11:30"}, "Tuesday": {"close": "23:00", "open": "11:30"}, "Friday": {"close": "23:00", "open": "11:30"}, "Wednesday": {"close": "23:00", "open": "11:30"}, "Thursday": {"close": "23:00", "open": "11:30"}, "Sunday": {"close": "23:00", "open": "11:30"}, "Saturday": {"close": "23:00", "open": "11:30"}}, "open": true, "categories": ["German", "Baden", "Bed & Breakfast", "Event Planning & Services", "Hotels & Travel", "Hotels", "Restaurants"], "city": "Karlsbad", "review_count": 7, "name": "Gr\u00fcner Baum", "neighborhoods": [], "longitude": 8.5057262, "state": "BW", "stars": 4.0, "latitude": 48.9168511, "attributes": {"Take-out": false, "Wi-Fi": "no", "Good For": {"dessert": false, "latenight": false, "lunch": false, "dinner": false, "breakfast": false, "brunch": false}, "Noise Level": "average", "Takes Reservations": true, "Smoking": "yes", "Delivery": false, "Dogs Allowed": false, "Parking": {"garage": false, "validated": false, "street": false, "lot": false, "valet": false}, "Wheelchair Accessible": false, "Outdoor Seating": true, "Attire": "casual", "Alcohol": "beer_and_wine", "Waiter Service": true, "Accepts Credit Cards": false, "Good For Groups": true, "Price Range": 2}, "type": "business"}
{"business_id": "ZWiVg5Q_omqipa9gLJfwzQ", "full_address": "Hirschstr. 34\n76133 Karlsruhe", "hours": {}, "open": true, "categories": ["Hotels & Travel", "Bed & Breakfast", "Event Planning & Services", "Hotels"], "city": "Karlsruhe", "review_count": 6, "name": "Ambassador", "neighborhoods": [], "longitude": 8.39149, "state": "BW", "stars": 4.0, "latitude": 49.008, "attributes": {"Accepts Credit Cards": true, "Wi-Fi": "free", "Price Range": 3}, "type": "business"}
{"business_id": "kGQojQzVBP39GrQAN6fN7A", "full_address": "Sachsenstra\u00dfe 17\n76137 Karlsruhe", "hours": {}, "open": true, "categories": ["Food", "Bed & Breakfast", "Caterers", "Event Planning & Services", "Hotels & Travel", "Hotels"], "city": "Karlsruhe", "review_count": 4, "name": "Elite Hotel Garni", "neighborhoods": [], "longitude": 8.39155, "state": "BW", "stars": 4.5, "latitude": 48.99654, "attributes": {"Parking": {"garage": false, "validated": false, "street": false, "lot": false, "valet": false}, "Accepts Credit Cards": true, "Wheelchair Accessible": true, "Wi-Fi": "free", "Price Range": 2}, "type": "business"}
{"business_id": "Xf2k52tRHvLt5Ji6dZJMlQ", "full_address": "Kaiserstr. 76\n76133 Karlsruhe", "hours": {}, "open": true, "categories": ["Hotels & Travel", "Bed & Breakfast", "Event Planning & Services", "Hotels"], "city": "Karlsruhe", "review_count": 4, "name": "Hotel Am Markt", "neighborhoods": [], "longitude": 8.4038, "state": "BW", "stars": 3.5, "latitude": 49.00981, "attributes": {"Accepts Credit Cards": true, "Wi-Fi": "free", "Price Range": 2}, "type": "business"}
{"business_id": "nO9rhaYa9v6cRWly2PTldA", "full_address": "Kriegsstr. 90\n76133 Karlsruhe", "hours": {}, "open": true, "categories": ["Hotels & Travel", "Bed & Breakfast", "Event Planning & Services", "Hotels"], "city": "Karlsruhe", "review_count": 9, "name": "Blankenburg", "neighborhoods": [], "longitude": 8.407, "state": "BW", "stars": 3.5, "latitude": 49.0058, "attributes": {"Wi-Fi": "free", "Price Range": 2}, "type": "business"}
{"business_id": "nEbkDXjOoxlpIlPcwGXFXg", "full_address": "B\u00fcrgerstr. 4\nam Ludwigsplatz\n76133 Karlsruhe", "hours": {}, "open": true, "categories": ["Hotels & Travel", "Bed & Breakfast", "Event Planning & Services", "Hotels"], "city": "Karlsruhe", "review_count": 9, "name": "Alfa", "neighborhoods": [], "longitude": 8.393843, "state": "BW", "stars": 3.0, "latitude": 49.0067498, "attributes": {"Dogs Allowed": true, "Has TV": true, "Parking": {"garage": true, "validated": false, "street": false, "lot": false, "valet": false}, "Ambience": {"romantic": false, "intimate": false, "classy": false, "hipster": false, "divey": false, "touristy": false, "trendy": false, "upscale": false, "casual": false}, "Smoking": "no", "Wi-Fi": "free", "Price Range": 3}, "type": "business"}
{"business_id": "l_ctRdjXQPxLpr0GmQBLBA", "full_address": "Sophienstra\u00dfe 69-71\n76133 Karlsruhe", "hours": {}, "open": true, "categories": ["Hotels & Travel", "Bed & Breakfast", "Event Planning & Services", "Hotels"], "city": "Karlsruhe", "review_count": 5, "name": "acora Hotel und Wohnen Karlsruhe", "neighborhoods": [], "longitude": 8.383684, "state": "BW", "stars": 3.0, "latitude": 49.007925, "attributes": {"Accepts Credit Cards": true, "Wi-Fi": "paid", "Price Range": 2}, "type": "business"}
{"business_id": "9hws9grDsZHAnhWEl_RICA", "full_address": "Ziegelstr. 1\n76185 Karlsruhe", "hours": {}, "open": true, "categories": ["Active Life", "Climbing", "Arts & Entertainment", "Bed & Breakfast", "Hotels & Travel"], "city": "Karlsruhe", "review_count": 8, "name": "The Rock Kletterzentrum Karlsruhe", "neighborhoods": [], "longitude": 8.36151, "state": "BW", "stars": 5.0, "latitude": 49.0071, "attributes": {"Parking": {"garage": false, "validated": false, "street": false, "lot": false, "valet": false}, "Wheelchair Accessible": false, "Price Range": 3}, "type": "business"}
{"business_id": "ve7DN5QQtIx7mX2ZiBT3aw", "full_address": "Schenkendorfstr. 2\n76199 Karlsruhe", "hours": {}, "open": true, "categories": ["Hotels & Travel", "Bed & Breakfast"], "city": "Karlsruhe", "review_count": 6, "name": "Pension Anita Subeit", "neighborhoods": [], "longitude": 8.40514, "state": "BW", "stars": 5.0, "latitude": 48.9705, "attributes": {"Price Range": 1, "Dogs Allowed": false, "Parking": {"garage": false, "validated": false, "street": false, "lot": false, "valet": false}, "Smoking": "outdoor", "Wi-Fi": "no", "Wheelchair Accessible": false}, "type": "business"}
{"business_id": "kUsNaD4NZ1Gh_kDXjTq6GQ", "full_address": "Lessingstra\u00dfe 25\n76135 Karlsruhe", "hours": {}, "open": true, "categories": ["Hotels & Travel", "Bed & Breakfast"], "city": "Karlsruhe", "review_count": 4, "name": "bed & breakfast Privatzimmervermittlung", "neighborhoods": [], "longitude": 8.38526, "state": "BW", "stars": 3.0, "latitude": 49.0087, "attributes": {"Smoking": "no", "Parking": {"garage": false, "validated": false, "street": false, "lot": false, "valet": false}, "Dogs Allowed": false, "Price Range": 4}, "type": "business"}
{"business_id": "yzujxM_HrrNB3dri5SX18Q", "full_address": "Ettlinger Str.  1\n76307 Karlsbad", "hours": {"Monday": {"close": "23:00", "open": "11:30"}, "Tuesday": {"close": "23:00", "open": "11:30"}, "Friday": {"close": "23:00", "open": "11:30"}, "Wednesday": {"close": "23:00", "open": "11:30"}, "Thursday": {"close": "23:00", "open": "11:30"}, "Sunday": {"close": "23:00", "open": "11:30"}, "Saturday": {"close": "23:00", "open": "11:30"}}, "open": true, "categories": ["German", "Baden", "Bed & Breakfast", "Event Planning & Services", "Hotels & Travel", "Hotels", "Restaurants"], "city": "Karlsbad", "review_count": 7, "name": "Gr\u00fcner Baum", "neighborhoods": [], "longitude": 8.5057262, "state": "BW", "stars": 4.0, "latitude": 48.9168511, "attributes": {"Take-out": false, "Wi-Fi": "no", "Good For": {"dessert": false, "latenight": false, "lunch": false, "dinner": false, "breakfast": false, "brunch": false}, "Noise Level": "average", "Takes Reservations": true, "Smoking": "yes", "Delivery": false, "Dogs Allowed": false, "Parking": {"garage": false, "validated": false, "street": false, "lot": false, "valet": false}, "Wheelchair Accessible": false, "Outdoor Seating": true, "Attire": "casual", "Alcohol": "beer_and_wine", "Waiter Service": true, "Accepts Credit Cards": false, "Good For Groups": true, "Price Range": 2}, "type": "business"}
{"business_id": "ZWiVg5Q_omqipa9gLJfwzQ", "full_address": "Hirschstr. 34\n76133 Karlsruhe", "hours": {}, "open": true, "categories": ["Hotels & Travel", "Bed & Breakfast", "Event Planning & Services", "Hotels"], "city": "Karlsruhe", "review_count": 6, "name": "Ambassador", "neighborhoods": [], "longitude": 8.39149, "state": "BW", "stars": 4.0, "latitude": 49.008, "attributes": {"Accepts Credit Cards": true, "Wi-Fi": "free", "Price Range": 3}, "type": "business"}
{"business_id": "kGQojQzVBP39GrQAN6fN7A", "full_address": "Sachsenstra\u00dfe 17\n76137 Karlsruhe", "hours": {}, "open": true, "categories": ["Food", "Bed & Breakfast", "Caterers", "Event Planning & Services", "Hotels & Travel", "Hotels"], "city": "Karlsruhe", "review_count": 4, "name": "Elite Hotel Garni", "neighborhoods": [], "longitude": 8.39155, "state": "BW", "stars": 4.5, "latitude": 48.99654, "attributes": {"Parking": {"garage": false, "validated": false, "street": false, "lot": false, "valet": false}, "Accepts Credit Cards": true, "Wheelchair Accessible": true, "Wi-Fi": "free", "Price Range": 2}, "type": "business"}
{"business_id": "Xf2k52tRHvLt5Ji6dZJMlQ", "full_address": "Kaiserstr. 76\n76133 Karlsruhe", "hours": {}, "open": true, "categories": ["Hotels & Travel", "Bed & Breakfast", "Event Planning & Services", "Hotels"], "city": "Karlsruhe", "review_count": 4, "name": "Hotel Am Markt", "neighborhoods": [], "longitude": 8.4038, "state": "BW", "stars": 3.5, "latitude": 49.00981, "attributes": {"Accepts Credit Cards": true, "Wi-Fi": "free", "Price Range": 2}, "type": "business"}
{"business_id": "nO9rhaYa9v6cRWly2PTldA", "full_address": "Kriegsstr. 90\n76133 Karlsruhe", "hours": {}, "open": true, "categories": ["Hotels & Travel", "Bed & Breakfast", "Event Planning & Services", "Hotels"], "city": "Karlsruhe", "review_count": 9, "name": "Blankenburg", "neighborhoods": [], "longitude": 8.407, "state": "BW", "stars": 3.5, "latitude": 49.0058, "attributes": {"Wi-Fi": "free", "Price Range": 2}, "type": "business"}
{"business_id": "nEbkDXjOoxlpIlPcwGXFXg", "full_address": "B\u00fcrgerstr. 4\nam Ludwigsplatz\n76133 Karlsruhe", "hours": {}, "open": true, "categories": ["Hotels & Travel", "Bed & Breakfast", "Event Planning & Services", "Hotels"], "city": "Karlsruhe", "review_count": 9, "name": "Alfa", "neighborhoods": [], "longitude": 8.393843, "state": "BW", "stars": 3.0, "latitude": 49.0067498, "attributes": {"Dogs Allowed": true, "Has TV": true, "Parking": {"garage": true, "validated": false, "street": false, "lot": false, "valet": false}, "Ambience": {"romantic": false, "intimate": false, "classy": false, "hipster": false, "divey": false, "touristy": false, "trendy": false, "upscale": false, "casual": false}, "Smoking": "no", "Wi-Fi": "free", "Price Range": 3}, "type": "business"}
{"business_id": "l_ctRdjXQPxLpr0GmQBLBA", "full_address": "Sophienstra\u00dfe 69-71\n76133 Karlsruhe", "hours": {}, "open": true, "categories": ["Hotels & Travel", "Bed & Breakfast", "Event Planning & Services", "Hotels"], "city": "Karlsruhe", "review_count": 5, "name": "acora Hotel und Wohnen Karlsruhe", "neighborhoods": [], "longitude": 8.383684, "state": "BW", "stars": 3.0, "latitude": 49.007925, "attributes": {"Accepts Credit Cards": true, "Wi-Fi": "paid", "Price Range": 2}, "type": "business"}
{"business_id": "9hws9grDsZHAnhWEl_RICA", "full_address": "Ziegelstr. 1\n76185 Karlsruhe", "hours": {}, "open": true, "categories": ["Active Life", "Climbing", "Arts & Entertainment", "Bed & Breakfast", "Hotels & Travel"], "city": "Karlsruhe", "review_count": 8, "name": "The Rock Kletterzentrum Karlsruhe", "neighborhoods": [], "longitude": 8.36151, "state": "BW", "stars": 5.0, "latitude": 49.0071, "attributes": {"Parking": {"garage": false, "validated": false, "street": false, "lot": false, "valet": false}, "Wheelchair Accessible": false, "Price Range": 3}, "type": "business"}
{"business_id": "ve7DN5QQtIx7mX2ZiBT3aw", "full_address": "Schenkendorfstr. 2\n76199 Karlsruhe", "hours": {}, "open": true, "categories": ["Hotels & Travel", "Bed & Breakfast"], "city": "Karlsruhe", "review_count": 6, "name": "Pension Anita Subeit", "neighborhoods": [], "longitude": 8.40514, "state": "BW", "stars": 5.0, "latitude": 48.9705, "attributes": {"Price Range": 1, "Dogs Allowed": false, "Parking": {"garage": false, "validated": false, "street": false, "lot": false, "valet": false}, "Smoking": "outdoor", "Wi-Fi": "no", "Wheelchair Accessible": false}, "type": "business"}
{"business_id": "kUsNaD4NZ1Gh_kDXjTq6GQ", "full_address": "Lessingstra\u00dfe 25\n76135 Karlsruhe", "hours": {}, "open": true, "categories": ["Hotels & Travel", "Bed & Breakfast"], "city": "Karlsruhe", "review_count": 4, "name": "bed & breakfast Privatzimmervermittlung", "neighborhoods": [], "longitude": 8.38526, "state": "BW", "stars": 3.0, "latitude": 49.0087, "attributes": {"Smoking": "no", "Parking": {"garage": false, "validated": false, "street": false, "lot": false, "valet": false}, "Dogs Allowed": false, "Price Range": 4}, "type": "business"}
{"business_id": "yzujxM_HrrNB3dri5SX18Q", "full_address": "Ettlinger Str.  1\n76307 Karlsbad", "hours": {"Monday": {"close": "23:00", "open": "11:30"}, "Tuesday": {"close": "23:00", "open": "11:30"}, "Friday": {"close": "23:00", "open": "11:30"}, "Wednesday": {"close": "23:00", "open": "11:30"}, "Thursday": {"close": "23:00", "open": "11:30"}, "Sunday": {"close": "23:00", "open": "11:30"}, "Saturday": {"close": "23:00", "open": "11:30"}}, "open": true, "categories": ["German", "Baden", "Bed & Breakfast", "Event Planning & Services", "Hotels & Travel", "Hotels", "Restaurants"], "city": "Karlsbad", "review_count": 7, "name": "Gr\u00fcner Baum", "neighborhoods": [], "longitude": 8.5057262, "state": "BW", "stars": 4.0, "latitude": 48.9168511, "attributes": {"Take-out": false, "Wi-Fi": "no", "Good For": {"dessert": false, "latenight": false, "lunch": false, "dinner": false, "breakfast": false, "brunch": false}, "Noise Level": "average", "Takes Reservations": true, "Smoking": "yes", "Delivery": false, "Dogs Allowed": false, "Parking": {"garage": false, "validated": false, "street": false, "lot": false, "valet": false}, "Wheelchair Accessible": false, "Outdoor Seating": true, "Attire": "casual", "Alcohol": "beer_and_wine", "Waiter Service": true, "Accepts Credit Cards": false, "Good For Groups": true, "Price Range": 2}, "type": "business"}
{"business_id": "ZWiVg5Q_omqipa9gLJfwzQ", "full_address": "Hirschstr. 34\n76133 Karlsruhe", "hours": {}, "open": true, "categories": ["Hotels & Travel", "Bed & Breakfast", "Event Planning & Services", "Hotels"], "city": "Karlsruhe", "review_count": 6, "name": "Ambassador", "neighborhoods": [], "longitude": 8.39149, "state": "BW", "stars": 4.0, "latitude": 49.008, "attributes": {"Accepts Credit Cards": true, "Wi-Fi": "free", "Price Range": 3}, "type": "business"}
{"business_id": "kGQojQzVBP39GrQAN6fN7A", "full_address": "Sachsenstra\u00dfe 17\n76137 Karlsruhe", "hours": {}, "open": true, "categories": ["Food", "Bed & Breakfast", "Caterers", "Event Planning & Services", "Hotels & Travel", "Hotels"], "city": "Karlsruhe", "review_count": 4, "name": "Elite Hotel Garni", "neighborhoods": [], "longitude": 8.39155, "state": "BW", "stars": 4.5, "latitude": 48.99654, "attributes": {"Parking": {"garage": false, "validated": false, "street": false, "lot": false, "valet": false}, "Accepts Credit Cards": true, "Wheelchair Accessible": true, "Wi-Fi": "free", "Price Range": 2}, "type": "business"}
{"business_id": "Xf2k52tRHvLt5Ji6dZJMlQ", "full_address": "Kaiserstr. 76\n76133 Karlsruhe", "hours": {}, "open": true, "categories": ["Hotels & Travel", "Bed & Breakfast", "Event Planning & Services", "Hotels"], "city": "Karlsruhe", "review_count": 4, "name": "Hotel Am Markt", "neighborhoods": [], "longitude": 8.4038, "state": "BW", "stars": 3.5, "latitude": 49.00981, "attributes": {"Accepts Credit Cards": true, "Wi-Fi": "free", "Price Range": 2}, "type": "business"}
{"business_id": "nO9rhaYa9v6cRWly2PTldA", "full_address": "Kriegsstr. 90\n76133 Karlsruhe", "hours": {}, "open": true, "categories": ["Hotels & Travel", "Bed & Breakfast", "Event Planning & Services", "Hotels"], "city": "Karlsruhe", "review_count": 9, "name": "Blankenburg", "neighborhoods": [], "longitude": 8.407, "state": "BW", "stars": 3.5, "latitude": 49.0058, "attributes": {"Wi-Fi": "free", "Price Range": 2}, "type": "business"}
{"business_id": "nEbkDXjOoxlpIlPcwGXFXg", "full_address": "B\u00fcrgerstr. 4\nam Ludwigsplatz\n76133 Karlsruhe", "hours": {}, "open": true, "categories": ["Hotels & Travel", "Bed & Breakfast", "Event Planning & Services", "Hotels"], "city": "Karlsruhe", "review_count": 9, "name": "Alfa", "neighborhoods": [], "longitude": 8.393843, "state": "BW", "stars": 3.0, "latitude": 49.0067498, "attributes": {"Dogs Allowed": true, "Has TV": true, "Parking": {"garage": true, "validated": false, "street": false, "lot": false, "valet": false}, "Ambience": {"romantic": false, "intimate": false, "classy": false, "hipster": false, "divey": false, "touristy": false, "trendy": false, "upscale": false, "casual": false}, "Smoking": "no", "Wi-Fi": "free", "Price Range": 3}, "type": "business"}
{"business_id": "l_ctRdjXQPxLpr0GmQBLBA", "full_address": "Sophienstra\u00dfe 69-71\n76133 Karlsruhe", "hours": {}, "open": true, "categories": ["Hotels & Travel", "Bed & Breakfast", "Event Planning & Services", "Hotels"], "city": "Karlsruhe", "review_count": 5, "name": "acora Hotel und Wohnen Karlsruhe", "neighborhoods": [], "longitude": 8.383684, "state": "BW", "stars": 3.0, "latitude": 49.007925, "attributes": {"Accepts Credit Cards": true, "Wi-Fi": "paid", "Price Range": 2}, "type": "business"}
{"business_id": "9hws9grDsZHAnhWEl_RICA", "full_address": "Ziegelstr. 1\n76185 Karlsruhe", "hours": {}, "open": true, "categories": ["Active Life", "Climbing", "Arts & Entertainment", "Bed & Breakfast", "Hotels & Travel"], "city": "Karlsruhe", "review_count": 8, "name": "The Rock Kletterzentrum Karlsruhe", "neighborhoods": [], "longitude": 8.36151, "state": "BW", "stars": 5.0, "latitude": 49.0071, "attributes": {"Parking": {"garage": false, "validated": false, "street": false, "lot": false, "valet": false}, "Wheelchair Accessible": false, "Price Range": 3}, "type": "business"}
{"business_id": "ve7DN5QQtIx7mX2ZiBT3aw", "full_address": "Schenkendorfstr. 2\n76199 Karlsruhe", "hours": {}, "open": true, "categories": ["Hotels & Travel", "Bed & Breakfast"], "city": "Karlsruhe", "review_count": 6, "name": "Pension Anita Subeit", "neighborhoods": [], "longitude": 8.40514, "state": "BW", "stars": 5.0, "latitude": 48.9705, "attributes": {"Price Range": 1, "Dogs Allowed": false, "Parking": {"garage": false, "validated": false, "street": false, "lot": false, "valet": false}, "Smoking": "outdoor", "Wi-Fi": "no", "Wheelchair Accessible": false}, "type": "business"}
{"business_id": "kUsNaD4NZ1Gh_kDXjTq6GQ", "full_address": "Lessingstra\u00dfe 25\n76135 Karlsruhe", "hours": {}, "open": true, "categories": ["Hotels & Travel", "Bed & Breakfast"], "city": "Karlsruhe", "review_count": 4, "name": "bed & breakfast Privatzimmervermittlung", "neighborhoods": [], "longitude": 8.38526, "state": "BW", "stars": 3.0, "latitude": 49.0087, "attributes": {"Smoking": "no", "Parking": {"garage": false, "validated": false, "street": false, "lot": false, "valet": false}, "Dogs Allowed": false, "Price Range": 4}, "type": "business"}
{"business_id": "yzujxM_HrrNB3dri5SX18Q", "full_address": "Ettlinger Str.  1\n76307 Karlsbad", "hours": {"Monday": {"close": "23:00", "open": "11:30"}, "Tuesday": {"close": "23:00", "open": "11:30"}, "Friday": {"close": "23:00", "open": "11:30"}, "Wednesday": {"close": "23:00", "open": "11:30"}, "Thursday": {"close": "23:00", "open": "11:30"}, "Sunday": {"close": "23:00", "open": "11:30"}, "Saturday": {"close": "23:00", "open": "11:30"}}, "open": true, "categories": ["German", "Baden", "Bed & Breakfast", "Event Planning & Services", "Hotels & Travel", "Hotels", "Restaurants"], "city": "Karlsbad", "review_count": 7, "name": "Gr\u00fcner Baum", "neighborhoods": [], "longitude": 8.5057262, "state": "BW", "stars": 4.0, "latitude": 48.9168511, "attributes": {"Take-out": false, "Wi-Fi": "no", "Good For": {"dessert": false, "latenight": false, "lunch": false, "dinner": false, "breakfast": false, "brunch": false}, "Noise Level": "average", "Takes Reservations": true, "Smoking": "yes", "Delivery": false, "Dogs Allowed": false, "Parking": {"garage": false, "validated": false, "street": false, "lot": false, "valet": false}, "Wheelchair Accessible": false, "Outdoor Seating": true, "Attire": "casual", "Alcohol": "beer_and_wine", "Waiter Service": true, "Accepts Credit Cards": false, "Good For Groups": true, "Price Range": 2}, "type": "business"}
{"business_id": "ZWiVg5Q_omqipa9gLJfwzQ", "full_address": "Hirschstr. 34\n76133 Karlsruhe", "hours": {}, "open": true, "categories": ["Hotels & Travel", "Bed & Breakfast", "Event Planning & Services", "Hotels"], "city": "Karlsruhe", "review_count": 6, "name": "Ambassador", "neighborhoods": [], "longitude": 8.39149, "state": "BW", "stars": 4.0, "latitude": 49.008, "attributes": {"Accepts Credit Cards": true, "Wi-Fi": "free", "Price Range": 3}, "type": "business"}
{"business_id": "kGQojQzVBP39GrQAN6fN7A", "full_address": "Sachsenstra\u00dfe 17\n76137 Karlsruhe", "hours": {}, "open": true, "categories": ["Food", "Bed & Breakfast", "Caterers", "Event Planning & Services", "Hotels & Travel", "Hotels"], "city": "Karlsruhe", "review_count": 4, "name": "Elite Hotel Garni", "neighborhoods": [], "longitude": 8.39155, "state": "BW", "stars": 4.5, "latitude": 48.99654, "attributes": {"Parking": {"garage": false, "validated": false, "street": false, "lot": false, "valet": false}, "Accepts Credit Cards": true, "Wheelchair Accessible": true, "Wi-Fi": "free", "Price Range": 2}, "type": "business"}
{"business_id": "Xf2k52tRHvLt5Ji6dZJMlQ", "full_address": "Kaiserstr. 76\n76133 Karlsruhe", "hours": {}, "open": true, "categories": ["Hotels & Travel", "Bed & Breakfast", "Event Planning & Services", "Hotels"], "city": "Karlsruhe", "review_count": 4, "name": "Hotel Am Markt", "neighborhoods": [], "longitude": 8.4038, "state": "BW", "stars": 3.5, "latitude": 49.00981, "attributes": {"Accepts Credit Cards": true, "Wi-Fi": "free", "Price Range": 2}, "type": "business"}
{"business_id": "nO9rhaYa9v6cRWly2PTldA", "full_address": "Kriegsstr. 90\n76133 Karlsruhe", "hours": {}, "open": true, "categories": ["Hotels & Travel", "Bed & Breakfast", "Event Planning & Services", "Hotels"], "city": "Karlsruhe", "review_count": 9, "name": "Blankenburg", "neighborhoods": [], "longitude": 8.407, "state": "BW", "stars": 3.5, "latitude": 49.0058, "attributes": {"Wi-Fi": "free", "Price Range": 2}, "type": "business"}
{"business_id": "nEbkDXjOoxlpIlPcwGXFXg", "full_address": "B\u00fcrgerstr. 4\nam Ludwigsplatz\n76133 Karlsruhe", "hours": {}, "open": true, "categories": ["Hotels & Travel", "Bed & Breakfast", "Event Planning & Services", "Hotels"], "city": "Karlsruhe", "review_count": 9, "name": "Alfa", "neighborhoods": [], "longitude": 8.393843, "state": "BW", "stars": 3.0, "latitude": 49.0067498, "attributes": {"Dogs Allowed": true, "Has TV": true, "Parking": {"garage": true, "validated": false, "street": false, "lot": false, "valet": false}, "Ambience": {"romantic": false, "intimate": false, "classy": false, "hipster": false, "divey": false, "touristy": false, "trendy": false, "upscale": false, "casual": false}, "Smoking": "no", "Wi-Fi": "free", "Price Range": 3}, "type": "business"}
{"business_id": "l_ctRdjXQPxLpr0GmQBLBA", "full_address": "Sophienstra\u00dfe 69-71\n76133 Karlsruhe", "hours": {}, "open": true, "categories": ["Hotels & Travel", "Bed & Breakfast", "Event Planning & Services", "Hotels"], "city": "Karlsruhe", "review_count": 5, "name": "acora Hotel und Wohnen Karlsruhe", "neighborhoods": [], "longitude": 8.383684, "state": "BW", "stars": 3.0, "latitude": 49.007925, "attributes": {"Accepts Credit Cards": true, "Wi-Fi": "paid", "Price Range": 2}, "type": "business"}
{"business_id": "9hws9grDsZHAnhWEl_RICA", "full_address": "Ziegelstr. 1\n76185 Karlsruhe", "hours": {}, "open": true, "categories": ["Active Life", "Climbing", "Arts & Entertainment", "Bed & Breakfast", "Hotels & Travel"], "city": "Karlsruhe", "review_count": 8, "name": "The Rock Kletterzentrum Karlsruhe", "neighborhoods": [], "longitude": 8.36151, "state": "BW", "stars": 5.0, "latitude": 49.0071, "attributes": {"Parking": {"garage": false, "validated": false, "street": false, "lot": false, "valet": false}, "Wheelchair Accessible": false, "Price Range": 3}, "type": "business"}
{"business_id": "ve7DN5QQtIx7mX2ZiBT3aw", "full_address": "Schenkendorfstr. 2\n76199 Karlsruhe", "hours": {}, "open": true, "categories": ["Hotels & Travel", "Bed & Breakfast"], "city": "Karlsruhe", "review_count": 6, "name": "Pension Anita Subeit", "neighborhoods": [], "longitude": 8.40514, "state": "BW", "stars": 5.0, "latitude": 48.9705, "attributes": {"Price Range": 1, "Dogs Allowed": false, "Parking": {"garage": false, "validated": false, "street": false, "lot": false, "valet": false}, "Smoking": "outdoor", "Wi-Fi": "no", "Wheelchair Accessible": false}, "type": "business"}
{"business_id": "kUsNaD4NZ1Gh_kDXjTq6GQ", "full_address": "Lessingstra\u00dfe 25\n76135 Karlsruhe", "hours": {}, "open": true, "categories": ["Hotels & Travel", "Bed & Breakfast"], "city": "Karlsruhe", "review_count": 4, "name": "bed & breakfast Privatzimmervermittlung", "neighborhoods": [], "longitude": 8.38526, "state": "BW", "stars": 3.0, "latitude": 49.0087, "attributes": {"Smoking": "no", "Parking": {"garage": false, "validated": false, "street": false, "lot": false, "valet": false}, "Dogs Allowed": false, "Price Range": 4}, "type": "business"}
{"business_id": "yzujxM_HrrNB3dri5SX18Q", "full_address": "Ettlinger Str.  1\n76307 Karlsbad", "hours": {"Monday": {"close": "23:00", "open": "11:30"}, "Tuesday": {"close": "23:00", "open": "11:30"}, "Friday": {"close": "23:00", "open": "11:30"}, "Wednesday": {"close": "23:00", "open": "11:30"}, "Thursday": {"close": "23:00", "open": "11:30"}, "Sunday": {"close": "23:00", "open": "11:30"}, "Saturday": {"close": "23:00", "open": "11:30"}}, "open": true, "categories": ["German", "Baden", "Bed & Breakfast", "Event Planning & Services", "Hotels & Travel", "Hotels", "Restaurants"], "city": "Karlsbad", "review_count": 7, "name": "Gr\u00fcner Baum", "neighborhoods": [], "longitude": 8.5057262, "state": "BW", "stars": 4.0, "latitude": 48.9168511, "attributes": {"Take-out": false, "Wi-Fi": "no", "Good For": {"dessert": false, "latenight": false, "lunch": false, "dinner": false, "breakfast": false, "brunch": false}, "Noise Level": "average", "Takes Reservations": true, "Smoking": "yes", "Delivery": false, "Dogs Allowed": false, "Parking": {"garage": false, "validated": false, "street": false, "lot": false, "valet": false}, "Wheelchair Accessible": false, "Outdoor Seating": true, "Attire": "casual", "Alcohol": "beer_and_wine", "Waiter Service": true, "Accepts Credit Cards": false, "Good For Groups": true, "Price Range": 2}, "type": "business"}
{"business_id": "ZWiVg5Q_omqipa9gLJfwzQ", "full_address": "Hirschstr. 34\n76133 Karlsruhe", "hours": {}, "open": true, "categories": ["Hotels & Travel", "Bed & Breakfast", "Event Planning & Services", "Hotels"], "city": "Karlsruhe", "review_count": 6, "name": "Ambassador", "neighborhoods": [], "longitude": 8.39149, "state": "BW", "stars": 4.0, "latitude": 49.008, "attributes": {"Accepts Credit Cards": true, "Wi-Fi": "free", "Price Range": 3}, "type": "business"}
{"business_id": "kGQojQzVBP39GrQAN6fN7A", "full_address": "Sachsenstra\u00dfe 17\n76137 Karlsruhe", "hours": {}, "open": true, "categories": ["Food", "Bed & Breakfast", "Caterers", "Event Planning & Services", "Hotels & Travel", "Hotels"], "city": "Karlsruhe", "review_count": 4, "name": "Elite Hotel Garni", "neighborhoods": [], "longitude": 8.39155, "state": "BW", "stars": 4.5, "latitude": 48.99654, "attributes": {"Parking": {"garage": false, "validated": false, "street": false, "lot": false, "valet": false}, "Accepts Credit Cards": true, "Wheelchair Accessible": true, "Wi-Fi": "free", "Price Range": 2}, "type": "business"}
{"business_id": "Xf2k52tRHvLt5Ji6dZJMlQ", "full_address": "Kaiserstr. 76\n76133 Karlsruhe", "hours": {}, "open": true, "categories": ["Hotels & Travel", "Bed & Breakfast", "Event Planning & Services", "Hotels"], "city": "Karlsruhe", "review_count": 4, "name": "Hotel Am Markt", "neighborhoods": [], "longitude": 8.4038, "state": "BW", "stars": 3.5, "latitude": 49.00981, "attributes": {"Accepts Credit Cards": true, "Wi-Fi": "free", "Price Range": 2}, "type": "business"}
{"business_id": "nO9rhaYa9v6cRWly2PTldA", "full_address": "Kriegsstr. 90\n76133 Karlsruhe", "hours": {}, "open": true, "categories": ["Hotels & Travel", "Bed & Breakfast", "Event Planning & Services", "Hotels"], "city": "Karlsruhe", "review_count": 9, "name": "Blankenburg", "neighborhoods": [], "longitude": 8.407, "state": "BW", "stars": 3.5, "latitude": 49.0058, "attributes": {"Wi-Fi": "free", "Price Range": 2}, "type": "business"}
{"business_id": "nEbkDXjOoxlpIlPcwGXFXg", "full_address": "B\u00fcrgerstr. 4\nam Ludwigsplatz\n76133 Karlsruhe", "hours": {}, "open": true, "categories": ["Hotels & Travel", "Bed & Breakfast", "Event Planning & Services", "Hotels"], "city": "Karlsruhe", "review_count": 9, "name": "Alfa", "neighborhoods": [], "longitude": 8.393843, "state": "BW", "stars": 3.0, "latitude": 49.0067498, "attributes": {"Dogs Allowed": true, "Has TV": true, "Parking": {"garage": true, "validated": false, "street": false, "lot": false, "valet": false}, "Ambience": {"romantic": false, "intimate": false, "classy": false, "hipster": false, "divey": false, "touristy": false, "trendy": false, "upscale": false, "casual": false}, "Smoking": "no", "Wi-Fi": "free", "Price Range": 3}, "type": "business"}
{"business_id": "l_ctRdjXQPxLpr0GmQBLBA", "full_address": "Sophienstra\u00dfe 69-71\n76133 Karlsruhe", "hours": {}, "open": true, "categories": ["Hotels & Travel", "Bed & Breakfast", "Event Planning & Services", "Hotels"], "city": "Karlsruhe", "review_count": 5, "name": "acora Hotel und Wohnen Karlsruhe", "neighborhoods": [], "longitude": 8.383684, "state": "BW", "stars": 3.0, "latitude": 49.007925, "attributes": {"Accepts Credit Cards": true, "Wi-Fi": "paid", "Price Range": 2}, "type": "business"}
{"business_id": "9hws9grDsZHAnhWEl_RICA", "full_address": "Ziegelstr. 1\n76185 Karlsruhe", "hours": {}, "open": true, "categories": ["Active Life", "Climbing", "Arts & Entertainment", "Bed & Breakfast", "Hotels & Travel"], "city": "Karlsruhe", "review_count": 8, "name": "The Rock Kletterzentrum Karlsruhe", "neighborhoods": [], "longitude": 8.36151, "state": "BW", "stars": 5.0, "latitude": 49.0071, "attributes": {"Parking": {"garage": false, "validated": false, "street": false, "lot": false, "valet": false}, "Wheelchair Accessible": false, "Price Range": 3}, "type": "business"}
{"business_id": "ve7DN5QQtIx7mX2ZiBT3aw", "full_address": "Schenkendorfstr. 2\n76199 Karlsruhe", "hours": {}, "open": true, "categories": ["Hotels & Travel", "Bed & Breakfast"], "city": "Karlsruhe", "review_count": 6, "name": "Pension Anita Subeit", "neighborhoods": [], "longitude": 8.40514, "state": "BW", "stars": 5.0, "latitude": 48.9705, "attributes": {"Price Range": 1, "Dogs Allowed": false, "Parking": {"garage": false, "validated": false, "street": false, "lot": false, "valet": false}, "Smoking": "outdoor", "Wi-Fi": "no", "Wheelchair Accessible": false}, "type": "business"}
{"business_id": "kUsNaD4NZ1Gh_kDXjTq6GQ", "full_address": "Lessingstra\u00dfe 25\n76135 Karlsruhe", "hours": {}, "open": true, "categories": ["Hotels & Travel", "Bed & Breakfast"], "city": "Karlsruhe", "review_count": 4, "name": "bed & breakfast Privatzimmervermittlung", "neighborhoods": [], "longitude": 8.38526, "state": "BW", "stars": 3.0, "latitude": 49.0087, "attributes": {"Smoking": "no", "Parking": {"garage": false, "validated": false, "street": false, "lot": false, "valet": false}, "Dogs Allowed": false, "Price Range": 4}, "type": "business"}
{"business_id": "yzujxM_HrrNB3dri5SX18Q", "full_address": "Ettlinger Str.  1\n76307 Karlsbad", "hours": {"Monday": {"close": "23:00", "open": "11:30"}, "Tuesday": {"close": "23:00", "open": "11:30"}, "Friday": {"close": "23:00", "open": "11:30"}, "Wednesday": {"close": "23:00", "open": "11:30"}, "Thursday": {"close": "23:00", "open": "11:30"}, "Sunday": {"close": "23:00", "open": "11:30"}, "Saturday": {"close": "23:00", "open": "11:30"}}, "open": true, "categories": ["German", "Baden", "Bed & Breakfast", "Event Planning & Services", "Hotels & Travel", "Hotels", "Restaurants"], "city": "Karlsbad", "review_count": 7, "name": "Gr\u00fcner Baum", "neighborhoods": [], "longitude": 8.5057262, "state": "BW", "stars": 4.0, "latitude": 48.9168511, "attributes": {"Take-out": false, "Wi-Fi": "no", "Good For": {"dessert": false, "latenight": false, "lunch": false, "dinner": false, "breakfast": false, "brunch": false}, "Noise Level": "average", "Takes Reservations": true, "Smoking": "yes", "Delivery": false, "Dogs Allowed": false, "Parking": {"garage": false, "validated": false, "street": false, "lot": false, "valet": false}, "Wheelchair Accessible": false, "Outdoor Seating": true, "Attire": "casual", "Alcohol": "beer_and_wine", "Waiter Service": true, "Accepts Credit Cards": false, "Good For Groups": true, "Price Range": 2}, "type": "business"}
{"business_id": "ZWiVg5Q_omqipa9gLJfwzQ", "full_address": "Hirschstr. 34\n76133 Karlsruhe", "hours": {}, "open": true, "categories": ["Hotels & Travel", "Bed & Breakfast", "Event Planning & Services", "Hotels"], "city": "Karlsruhe", "review_count": 6, "name": "Ambassador", "neighborhoods": [], "longitude": 8.39149, "state": "BW", "stars": 4.0, "latitude": 49.008, "attributes": {"Accepts Credit Cards": true, "Wi-Fi": "free", "Price Range": 3}, "type": "business"}
{"business_id": "kGQojQzVBP39GrQAN6fN7A", "full_address": "Sachsenstra\u00dfe 17\n76137 Karlsruhe", "hours": {}, "open": true, "categories": ["Food", "Bed & Breakfast", "Caterers", "Event Planning & Services", "Hotels & Travel", "Hotels"], "city": "Karlsruhe", "review_count": 4, "name": "Elite Hotel Garni", "neighborhoods": [], "longitude": 8.39155, "state": "BW", "stars": 4.5, "latitude": 48.99654, "attributes": {"Parking": {"garage": false, "validated": false, "street": false, "lot": false, "valet": false}, "Accepts Credit Cards": true, "Wheelchair Accessible": true, "Wi-Fi": "free", "Price Range": 2}, "type": "business"}
{"business_id": "Xf2k52tRHvLt5Ji6dZJMlQ", "full_address": "Kaiserstr. 76\n76133 Karlsruhe", "hours": {}, "open": true, "categories": ["Hotels & Travel", "Bed & Breakfast", "Event Planning & Services", "Hotels"], "city": "Karlsruhe", "review_count": 4, "name": "Hotel Am Markt", "neighborhoods": [], "longitude": 8.4038, "state": "BW", "stars": 3.5, "latitude": 49.00981, "attributes": {"Accepts Credit Cards": true, "Wi-Fi": "free", "Price Range": 2}, "type": "business"}
{"business_id": "nO9rhaYa9v6cRWly2PTldA", "full_address": "Kriegsstr. 90\n76133 Karlsruhe", "hours": {}, "open": true, "categories": ["Hotels & Travel", "Bed & Breakfast", "Event Planning & Services", "Hotels"], "city": "Karlsruhe", "review_count": 9, "name": "Blankenburg", "neighborhoods": [], "longitude": 8.407, "state": "BW", "stars": 3.5, "latitude": 49.0058, "attributes": {"Wi-Fi": "free", "Price Range": 2}, "type": "business"}
{"business_id": "nEbkDXjOoxlpIlPcwGXFXg", "full_address": "B\u00fcrgerstr. 4\nam Ludwigsplatz\n76133 Karlsruhe", "hours": {}, "open": true, "categories": ["Hotels & Travel", "Bed & Breakfast", "Event Planning & Services", "Hotels"], "city": "Karlsruhe", "review_count": 9, "name": "Alfa", "neighborhoods": [], "longitude": 8.393843, "state": "BW", "stars": 3.0, "latitude": 49.0067498, "attributes": {"Dogs Allowed": true, "Has TV": true, "Parking": {"garage": true, "validated": false, "street": false, "lot": false, "valet": false}, "Ambience": {"romantic": false, "intimate": false, "classy": false, "hipster": false, "divey": false, "touristy": false, "trendy": false, "upscale": false, "casual": false}, "Smoking": "no", "Wi-Fi": "free", "Price Range": 3}, "type": "business"}
{"business_id": "l_ctRdjXQPxLpr0GmQBLBA", "full_address": "Sophienstra\u00dfe 69-71\n76133 Karlsruhe", "hours": {}, "open": true, "categories": ["Hotels & Travel", "Bed & Breakfast", "Event Planning & Services", "Hotels"], "city": "Karlsruhe", "review_count": 5, "name": "acora Hotel und Wohnen Karlsruhe", "neighborhoods": [], "longitude": 8.383684, "state": "BW", "stars": 3.0, "latitude": 49.007925, "attributes": {"Accepts Credit Cards": true, "Wi-Fi": "paid", "Price Range": 2}, "type": "business"}
{"business_id": "9hws9grDsZHAnhWEl_RICA", "full_address": "Ziegelstr. 1\n76185 Karlsruhe", "hours": {}, "open": true, "categories": ["Active Life", "Climbing", "Arts & Entertainment", "Bed & Breakfast", "Hotels & Travel"], "city": "Karlsruhe", "review_count": 8, "name": "The Rock Kletterzentrum Karlsruhe", "neighborhoods": [], "longitude": 8.36151, "state": "BW", "stars": 5.0, "latitude": 49.0071, "attributes": {"Parking": {"garage": false, "validated": false, "street": false, "lot": false, "valet": false}, "Wheelchair Accessible": false, "Price Range": 3}, "type": "business"}
{"business_id": "ve7DN5QQtIx7mX2ZiBT3aw", "full_address": "Schenkendorfstr. 2\n76199 Karlsruhe", "hours": {}, "open": true, "categories": ["Hotels & Travel", "Bed & Breakfast"], "city": "Karlsruhe", "review_count": 6, "name": "Pension Anita Subeit", "neighborhoods": [], "longitude": 8.40514, "state": "BW", "stars": 5.0, "latitude": 48.9705, "attributes": {"Price Range": 1, "Dogs Allowed": false, "Parking": {"garage": false, "validated": false, "street": false, "lot": false, "valet": false}, "Smoking": "outdoor", "Wi-Fi": "no", "Wheelchair Accessible": false}, "type": "business"}
{"business_id": "kUsNaD4NZ1Gh_kDXjTq6GQ", "full_address": "Lessingstra\u00dfe 25\n76135 Karlsruhe", "hours": {}, "open": true, "categories": ["Hotels & Travel", "Bed & Breakfast"], "city": "Karlsruhe", "review_count": 4, "name": "bed & breakfast Privatzimmervermittlung", "neighborhoods": [], "longitude": 8.38526, "state": "BW", "stars": 3.0, "latitude": 49.0087, "attributes": {"Smoking": "no", "Parking": {"garage": false, "validated": false, "street": false, "lot": false, "valet": false}, "Dogs Allowed": false, "Price Range": 4}, "type": "business"}
