{"business_id": "LHpVi4iGxtiVEOXH6vEF7w", "full_address": "Benzstr. 1\n76448 Durmersheim", "hours": {}, "open": true, "categories": ["Food", "Beverage Store"], "city": "Durmersheim", "review_count": 3, "name": "Getr\u00e4nke Huditz", "neighborhoods": [], "longitude": 8.25447, "state": "BW", "stars": 5.0, "latitude": 48.9417, "attributes": {"Parking": {"garage": false, "street": false, "validated": false, "lot": false, "valet": false}, "Price Range": 2}, "type": "business"}
{"business_id": "eMwVhYxZ7FKYPoatICELjw", "full_address": "Waldstr. 56\n76133 Karlsruhe", "hours": {}, "open": true, "categories": ["Food", "Beverage Store"], "city": "Karlsruhe", "review_count": 4, "name": "Saftladen", "neighborhoods": [], "longitude": 8.39246, "state": "BW", "stars": 4.5, "latitude": 49.0074, "attributes": {"Price Range": 2}, "type": "business"}
{"business_id": "bhwbuKiu0f6FdhAx6_hgVQ", "full_address": "Theodorf-Rehbockstr. 11\n76131 Karlsruhe", "hours": {"Monday": {"close": "22:00", "open": "07:00"}, "Tuesday": {"close": "22:00", "open": "07:00"}, "Friday": {"close": "22:00", "open": "07:00"}, "Wednesday": {"close": "22:00", "open": "07:00"}, "Thursday": {"close": "22:00", "open": "07:00"}, "Saturday": {"close": "22:00", "open": "07:00"}}, "open": true, "categories": ["Food", "Grocery", "Beverage Store"], "city": "Karlsruhe", "review_count": 4, "name": "REWE", "neighborhoods": [], "longitude": 8.43855, "state": "BW", "stars": 3.5, "latitude": 49.00982, "attributes": {"Parking": {"garage": false, "street": false, "validated": false, "lot": false, "valet": false}, "Accepts Credit Cards": true, "Price Range": 2}, "type": "business"}
{"business_id": "hUpQanrrN-jdyfB-4hUJOA", "full_address": "Jollystra\u00dfe 51-53\n76137 Karlsruhe", "hours": {"Monday": {"close": "00:00", "open": "00:00"}, "Tuesday": {"close": "19:00", "open": "15:00"}, "Friday": {"close": "19:00", "open": "15:00"}, "Wednesday": {"close": "19:00", "open": "15:00"}, "Thursday": {"close": "19:00", "open": "15:00"}, "Saturday": {"close": "00:00", "open": "00:00"}}, "open": false, "categories": ["Food", "Beverage Store"], "city": "Karlsruhe", "review_count": 3, "name": "Jolly Station Getr\u00e4nkeservice", "neighborhoods": [], "longitude": 8.3888723, "state": "BW", "stars": 3.5, "latitude": 49.0034716, "attributes": {"Parking": {"garage": false, "validated": false, "street": false, "lot": false, "valet": false}, "Wheelchair Accessible": true, "Price Range": 1}, "type": "business"}
{"business_id": "CDjAcUDYcvYCFvMYE3L4Pg", "full_address": "Georg-Friedrich-Str. 9\n76131 Karlsruhe", "hours": {"Monday": {"close": "22:00", "open": "07:00"}, "Tuesday": {"close": "22:00", "open": "07:00"}, "Friday": {"close": "22:00", "open": "07:00"}, "Wednesday": {"close": "22:00", "open": "07:00"}, "Thursday": {"close": "22:00", "open": "07:00"}, "Saturday": {"close": "22:00", "open": "07:00"}}, "open": true, "categories": ["Food", "Grocery", "Beverage Store"], "city": "Karlsruhe", "review_count": 3, "name": "REWE City", "neighborhoods": [], "longitude": 8.4237798, "state": "BW", "stars": 1.5, "latitude": 49.0097022, "attributes": {"Parking": {}, "Accepts Credit Cards": true, "Price Range": 2}, "type": "business"}
{"business_id": "LHpVi4iGxtiVEOXH6vEF7w", "full_address": "Benzstr. 1\n76448 Durmersheim", "hours": {}, "open": true, "categories": ["Food", "Beverage Store"], "city": "Durmersheim", "review_count": 3, "name": "Getr\u00e4nke Huditz", "neighborhoods": [], "longitude": 8.25447, "state": "BW", "stars": 5.0, "latitude": 48.9417, "attributes": {"Parking": {"garage": false, "street": false, "validated": false, "lot": false, "valet": false}, "Price Range": 2}, "type": "business"}
{"business_id": "eMwVhYxZ7FKYPoatICELjw", "full_address": "Waldstr. 56\n76133 Karlsruhe", "hours": {}, "open": true, "categories": ["Food", "Beverage Store"], "city": "Karlsruhe", "review_count": 4, "name": "Saftladen", "neighborhoods": [], "longitude": 8.39246, "state": "BW", "stars": 4.5, "latitude": 49.0074, "attributes": {"Price Range": 2}, "type": "business"}
{"business_id": "bhwbuKiu0f6FdhAx6_hgVQ", "full_address": "Theodorf-Rehbockstr. 11\n76131 Karlsruhe", "hours": {"Monday": {"close": "22:00", "open": "07:00"}, "Tuesday": {"close": "22:00", "open": "07:00"}, "Friday": {"close": "22:00", "open": "07:00"}, "Wednesday": {"close": "22:00", "open": "07:00"}, "Thursday": {"close": "22:00", "open": "07:00"}, "Saturday": {"close": "22:00", "open": "07:00"}}, "open": true, "categories": ["Food", "Grocery", "Beverage Store"], "city": "Karlsruhe", "review_count": 4, "name": "REWE", "neighborhoods": [], "longitude": 8.43855, "state": "BW", "stars": 3.5, "latitude": 49.00982, "attributes": {"Parking": {"garage": false, "street": false, "validated": false, "lot": false, "valet": false}, "Accepts Credit Cards": true, "Price Range": 2}, "type": "business"}
{"business_id": "hUpQanrrN-jdyfB-4hUJOA", "full_address": "Jollystra\u00dfe 51-53\n76137 Karlsruhe", "hours": {"Monday": {"close": "00:00", "open": "00:00"}, "Tuesday": {"close": "19:00", "open": "15:00"}, "Friday": {"close": "19:00", "open": "15:00"}, "Wednesday": {"close": "19:00", "open": "15:00"}, "Thursday": {"close": "19:00", "open": "15:00"}, "Saturday": {"close": "00:00", "open": "00:00"}}, "open": false, "categories": ["Food", "Beverage Store"], "city": "Karlsruhe", "review_count": 3, "name": "Jolly Station Getr\u00e4nkeservice", "neighborhoods": [], "longitude": 8.3888723, "state": "BW", "stars": 3.5, "latitude": 49.0034716, "attributes": {"Parking": {"garage": false, "validated": false, "street": false, "lot": false, "valet": false}, "Wheelchair Accessible": true, "Price Range": 1}, "type": "business"}
{"business_id": "CDjAcUDYcvYCFvMYE3L4Pg", "full_address": "Georg-Friedrich-Str. 9\n76131 Karlsruhe", "hours": {"Monday": {"close": "22:00", "open": "07:00"}, "Tuesday": {"close": "22:00", "open": "07:00"}, "Friday": {"close": "22:00", "open": "07:00"}, "Wednesday": {"close": "22:00", "open": "07:00"}, "Thursday": {"close": "22:00", "open": "07:00"}, "Saturday": {"close": "22:00", "open": "07:00"}}, "open": true, "categories": ["Food", "Grocery", "Beverage Store"], "city": "Karlsruhe", "review_count": 3, "name": "REWE City", "neighborhoods": [], "longitude": 8.4237798, "state": "BW", "stars": 1.5, "latitude": 49.0097022, "attributes": {"Parking": {}, "Accepts Credit Cards": true, "Price Range": 2}, "type": "business"}
{"business_id": "LHpVi4iGxtiVEOXH6vEF7w", "full_address": "Benzstr. 1\n76448 Durmersheim", "hours": {}, "open": true, "categories": ["Food", "Beverage Store"], "city": "Durmersheim", "review_count": 3, "name": "Getr\u00e4nke Huditz", "neighborhoods": [], "longitude": 8.25447, "state": "BW", "stars": 5.0, "latitude": 48.9417, "attributes": {"Parking": {"garage": false, "street": false, "validated": false, "lot": false, "valet": false}, "Price Range": 2}, "type": "business"}
{"business_id": "eMwVhYxZ7FKYPoatICELjw", "full_address": "Waldstr. 56\n76133 Karlsruhe", "hours": {}, "open": true, "categories": ["Food", "Beverage Store"], "city": "Karlsruhe", "review_count": 4, "name": "Saftladen", "neighborhoods": [], "longitude": 8.39246, "state": "BW", "stars": 4.5, "latitude": 49.0074, "attributes": {"Price Range": 2}, "type": "business"}
{"business_id": "bhwbuKiu0f6FdhAx6_hgVQ", "full_address": "Theodorf-Rehbockstr. 11\n76131 Karlsruhe", "hours": {"Monday": {"close": "22:00", "open": "07:00"}, "Tuesday": {"close": "22:00", "open": "07:00"}, "Friday": {"close": "22:00", "open": "07:00"}, "Wednesday": {"close": "22:00", "open": "07:00"}, "Thursday": {"close": "22:00", "open": "07:00"}, "Saturday": {"close": "22:00", "open": "07:00"}}, "open": true, "categories": ["Food", "Grocery", "Beverage Store"], "city": "Karlsruhe", "review_count": 4, "name": "REWE", "neighborhoods": [], "longitude": 8.43855, "state": "BW", "stars": 3.5, "latitude": 49.00982, "attributes": {"Parking": {"garage": false, "street": false, "validated": false, "lot": false, "valet": false}, "Accepts Credit Cards": true, "Price Range": 2}, "type": "business"}
{"business_id": "hUpQanrrN-jdyfB-4hUJOA", "full_address": "Jollystra\u00dfe 51-53\n76137 Karlsruhe", "hours": {"Monday": {"close": "00:00", "open": "00:00"}, "Tuesday": {"close": "19:00", "open": "15:00"}, "Friday": {"close": "19:00", "open": "15:00"}, "Wednesday": {"close": "19:00", "open": "15:00"}, "Thursday": {"close": "19:00", "open": "15:00"}, "Saturday": {"close": "00:00", "open": "00:00"}}, "open": false, "categories": ["Food", "Beverage Store"], "city": "Karlsruhe", "review_count": 3, "name": "Jolly Station Getr\u00e4nkeservice", "neighborhoods": [], "longitude": 8.3888723, "state": "BW", "stars": 3.5, "latitude": 49.0034716, "attributes": {"Parking": {"garage": false, "validated": false, "street": false, "lot": false, "valet": false}, "Wheelchair Accessible": true, "Price Range": 1}, "type": "business"}
{"business_id": "CDjAcUDYcvYCFvMYE3L4Pg", "full_address": "Georg-Friedrich-Str. 9\n76131 Karlsruhe", "hours": {"Monday": {"close": "22:00", "open": "07:00"}, "Tuesday": {"close": "22:00", "open": "07:00"}, "Friday": {"close": "22:00", "open": "07:00"}, "Wednesday": {"close": "22:00", "open": "07:00"}, "Thursday": {"close": "22:00", "open": "07:00"}, "Saturday": {"close": "22:00", "open": "07:00"}}, "open": true, "categories": ["Food", "Grocery", "Beverage Store"], "city": "Karlsruhe", "review_count": 3, "name": "REWE City", "neighborhoods": [], "longitude": 8.4237798, "state": "BW", "stars": 1.5, "latitude": 49.0097022, "attributes": {"Parking": {}, "Accepts Credit Cards": true, "Price Range": 2}, "type": "business"}
{"business_id": "LHpVi4iGxtiVEOXH6vEF7w", "full_address": "Benzstr. 1\n76448 Durmersheim", "hours": {}, "open": true, "categories": ["Food", "Beverage Store"], "city": "Durmersheim", "review_count": 3, "name": "Getr\u00e4nke Huditz", "neighborhoods": [], "longitude": 8.25447, "state": "BW", "stars": 5.0, "latitude": 48.9417, "attributes": {"Parking": {"garage": false, "street": false, "validated": false, "lot": false, "valet": false}, "Price Range": 2}, "type": "business"}
{"business_id": "eMwVhYxZ7FKYPoatICELjw", "full_address": "Waldstr. 56\n76133 Karlsruhe", "hours": {}, "open": true, "categories": ["Food", "Beverage Store"], "city": "Karlsruhe", "review_count": 4, "name": "Saftladen", "neighborhoods": [], "longitude": 8.39246, "state": "BW", "stars": 4.5, "latitude": 49.0074, "attributes": {"Price Range": 2}, "type": "business"}
{"business_id": "bhwbuKiu0f6FdhAx6_hgVQ", "full_address": "Theodorf-Rehbockstr. 11\n76131 Karlsruhe", "hours": {"Monday": {"close": "22:00", "open": "07:00"}, "Tuesday": {"close": "22:00", "open": "07:00"}, "Friday": {"close": "22:00", "open": "07:00"}, "Wednesday": {"close": "22:00", "open": "07:00"}, "Thursday": {"close": "22:00", "open": "07:00"}, "Saturday": {"close": "22:00", "open": "07:00"}}, "open": true, "categories": ["Food", "Grocery", "Beverage Store"], "city": "Karlsruhe", "review_count": 4, "name": "REWE", "neighborhoods": [], "longitude": 8.43855, "state": "BW", "stars": 3.5, "latitude": 49.00982, "attributes": {"Parking": {"garage": false, "street": false, "validated": false, "lot": false, "valet": false}, "Accepts Credit Cards": true, "Price Range": 2}, "type": "business"}
{"business_id": "hUpQanrrN-jdyfB-4hUJOA", "full_address": "Jollystra\u00dfe 51-53\n76137 Karlsruhe", "hours": {"Monday": {"close": "00:00", "open": "00:00"}, "Tuesday": {"close": "19:00", "open": "15:00"}, "Friday": {"close": "19:00", "open": "15:00"}, "Wednesday": {"close": "19:00", "open": "15:00"}, "Thursday": {"close": "19:00", "open": "15:00"}, "Saturday": {"close": "00:00", "open": "00:00"}}, "open": false, "categories": ["Food", "Beverage Store"], "city": "Karlsruhe", "review_count": 3, "name": "Jolly Station Getr\u00e4nkeservice", "neighborhoods": [], "longitude": 8.3888723, "state": "BW", "stars": 3.5, "latitude": 49.0034716, "attributes": {"Parking": {"garage": false, "validated": false, "street": false, "lot": false, "valet": false}, "Wheelchair Accessible": true, "Price Range": 1}, "type": "business"}
{"business_id": "CDjAcUDYcvYCFvMYE3L4Pg", "full_address": "Georg-Friedrich-Str. 9\n76131 Karlsruhe", "hours": {"Monday": {"close": "22:00", "open": "07:00"}, "Tuesday": {"close": "22:00", "open": "07:00"}, "Friday": {"close": "22:00", "open": "07:00"}, "Wednesday": {"close": "22:00", "open": "07:00"}, "Thursday": {"close": "22:00", "open": "07:00"}, "Saturday": {"close": "22:00", "open": "07:00"}}, "open": true, "categories": ["Food", "Grocery", "Beverage Store"], "city": "Karlsruhe", "review_count": 3, "name": "REWE City", "neighborhoods": [], "longitude": 8.4237798, "state": "BW", "stars": 1.5, "latitude": 49.0097022, "attributes": {"Parking": {}, "Accepts Credit Cards": true, "Price Range": 2}, "type": "business"}
{"business_id": "LHpVi4iGxtiVEOXH6vEF7w", "full_address": "Benzstr. 1\n76448 Durmersheim", "hours": {}, "open": true, "categories": ["Food", "Beverage Store"], "city": "Durmersheim", "review_count": 3, "name": "Getr\u00e4nke Huditz", "neighborhoods": [], "longitude": 8.25447, "state": "BW", "stars": 5.0, "latitude": 48.9417, "attributes": {"Parking": {"garage": false, "street": false, "validated": false, "lot": false, "valet": false}, "Price Range": 2}, "type": "business"}
{"business_id": "eMwVhYxZ7FKYPoatICELjw", "full_address": "Waldstr. 56\n76133 Karlsruhe", "hours": {}, "open": true, "categories": ["Food", "Beverage Store"], "city": "Karlsruhe", "review_count": 4, "name": "Saftladen", "neighborhoods": [], "longitude": 8.39246, "state": "BW", "stars": 4.5, "latitude": 49.0074, "attributes": {"Price Range": 2}, "type": "business"}
{"business_id": "bhwbuKiu0f6FdhAx6_hgVQ", "full_address": "Theodorf-Rehbockstr. 11\n76131 Karlsruhe", "hours": {"Monday": {"close": "22:00", "open": "07:00"}, "Tuesday": {"close": "22:00", "open": "07:00"}, "Friday": {"close": "22:00", "open": "07:00"}, "Wednesday": {"close": "22:00", "open": "07:00"}, "Thursday": {"close": "22:00", "open": "07:00"}, "Saturday": {"close": "22:00", "open": "07:00"}}, "open": true, "categories": ["Food", "Grocery", "Beverage Store"], "city": "Karlsruhe", "review_count": 4, "name": "REWE", "neighborhoods": [], "longitude": 8.43855, "state": "BW", "stars": 3.5, "latitude": 49.00982, "attributes": {"Parking": {"garage": false, "street": false, "validated": false, "lot": false, "valet": false}, "Accepts Credit Cards": true, "Price Range": 2}, "type": "business"}
{"business_id": "hUpQanrrN-jdyfB-4hUJOA", "full_address": "Jollystra\u00dfe 51-53\n76137 Karlsruhe", "hours": {"Monday": {"close": "00:00", "open": "00:00"}, "Tuesday": {"close": "19:00", "open": "15:00"}, "Friday": {"close": "19:00", "open": "15:00"}, "Wednesday": {"close": "19:00", "open": "15:00"}, "Thursday": {"close": "19:00", "open": "15:00"}, "Saturday": {"close": "00:00", "open": "00:00"}}, "open": false, "categories": ["Food", "Beverage Store"], "city": "Karlsruhe", "review_count": 3, "name": "Jolly Station Getr\u00e4nkeservice", "neighborhoods": [], "longitude": 8.3888723, "state": "BW", "stars": 3.5, "latitude": 49.0034716, "attributes": {"Parking": {"garage": false, "validated": false, "street": false, "lot": false, "valet": false}, "Wheelchair Accessible": true, "Price Range": 1}, "type": "business"}
{"business_id": "CDjAcUDYcvYCFvMYE3L4Pg", "full_address": "Georg-Friedrich-Str. 9\n76131 Karlsruhe", "hours": {"Monday": {"close": "22:00", "open": "07:00"}, "Tuesday": {"close": "22:00", "open": "07:00"}, "Friday": {"close": "22:00", "open": "07:00"}, "Wednesday": {"close": "22:00", "open": "07:00"}, "Thursday": {"close": "22:00", "open": "07:00"}, "Saturday": {"close": "22:00", "open": "07:00"}}, "open": true, "categories": ["Food", "Grocery", "Beverage Store"], "city": "Karlsruhe", "review_count": 3, "name": "REWE City", "neighborhoods": [], "longitude": 8.4237798, "state": "BW", "stars": 1.5, "latitude": 49.0097022, "attributes": {"Parking": {}, "Accepts Credit Cards": true, "Price Range": 2}, "type": "business"}
{"business_id": "LHpVi4iGxtiVEOXH6vEF7w", "full_address": "Benzstr. 1\n76448 Durmersheim", "hours": {}, "open": true, "categories": ["Food", "Beverage Store"], "city": "Durmersheim", "review_count": 3, "name": "Getr\u00e4nke Huditz", "neighborhoods": [], "longitude": 8.25447, "state": "BW", "stars": 5.0, "latitude": 48.9417, "attributes": {"Parking": {"garage": false, "street": false, "validated": false, "lot": false, "valet": false}, "Price Range": 2}, "type": "business"}
{"business_id": "eMwVhYxZ7FKYPoatICELjw", "full_address": "Waldstr. 56\n76133 Karlsruhe", "hours": {}, "open": true, "categories": ["Food", "Beverage Store"], "city": "Karlsruhe", "review_count": 4, "name": "Saftladen", "neighborhoods": [], "longitude": 8.39246, "state": "BW", "stars": 4.5, "latitude": 49.0074, "attributes": {"Price Range": 2}, "type": "business"}
{"business_id": "bhwbuKiu0f6FdhAx6_hgVQ", "full_address": "Theodorf-Rehbockstr. 11\n76131 Karlsruhe", "hours": {"Monday": {"close": "22:00", "open": "07:00"}, "Tuesday": {"close": "22:00", "open": "07:00"}, "Friday": {"close": "22:00", "open": "07:00"}, "Wednesday": {"close": "22:00", "open": "07:00"}, "Thursday": {"close": "22:00", "open": "07:00"}, "Saturday": {"close": "22:00", "open": "07:00"}}, "open": true, "categories": ["Food", "Grocery", "Beverage Store"], "city": "Karlsruhe", "review_count": 4, "name": "REWE", "neighborhoods": [], "longitude": 8.43855, "state": "BW", "stars": 3.5, "latitude": 49.00982, "attributes": {"Parking": {"garage": false, "street": false, "validated": false, "lot": false, "valet": false}, "Accepts Credit Cards": true, "Price Range": 2}, "type": "business"}
{"business_id": "hUpQanrrN-jdyfB-4hUJOA", "full_address": "Jollystra\u00dfe 51-53\n76137 Karlsruhe", "hours": {"Monday": {"close": "00:00", "open": "00:00"}, "Tuesday": {"close": "19:00", "open": "15:00"}, "Friday": {"close": "19:00", "open": "15:00"}, "Wednesday": {"close": "19:00", "open": "15:00"}, "Thursday": {"close": "19:00", "open": "15:00"}, "Saturday": {"close": "00:00", "open": "00:00"}}, "open": false, "categories": ["Food", "Beverage Store"], "city": "Karlsruhe", "review_count": 3, "name": "Jolly Station Getr\u00e4nkeservice", "neighborhoods": [], "longitude": 8.3888723, "state": "BW", "stars": 3.5, "latitude": 49.0034716, "attributes": {"Parking": {"garage": false, "validated": false, "street": false, "lot": false, "valet": false}, "Wheelchair Accessible": true, "Price Range": 1}, "type": "business"}
{"business_id": "CDjAcUDYcvYCFvMYE3L4Pg", "full_address": "Georg-Friedrich-Str. 9\n76131 Karlsruhe", "hours": {"Monday": {"close": "22:00", "open": "07:00"}, "Tuesday": {"close": "22:00", "open": "07:00"}, "Friday": {"close": "22:00", "open": "07:00"}, "Wednesday": {"close": "22:00", "open": "07:00"}, "Thursday": {"close": "22:00", "open": "07:00"}, "Saturday": {"close": "22:00", "open": "07:00"}}, "open": true, "categories": ["Food", "Grocery", "Beverage Store"], "city": "Karlsruhe", "review_count": 3, "name": "REWE City", "neighborhoods": [], "longitude": 8.4237798, "state": "BW", "stars": 1.5, "latitude": 49.0097022, "attributes": {"Parking": {}, "Accepts Credit Cards": true, "Price Range": 2}, "type": "business"}
