{"business_id": "95u9HmF30qffQtFXQphWyA", "full_address": "Erbprinzenstr. 32\n76133 Karlsruhe", "hours": {}, "open": true, "categories": ["Shopping", "Home Services", "Arts & Crafts", "Antiques", "Building Supplies", "Art Supplies"], "city": "Karlsruhe", "review_count": 5, "name": "Kunstmarkt Boss", "neighborhoods": [], "longitude": 8.39635, "state": "BW", "stars": 4.5, "latitude": 49.0092, "attributes": {}, "type": "business"}
{"business_id": "-czvRRDB6tTlo6HUzBTMwg", "full_address": "Ahaweg 6\n76131 Karlsruhe", "hours": {}, "open": true, "categories": ["Museums", "Arts & Entertainment", "Shopping", "Home Services", "Home & Garden", "Painters", "Home Decor"], "city": "Karlsruhe", "review_count": 4, "name": "Staatliche Majolika Manufaktur Karlsruhe", "neighborhoods": [], "longitude": 8.4023623, "state": "BW", "stars": 3.5, "latitude": 49.0177377, "attributes": {"Parking": {"garage": false, "street": false, "validated": false, "lot": false, "valet": false}, "Accepts Credit Cards": true, "Good for Kids": false, "Price Range": 4}, "type": "business"}
{"business_id": "1TmQbb_tbgi-c81-Nh7XRQ", "full_address": "Am Storrenacker 6\n76139 Karlsruhe", "hours": {}, "open": true, "categories": ["Nurseries & Gardening", "Home Services", "Building Supplies", "Home & Garden", "Hardware Stores", "Shopping"], "city": "Karlsruhe", "review_count": 8, "name": "Hornbach", "neighborhoods": [], "longitude": 8.46165, "state": "BW", "stars": 4.5, "latitude": 49.0186, "attributes": {"Parking": {"garage": false, "street": false, "validated": false, "lot": false, "valet": false}, "Accepts Credit Cards": true, "Price Range": 2}, "type": "business"}
{"business_id": "sGS6fMyhAAOd8j2I-NORRg", "full_address": "Neureuter Str. 4\n76185 Karlsruhe", "hours": {}, "open": true, "categories": ["Building Supplies", "Home Services"], "city": "Karlsruhe", "review_count": 3, "name": "Bauhaus", "neighborhoods": [], "longitude": 8.35435, "state": "BW", "stars": 2.5, "latitude": 49.0175, "attributes": {"Accepts Credit Cards": true}, "type": "business"}
{"business_id": "-D1hveyCgKKdTSczvU0IRA", "full_address": "Amalienstr. 31\n76133 Karlsruhe", "hours": {}, "open": true, "categories": ["Art Supplies", "Shopping", "Home Services", "Arts & Crafts"], "city": "Karlsruhe", "review_count": 4, "name": "Senci Kurzwaren", "neighborhoods": [], "longitude": 8.3932819, "state": "BW", "stars": 4.0, "latitude": 49.0082984, "attributes": {}, "type": "business"}
{"business_id": "lZdaEd0x4nCPtOgkBeKDFA", "full_address": "Ferdinand-Porsche-Stra\u00dfe 7\n76275 Ettlingen", "hours": {}, "open": true, "categories": ["Professional Services", "Matchmakers", "Home Services", "Internet Service Providers"], "city": "Ettlingen", "review_count": 3, "name": "Knuddels - knuddels.de", "neighborhoods": [], "longitude": 8.38447, "state": "BW", "stars": 1.5, "latitude": 48.93762, "attributes": {}, "type": "business"}
{"business_id": "jthSxhOVK5NH5FGSPKmkng", "full_address": "Westmarkstr. 64\n76227 Karlsruhe", "hours": {"Monday": {"close": "18:00", "open": "09:00"}, "Tuesday": {"close": "18:00", "open": "09:00"}, "Friday": {"close": "18:00", "open": "09:00"}, "Wednesday": {"close": "18:00", "open": "09:00"}, "Thursday": {"close": "18:00", "open": "09:00"}, "Saturday": {"close": "18:00", "open": "09:00"}}, "open": true, "categories": ["Building Supplies", "Home Services", "Flooring"], "city": "Karlsruhe", "review_count": 5, "name": "Wera Fliesen & Design haftungsbeschr\u00e4nkt", "neighborhoods": [], "longitude": 8.45797, "state": "BW", "stars": 5.0, "latitude": 48.9896, "attributes": {"Parking": {"garage": false, "validated": false, "street": false, "lot": false, "valet": false}, "Wheelchair Accessible": true, "Price Range": 2}, "type": "business"}
{"business_id": "Rk6LiMxPpMhbERugYspYwQ", "full_address": "Schneidem\u00fchlerstr. 14 E\n76139 Karlsruhe", "hours": {"Monday": {"close": "18:00", "open": "09:00"}, "Tuesday": {"close": "18:00", "open": "09:00"}, "Friday": {"close": "18:00", "open": "09:00"}, "Wednesday": {"close": "18:00", "open": "09:00"}, "Thursday": {"close": "18:00", "open": "09:00"}, "Saturday": {"close": "18:00", "open": "09:00"}}, "open": true, "categories": ["Professional Services", "Window Washing", "Office Cleaning", "Home Services"], "city": "Karlsruhe", "review_count": 3, "name": "Geb\u00e4udereinigung S&O - Karlsruhe Reinigungsfirma", "neighborhoods": [], "longitude": 8.43593, "state": "BW", "stars": 5.0, "latitude": 49.03553, "attributes": {"Parking": {"garage": false, "validated": false, "street": false, "lot": false, "valet": false}, "Wheelchair Accessible": true, "Price Range": 2}, "type": "business"}
{"business_id": "qBID4rvYlBllq0SR59vvjw", "full_address": "Kaiserstr. 217\n76133 Karlsruhe", "hours": {}, "open": true, "categories": ["Keys & Locksmiths", "Home Services"], "city": "Karlsruhe", "review_count": 5, "name": "Meister Bagci Service", "neighborhoods": [], "longitude": 8.393843, "state": "BW", "stars": 4.0, "latitude": 49.0067498, "attributes": {"Price Range": 2}, "type": "business"}
{"business_id": "6G6T-7zxuPtAOLbt6SGwAg", "full_address": "K\u00e4ppelestr. 2\n76131 Karlsruhe", "hours": {}, "open": false, "categories": ["Hardware Stores", "Shopping", "Home Services", "Home & Garden"], "city": "Karlsruhe", "review_count": 9, "name": "Baumarkt Max Bahr GmbH & Co. KG", "neighborhoods": [], "longitude": 8.44044, "state": "BW", "stars": 3.0, "latitude": 49.00817, "attributes": {"Parking": {"garage": false, "validated": false, "street": false, "lot": false, "valet": false}, "Price Range": 2}, "type": "business"}
{"business_id": "rKLqywVES-dgjQ08mnqIGA", "full_address": "Kaiserstr. 88\n76133 Karlsruhe", "hours": {"Monday": {"close": "18:00", "open": "10:00"}, "Tuesday": {"close": "18:00", "open": "10:00"}, "Friday": {"close": "18:00", "open": "10:00"}, "Wednesday": {"close": "18:00", "open": "10:00"}, "Thursday": {"close": "18:00", "open": "10:00"}, "Saturday": {"close": "18:00", "open": "10:00"}}, "open": true, "categories": ["Professional Services", "Home Services", "Shopping", "Mobile Phones", "Internet Service Providers"], "city": "Karlsruhe", "review_count": 4, "name": "Telekom Shop", "neighborhoods": [], "longitude": 8.40201, "state": "BW", "stars": 2.5, "latitude": 49.0098, "attributes": {"Price Range": 2}, "type": "business"}
{"business_id": "95u9HmF30qffQtFXQphWyA", "full_address": "Erbprinzenstr. 32\n76133 Karlsruhe", "hours": {}, "open": true, "categories": ["Shopping", "Home Services", "Arts & Crafts", "Antiques", "Building Supplies", "Art Supplies"], "city": "Karlsruhe", "review_count": 5, "name": "Kunstmarkt Boss", "neighborhoods": [], "longitude": 8.39635, "state": "BW", "stars": 4.5, "latitude": 49.0092, "attributes": {}, "type": "business"}
{"business_id": "-czvRRDB6tTlo6HUzBTMwg", "full_address": "Ahaweg 6\n76131 Karlsruhe", "hours": {}, "open": true, "categories": ["Museums", "Arts & Entertainment", "Shopping", "Home Services", "Home & Garden", "Painters", "Home Decor"], "city": "Karlsruhe", "review_count": 4, "name": "Staatliche Majolika Manufaktur Karlsruhe", "neighborhoods": [], "longitude": 8.4023623, "state": "BW", "stars": 3.5, "latitude": 49.0177377, "attributes": {"Parking": {"garage": false, "street": false, "validated": false, "lot": false, "valet": false}, "Accepts Credit Cards": true, "Good for Kids": false, "Price Range": 4}, "type": "business"}
{"business_id": "1TmQbb_tbgi-c81-Nh7XRQ", "full_address": "Am Storrenacker 6\n76139 Karlsruhe", "hours": {}, "open": true, "categories": ["Nurseries & Gardening", "Home Services", "Building Supplies", "Home & Garden", "Hardware Stores", "Shopping"], "city": "Karlsruhe", "review_count": 8, "name": "Hornbach", "neighborhoods": [], "longitude": 8.46165, "state": "BW", "stars": 4.5, "latitude": 49.0186, "attributes": {"Parking": {"garage": false, "street": false, "validated": false, "lot": false, "valet": false}, "Accepts Credit Cards": true, "Price Range": 2}, "type": "business"}
{"business_id": "sGS6fMyhAAOd8j2I-NORRg", "full_address": "Neureuter Str. 4\n76185 Karlsruhe", "hours": {}, "open": true, "categories": ["Building Supplies", "Home Services"], "city": "Karlsruhe", "review_count": 3, "name": "Bauhaus", "neighborhoods": [], "longitude": 8.35435, "state": "BW", "stars": 2.5, "latitude": 49.0175, "attributes": {"Accepts Credit Cards": true}, "type": "business"}
{"business_id": "-D1hveyCgKKdTSczvU0IRA", "full_address": "Amalienstr. 31\n76133 Karlsruhe", "hours": {}, "open": true, "categories": ["Art Supplies", "Shopping", "Home Services", "Arts & Crafts"], "city": "Karlsruhe", "review_count": 4, "name": "Senci Kurzwaren", "neighborhoods": [], "longitude": 8.3932819, "state": "BW", "stars": 4.0, "latitude": 49.0082984, "attributes": {}, "type": "business"}
{"business_id": "lZdaEd0x4nCPtOgkBeKDFA", "full_address": "Ferdinand-Porsche-Stra\u00dfe 7\n76275 Ettlingen", "hours": {}, "open": true, "categories": ["Professional Services", "Matchmakers", "Home Services", "Internet Service Providers"], "city": "Ettlingen", "review_count": 3, "name": "Knuddels - knuddels.de", "neighborhoods": [], "longitude": 8.38447, "state": "BW", "stars": 1.5, "latitude": 48.93762, "attributes": {}, "type": "business"}
{"business_id": "jthSxhOVK5NH5FGSPKmkng", "full_address": "Westmarkstr. 64\n76227 Karlsruhe", "hours": {"Monday": {"close": "18:00", "open": "09:00"}, "Tuesday": {"close": "18:00", "open": "09:00"}, "Friday": {"close": "18:00", "open": "09:00"}, "Wednesday": {"close": "18:00", "open": "09:00"}, "Thursday": {"close": "18:00", "open": "09:00"}, "Saturday": {"close": "18:00", "open": "09:00"}}, "open": true, "categories": ["Building Supplies", "Home Services", "Flooring"], "city": "Karlsruhe", "review_count": 5, "name": "Wera Fliesen & Design haftungsbeschr\u00e4nkt", "neighborhoods": [], "longitude": 8.45797, "state": "BW", "stars": 5.0, "latitude": 48.9896, "attributes": {"Parking": {"garage": false, "validated": false, "street": false, "lot": false, "valet": false}, "Wheelchair Accessible": true, "Price Range": 2}, "type": "business"}
{"business_id": "Rk6LiMxPpMhbERugYspYwQ", "full_address": "Schneidem\u00fchlerstr. 14 E\n76139 Karlsruhe", "hours": {"Monday": {"close": "18:00", "open": "09:00"}, "Tuesday": {"close": "18:00", "open": "09:00"}, "Friday": {"close": "18:00", "open": "09:00"}, "Wednesday": {"close": "18:00", "open": "09:00"}, "Thursday": {"close": "18:00", "open": "09:00"}, "Saturday": {"close": "18:00", "open": "09:00"}}, "open": true, "categories": ["Professional Services", "Window Washing", "Office Cleaning", "Home Services"], "city": "Karlsruhe", "review_count": 3, "name": "Geb\u00e4udereinigung S&O - Karlsruhe Reinigungsfirma", "neighborhoods": [], "longitude": 8.43593, "state": "BW", "stars": 5.0, "latitude": 49.03553, "attributes": {"Parking": {"garage": false, "validated": false, "street": false, "lot": false, "valet": false}, "Wheelchair Accessible": true, "Price Range": 2}, "type": "business"}
{"business_id": "qBID4rvYlBllq0SR59vvjw", "full_address": "Kaiserstr. 217\n76133 Karlsruhe", "hours": {}, "open": true, "categories": ["Keys & Locksmiths", "Home Services"], "city": "Karlsruhe", "review_count": 5, "name": "Meister Bagci Service", "neighborhoods": [], "longitude": 8.393843, "state": "BW", "stars": 4.0, "latitude": 49.0067498, "attributes": {"Price Range": 2}, "type": "business"}
{"business_id": "6G6T-7zxuPtAOLbt6SGwAg", "full_address": "K\u00e4ppelestr. 2\n76131 Karlsruhe", "hours": {}, "open": false, "categories": ["Hardware Stores", "Shopping", "Home Services", "Home & Garden"], "city": "Karlsruhe", "review_count": 9, "name": "Baumarkt Max Bahr GmbH & Co. KG", "neighborhoods": [], "longitude": 8.44044, "state": "BW", "stars": 3.0, "latitude": 49.00817, "attributes": {"Parking": {"garage": false, "validated": false, "street": false, "lot": false, "valet": false}, "Price Range": 2}, "type": "business"}
{"business_id": "rKLqywVES-dgjQ08mnqIGA", "full_address": "Kaiserstr. 88\n76133 Karlsruhe", "hours": {"Monday": {"close": "18:00", "open": "10:00"}, "Tuesday": {"close": "18:00", "open": "10:00"}, "Friday": {"close": "18:00", "open": "10:00"}, "Wednesday": {"close": "18:00", "open": "10:00"}, "Thursday": {"close": "18:00", "open": "10:00"}, "Saturday": {"close": "18:00", "open": "10:00"}}, "open": true, "categories": ["Professional Services", "Home Services", "Shopping", "Mobile Phones", "Internet Service Providers"], "city": "Karlsruhe", "review_count": 4, "name": "Telekom Shop", "neighborhoods": [], "longitude": 8.40201, "state": "BW", "stars": 2.5, "latitude": 49.0098, "attributes": {"Price Range": 2}, "type": "business"}
{"business_id": "95u9HmF30qffQtFXQphWyA", "full_address": "Erbprinzenstr. 32\n76133 Karlsruhe", "hours": {}, "open": true, "categories": ["Shopping", "Home Services", "Arts & Crafts", "Antiques", "Building Supplies", "Art Supplies"], "city": "Karlsruhe", "review_count": 5, "name": "Kunstmarkt Boss", "neighborhoods": [], "longitude": 8.39635, "state": "BW", "stars": 4.5, "latitude": 49.0092, "attributes": {}, "type": "business"}
{"business_id": "-czvRRDB6tTlo6HUzBTMwg", "full_address": "Ahaweg 6\n76131 Karlsruhe", "hours": {}, "open": true, "categories": ["Museums", "Arts & Entertainment", "Shopping", "Home Services", "Home & Garden", "Painters", "Home Decor"], "city": "Karlsruhe", "review_count": 4, "name": "Staatliche Majolika Manufaktur Karlsruhe", "neighborhoods": [], "longitude": 8.4023623, "state": "BW", "stars": 3.5, "latitude": 49.0177377, "attributes": {"Parking": {"garage": false, "street": false, "validated": false, "lot": false, "valet": false}, "Accepts Credit Cards": true, "Good for Kids": false, "Price Range": 4}, "type": "business"}
{"business_id": "1TmQbb_tbgi-c81-Nh7XRQ", "full_address": "Am Storrenacker 6\n76139 Karlsruhe", "hours": {}, "open": true, "categories": ["Nurseries & Gardening", "Home Services", "Building Supplies", "Home & Garden", "Hardware Stores", "Shopping"], "city": "Karlsruhe", "review_count": 8, "name": "Hornbach", "neighborhoods": [], "longitude": 8.46165, "state": "BW", "stars": 4.5, "latitude": 49.0186, "attributes": {"Parking": {"garage": false, "street": false, "validated": false, "lot": false, "valet": false}, "Accepts Credit Cards": true, "Price Range": 2}, "type": "business"}
{"business_id": "sGS6fMyhAAOd8j2I-NORRg", "full_address": "Neureuter Str. 4\n76185 Karlsruhe", "hours": {}, "open": true, "categories": ["Building Supplies", "Home Services"], "city": "Karlsruhe", "review_count": 3, "name": "Bauhaus", "neighborhoods": [], "longitude": 8.35435, "state": "BW", "stars": 2.5, "latitude": 49.0175, "attributes": {"Accepts Credit Cards": true}, "type": "business"}
{"business_id": "-D1hveyCgKKdTSczvU0IRA", "full_address": "Amalienstr. 31\n76133 Karlsruhe", "hours": {}, "open": true, "categories": ["Art Supplies", "Shopping", "Home Services", "Arts & Crafts"], "city": "Karlsruhe", "review_count": 4, "name": "Senci Kurzwaren", "neighborhoods": [], "longitude": 8.3932819, "state": "BW", "stars": 4.0, "latitude": 49.0082984, "attributes": {}, "type": "business"}
{"business_id": "lZdaEd0x4nCPtOgkBeKDFA", "full_address": "Ferdinand-Porsche-Stra\u00dfe 7\n76275 Ettlingen", "hours": {}, "open": true, "categories": ["Professional Services", "Matchmakers", "Home Services", "Internet Service Providers"], "city": "Ettlingen", "review_count": 3, "name": "Knuddels - knuddels.de", "neighborhoods": [], "longitude": 8.38447, "state": "BW", "stars": 1.5, "latitude": 48.93762, "attributes": {}, "type": "business"}
{"business_id": "jthSxhOVK5NH5FGSPKmkng", "full_address": "Westmarkstr. 64\n76227 Karlsruhe", "hours": {"Monday": {"close": "18:00", "open": "09:00"}, "Tuesday": {"close": "18:00", "open": "09:00"}, "Friday": {"close": "18:00", "open": "09:00"}, "Wednesday": {"close": "18:00", "open": "09:00"}, "Thursday": {"close": "18:00", "open": "09:00"}, "Saturday": {"close": "18:00", "open": "09:00"}}, "open": true, "categories": ["Building Supplies", "Home Services", "Flooring"], "city": "Karlsruhe", "review_count": 5, "name": "Wera Fliesen & Design haftungsbeschr\u00e4nkt", "neighborhoods": [], "longitude": 8.45797, "state": "BW", "stars": 5.0, "latitude": 48.9896, "attributes": {"Parking": {"garage": false, "validated": false, "street": false, "lot": false, "valet": false}, "Wheelchair Accessible": true, "Price Range": 2}, "type": "business"}
{"business_id": "Rk6LiMxPpMhbERugYspYwQ", "full_address": "Schneidem\u00fchlerstr. 14 E\n76139 Karlsruhe", "hours": {"Monday": {"close": "18:00", "open": "09:00"}, "Tuesday": {"close": "18:00", "open": "09:00"}, "Friday": {"close": "18:00", "open": "09:00"}, "Wednesday": {"close": "18:00", "open": "09:00"}, "Thursday": {"close": "18:00", "open": "09:00"}, "Saturday": {"close": "18:00", "open": "09:00"}}, "open": true, "categories": ["Professional Services", "Window Washing", "Office Cleaning", "Home Services"], "city": "Karlsruhe", "review_count": 3, "name": "Geb\u00e4udereinigung S&O - Karlsruhe Reinigungsfirma", "neighborhoods": [], "longitude": 8.43593, "state": "BW", "stars": 5.0, "latitude": 49.03553, "attributes": {"Parking": {"garage": false, "validated": false, "street": false, "lot": false, "valet": false}, "Wheelchair Accessible": true, "Price Range": 2}, "type": "business"}
{"business_id": "qBID4rvYlBllq0SR59vvjw", "full_address": "Kaiserstr. 217\n76133 Karlsruhe", "hours": {}, "open": true, "categories": ["Keys & Locksmiths", "Home Services"], "city": "Karlsruhe", "review_count": 5, "name": "Meister Bagci Service", "neighborhoods": [], "longitude": 8.393843, "state": "BW", "stars": 4.0, "latitude": 49.0067498, "attributes": {"Price Range": 2}, "type": "business"}
{"business_id": "6G6T-7zxuPtAOLbt6SGwAg", "full_address": "K\u00e4ppelestr. 2\n76131 Karlsruhe", "hours": {}, "open": false, "categories": ["Hardware Stores", "Shopping", "Home Services", "Home & Garden"], "city": "Karlsruhe", "review_count": 9, "name": "Baumarkt Max Bahr GmbH & Co. KG", "neighborhoods": [], "longitude": 8.44044, "state": "BW", "stars": 3.0, "latitude": 49.00817, "attributes": {"Parking": {"garage": false, "validated": false, "street": false, "lot": false, "valet": false}, "Price Range": 2}, "type": "business"}
{"business_id": "rKLqywVES-dgjQ08mnqIGA", "full_address": "Kaiserstr. 88\n76133 Karlsruhe", "hours": {"Monday": {"close": "18:00", "open": "10:00"}, "Tuesday": {"close": "18:00", "open": "10:00"}, "Friday": {"close": "18:00", "open": "10:00"}, "Wednesday": {"close": "18:00", "open": "10:00"}, "Thursday": {"close": "18:00", "open": "10:00"}, "Saturday": {"close": "18:00", "open": "10:00"}}, "open": true, "categories": ["Professional Services", "Home Services", "Shopping", "Mobile Phones", "Internet Service Providers"], "city": "Karlsruhe", "review_count": 4, "name": "Telekom Shop", "neighborhoods": [], "longitude": 8.40201, "state": "BW", "stars": 2.5, "latitude": 49.0098, "attributes": {"Price Range": 2}, "type": "business"}
{"business_id": "95u9HmF30qffQtFXQphWyA", "full_address": "Erbprinzenstr. 32\n76133 Karlsruhe", "hours": {}, "open": true, "categories": ["Shopping", "Home Services", "Arts & Crafts", "Antiques", "Building Supplies", "Art Supplies"], "city": "Karlsruhe", "review_count": 5, "name": "Kunstmarkt Boss", "neighborhoods": [], "longitude": 8.39635, "state": "BW", "stars": 4.5, "latitude": 49.0092, "attributes": {}, "type": "business"}
{"business_id": "-czvRRDB6tTlo6HUzBTMwg", "full_address": "Ahaweg 6\n76131 Karlsruhe", "hours": {}, "open": true, "categories": ["Museums", "Arts & Entertainment", "Shopping", "Home Services", "Home & Garden", "Painters", "Home Decor"], "city": "Karlsruhe", "review_count": 4, "name": "Staatliche Majolika Manufaktur Karlsruhe", "neighborhoods": [], "longitude": 8.4023623, "state": "BW", "stars": 3.5, "latitude": 49.0177377, "attributes": {"Parking": {"garage": false, "street": false, "validated": false, "lot": false, "valet": false}, "Accepts Credit Cards": true, "Good for Kids": false, "Price Range": 4}, "type": "business"}
{"business_id": "1TmQbb_tbgi-c81-Nh7XRQ", "full_address": "Am Storrenacker 6\n76139 Karlsruhe", "hours": {}, "open": true, "categories": ["Nurseries & Gardening", "Home Services", "Building Supplies", "Home & Garden", "Hardware Stores", "Shopping"], "city": "Karlsruhe", "review_count": 8, "name": "Hornbach", "neighborhoods": [], "longitude": 8.46165, "state": "BW", "stars": 4.5, "latitude": 49.0186, "attributes": {"Parking": {"garage": false, "street": false, "validated": false, "lot": false, "valet": false}, "Accepts Credit Cards": true, "Price Range": 2}, "type": "business"}
{"business_id": "sGS6fMyhAAOd8j2I-NORRg", "full_address": "Neureuter Str. 4\n76185 Karlsruhe", "hours": {}, "open": true, "categories": ["Building Supplies", "Home Services"], "city": "Karlsruhe", "review_count": 3, "name": "Bauhaus", "neighborhoods": [], "longitude": 8.35435, "state": "BW", "stars": 2.5, "latitude": 49.0175, "attributes": {"Accepts Credit Cards": true}, "type": "business"}
{"business_id": "-D1hveyCgKKdTSczvU0IRA", "full_address": "Amalienstr. 31\n76133 Karlsruhe", "hours": {}, "open": true, "categories": ["Art Supplies", "Shopping", "Home Services", "Arts & Crafts"], "city": "Karlsruhe", "review_count": 4, "name": "Senci Kurzwaren", "neighborhoods": [], "longitude": 8.3932819, "state": "BW", "stars": 4.0, "latitude": 49.0082984, "attributes": {}, "type": "business"}
{"business_id": "lZdaEd0x4nCPtOgkBeKDFA", "full_address": "Ferdinand-Porsche-Stra\u00dfe 7\n76275 Ettlingen", "hours": {}, "open": true, "categories": ["Professional Services", "Matchmakers", "Home Services", "Internet Service Providers"], "city": "Ettlingen", "review_count": 3, "name": "Knuddels - knuddels.de", "neighborhoods": [], "longitude": 8.38447, "state": "BW", "stars": 1.5, "latitude": 48.93762, "attributes": {}, "type": "business"}
{"business_id": "jthSxhOVK5NH5FGSPKmkng", "full_address": "Westmarkstr. 64\n76227 Karlsruhe", "hours": {"Monday": {"close": "18:00", "open": "09:00"}, "Tuesday": {"close": "18:00", "open": "09:00"}, "Friday": {"close": "18:00", "open": "09:00"}, "Wednesday": {"close": "18:00", "open": "09:00"}, "Thursday": {"close": "18:00", "open": "09:00"}, "Saturday": {"close": "18:00", "open": "09:00"}}, "open": true, "categories": ["Building Supplies", "Home Services", "Flooring"], "city": "Karlsruhe", "review_count": 5, "name": "Wera Fliesen & Design haftungsbeschr\u00e4nkt", "neighborhoods": [], "longitude": 8.45797, "state": "BW", "stars": 5.0, "latitude": 48.9896, "attributes": {"Parking": {"garage": false, "validated": false, "street": false, "lot": false, "valet": false}, "Wheelchair Accessible": true, "Price Range": 2}, "type": "business"}
{"business_id": "Rk6LiMxPpMhbERugYspYwQ", "full_address": "Schneidem\u00fchlerstr. 14 E\n76139 Karlsruhe", "hours": {"Monday": {"close": "18:00", "open": "09:00"}, "Tuesday": {"close": "18:00", "open": "09:00"}, "Friday": {"close": "18:00", "open": "09:00"}, "Wednesday": {"close": "18:00", "open": "09:00"}, "Thursday": {"close": "18:00", "open": "09:00"}, "Saturday": {"close": "18:00", "open": "09:00"}}, "open": true, "categories": ["Professional Services", "Window Washing", "Office Cleaning", "Home Services"], "city": "Karlsruhe", "review_count": 3, "name": "Geb\u00e4udereinigung S&O - Karlsruhe Reinigungsfirma", "neighborhoods": [], "longitude": 8.43593, "state": "BW", "stars": 5.0, "latitude": 49.03553, "attributes": {"Parking": {"garage": false, "validated": false, "street": false, "lot": false, "valet": false}, "Wheelchair Accessible": true, "Price Range": 2}, "type": "business"}
{"business_id": "qBID4rvYlBllq0SR59vvjw", "full_address": "Kaiserstr. 217\n76133 Karlsruhe", "hours": {}, "open": true, "categories": ["Keys & Locksmiths", "Home Services"], "city": "Karlsruhe", "review_count": 5, "name": "Meister Bagci Service", "neighborhoods": [], "longitude": 8.393843, "state": "BW", "stars": 4.0, "latitude": 49.0067498, "attributes": {"Price Range": 2}, "type": "business"}
{"business_id": "6G6T-7zxuPtAOLbt6SGwAg", "full_address": "K\u00e4ppelestr. 2\n76131 Karlsruhe", "hours": {}, "open": false, "categories": ["Hardware Stores", "Shopping", "Home Services", "Home & Garden"], "city": "Karlsruhe", "review_count": 9, "name": "Baumarkt Max Bahr GmbH & Co. KG", "neighborhoods": [], "longitude": 8.44044, "state": "BW", "stars": 3.0, "latitude": 49.00817, "attributes": {"Parking": {"garage": false, "validated": false, "street": false, "lot": false, "valet": false}, "Price Range": 2}, "type": "business"}
{"business_id": "rKLqywVES-dgjQ08mnqIGA", "full_address": "Kaiserstr. 88\n76133 Karlsruhe", "hours": {"Monday": {"close": "18:00", "open": "10:00"}, "Tuesday": {"close": "18:00", "open": "10:00"}, "Friday": {"close": "18:00", "open": "10:00"}, "Wednesday": {"close": "18:00", "open": "10:00"}, "Thursday": {"close": "18:00", "open": "10:00"}, "Saturday": {"close": "18:00", "open": "10:00"}}, "open": true, "categories": ["Professional Services", "Home Services", "Shopping", "Mobile Phones", "Internet Service Providers"], "city": "Karlsruhe", "review_count": 4, "name": "Telekom Shop", "neighborhoods": [], "longitude": 8.40201, "state": "BW", "stars": 2.5, "latitude": 49.0098, "attributes": {"Price Range": 2}, "type": "business"}
{"business_id": "95u9HmF30qffQtFXQphWyA", "full_address": "Erbprinzenstr. 32\n76133 Karlsruhe", "hours": {}, "open": true, "categories": ["Shopping", "Home Services", "Arts & Crafts", "Antiques", "Building Supplies", "Art Supplies"], "city": "Karlsruhe", "review_count": 5, "name": "Kunstmarkt Boss", "neighborhoods": [], "longitude": 8.39635, "state": "BW", "stars": 4.5, "latitude": 49.0092, "attributes": {}, "type": "business"}
{"business_id": "-czvRRDB6tTlo6HUzBTMwg", "full_address": "Ahaweg 6\n76131 Karlsruhe", "hours": {}, "open": true, "categories": ["Museums", "Arts & Entertainment", "Shopping", "Home Services", "Home & Garden", "Painters", "Home Decor"], "city": "Karlsruhe", "review_count": 4, "name": "Staatliche Majolika Manufaktur Karlsruhe", "neighborhoods": [], "longitude": 8.4023623, "state": "BW", "stars": 3.5, "latitude": 49.0177377, "attributes": {"Parking": {"garage": false, "street": false, "validated": false, "lot": false, "valet": false}, "Accepts Credit Cards": true, "Good for Kids": false, "Price Range": 4}, "type": "business"}
{"business_id": "1TmQbb_tbgi-c81-Nh7XRQ", "full_address": "Am Storrenacker 6\n76139 Karlsruhe", "hours": {}, "open": true, "categories": ["Nurseries & Gardening", "Home Services", "Building Supplies", "Home & Garden", "Hardware Stores", "Shopping"], "city": "Karlsruhe", "review_count": 8, "name": "Hornbach", "neighborhoods": [], "longitude": 8.46165, "state": "BW", "stars": 4.5, "latitude": 49.0186, "attributes": {"Parking": {"garage": false, "street": false, "validated": false, "lot": false, "valet": false}, "Accepts Credit Cards": true, "Price Range": 2}, "type": "business"}
{"business_id": "sGS6fMyhAAOd8j2I-NORRg", "full_address": "Neureuter Str. 4\n76185 Karlsruhe", "hours": {}, "open": true, "categories": ["Building Supplies", "Home Services"], "city": "Karlsruhe", "review_count": 3, "name": "Bauhaus", "neighborhoods": [], "longitude": 8.35435, "state": "BW", "stars": 2.5, "latitude": 49.0175, "attributes": {"Accepts Credit Cards": true}, "type": "business"}
{"business_id": "-D1hveyCgKKdTSczvU0IRA", "full_address": "Amalienstr. 31\n76133 Karlsruhe", "hours": {}, "open": true, "categories": ["Art Supplies", "Shopping", "Home Services", "Arts & Crafts"], "city": "Karlsruhe", "review_count": 4, "name": "Senci Kurzwaren", "neighborhoods": [], "longitude": 8.3932819, "state": "BW", "stars": 4.0, "latitude": 49.0082984, "attributes": {}, "type": "business"}
{"business_id": "lZdaEd0x4nCPtOgkBeKDFA", "full_address": "Ferdinand-Porsche-Stra\u00dfe 7\n76275 Ettlingen", "hours": {}, "open": true, "categories": ["Professional Services", "Matchmakers", "Home Services", "Internet Service Providers"], "city": "Ettlingen", "review_count": 3, "name": "Knuddels - knuddels.de", "neighborhoods": [], "longitude": 8.38447, "state": "BW", "stars": 1.5, "latitude": 48.93762, "attributes": {}, "type": "business"}
{"business_id": "jthSxhOVK5NH5FGSPKmkng", "full_address": "Westmarkstr. 64\n76227 Karlsruhe", "hours": {"Monday": {"close": "18:00", "open": "09:00"}, "Tuesday": {"close": "18:00", "open": "09:00"}, "Friday": {"close": "18:00", "open": "09:00"}, "Wednesday": {"close": "18:00", "open": "09:00"}, "Thursday": {"close": "18:00", "open": "09:00"}, "Saturday": {"close": "18:00", "open": "09:00"}}, "open": true, "categories": ["Building Supplies", "Home Services", "Flooring"], "city": "Karlsruhe", "review_count": 5, "name": "Wera Fliesen & Design haftungsbeschr\u00e4nkt", "neighborhoods": [], "longitude": 8.45797, "state": "BW", "stars": 5.0, "latitude": 48.9896, "attributes": {"Parking": {"garage": false, "validated": false, "street": false, "lot": false, "valet": false}, "Wheelchair Accessible": true, "Price Range": 2}, "type": "business"}
{"business_id": "Rk6LiMxPpMhbERugYspYwQ", "full_address": "Schneidem\u00fchlerstr. 14 E\n76139 Karlsruhe", "hours": {"Monday": {"close": "18:00", "open": "09:00"}, "Tuesday": {"close": "18:00", "open": "09:00"}, "Friday": {"close": "18:00", "open": "09:00"}, "Wednesday": {"close": "18:00", "open": "09:00"}, "Thursday": {"close": "18:00", "open": "09:00"}, "Saturday": {"close": "18:00", "open": "09:00"}}, "open": true, "categories": ["Professional Services", "Window Washing", "Office Cleaning", "Home Services"], "city": "Karlsruhe", "review_count": 3, "name": "Geb\u00e4udereinigung S&O - Karlsruhe Reinigungsfirma", "neighborhoods": [], "longitude": 8.43593, "state": "BW", "stars": 5.0, "latitude": 49.03553, "attributes": {"Parking": {"garage": false, "validated": false, "street": false, "lot": false, "valet": false}, "Wheelchair Accessible": true, "Price Range": 2}, "type": "business"}
{"business_id": "qBID4rvYlBllq0SR59vvjw", "full_address": "Kaiserstr. 217\n76133 Karlsruhe", "hours": {}, "open": true, "categories": ["Keys & Locksmiths", "Home Services"], "city": "Karlsruhe", "review_count": 5, "name": "Meister Bagci Service", "neighborhoods": [], "longitude": 8.393843, "state": "BW", "stars": 4.0, "latitude": 49.0067498, "attributes": {"Price Range": 2}, "type": "business"}
{"business_id": "6G6T-7zxuPtAOLbt6SGwAg", "full_address": "K\u00e4ppelestr. 2\n76131 Karlsruhe", "hours": {}, "open": false, "categories": ["Hardware Stores", "Shopping", "Home Services", "Home & Garden"], "city": "Karlsruhe", "review_count": 9, "name": "Baumarkt Max Bahr GmbH & Co. KG", "neighborhoods": [], "longitude": 8.44044, "state": "BW", "stars": 3.0, "latitude": 49.00817, "attributes": {"Parking": {"garage": false, "validated": false, "street": false, "lot": false, "valet": false}, "Price Range": 2}, "type": "business"}
{"business_id": "rKLqywVES-dgjQ08mnqIGA", "full_address": "Kaiserstr. 88\n76133 Karlsruhe", "hours": {"Monday": {"close": "18:00", "open": "10:00"}, "Tuesday": {"close": "18:00", "open": "10:00"}, "Friday": {"close": "18:00", "open": "10:00"}, "Wednesday": {"close": "18:00", "open": "10:00"}, "Thursday": {"close": "18:00", "open": "10:00"}, "Saturday": {"close": "18:00", "open": "10:00"}}, "open": true, "categories": ["Professional Services", "Home Services", "Shopping", "Mobile Phones", "Internet Service Providers"], "city": "Karlsruhe", "review_count": 4, "name": "Telekom Shop", "neighborhoods": [], "longitude": 8.40201, "state": "BW", "stars": 2.5, "latitude": 49.0098, "attributes": {"Price Range": 2}, "type": "business"}
{"business_id": "95u9HmF30qffQtFXQphWyA", "full_address": "Erbprinzenstr. 32\n76133 Karlsruhe", "hours": {}, "open": true, "categories": ["Shopping", "Home Services", "Arts & Crafts", "Antiques", "Building Supplies", "Art Supplies"], "city": "Karlsruhe", "review_count": 5, "name": "Kunstmarkt Boss", "neighborhoods": [], "longitude": 8.39635, "state": "BW", "stars": 4.5, "latitude": 49.0092, "attributes": {}, "type": "business"}
{"business_id": "-czvRRDB6tTlo6HUzBTMwg", "full_address": "Ahaweg 6\n76131 Karlsruhe", "hours": {}, "open": true, "categories": ["Museums", "Arts & Entertainment", "Shopping", "Home Services", "Home & Garden", "Painters", "Home Decor"], "city": "Karlsruhe", "review_count": 4, "name": "Staatliche Majolika Manufaktur Karlsruhe", "neighborhoods": [], "longitude": 8.4023623, "state": "BW", "stars": 3.5, "latitude": 49.0177377, "attributes": {"Parking": {"garage": false, "street": false, "validated": false, "lot": false, "valet": false}, "Accepts Credit Cards": true, "Good for Kids": false, "Price Range": 4}, "type": "business"}
{"business_id": "1TmQbb_tbgi-c81-Nh7XRQ", "full_address": "Am Storrenacker 6\n76139 Karlsruhe", "hours": {}, "open": true, "categories": ["Nurseries & Gardening", "Home Services", "Building Supplies", "Home & Garden", "Hardware Stores", "Shopping"], "city": "Karlsruhe", "review_count": 8, "name": "Hornbach", "neighborhoods": [], "longitude": 8.46165, "state": "BW", "stars": 4.5, "latitude": 49.0186, "attributes": {"Parking": {"garage": false, "street": false, "validated": false, "lot": false, "valet": false}, "Accepts Credit Cards": true, "Price Range": 2}, "type": "business"}
{"business_id": "sGS6fMyhAAOd8j2I-NORRg", "full_address": "Neureuter Str. 4\n76185 Karlsruhe", "hours": {}, "open": true, "categories": ["Building Supplies", "Home Services"], "city": "Karlsruhe", "review_count": 3, "name": "Bauhaus", "neighborhoods": [], "longitude": 8.35435, "state": "BW", "stars": 2.5, "latitude": 49.0175, "attributes": {"Accepts Credit Cards": true}, "type": "business"}
{"business_id": "-D1hveyCgKKdTSczvU0IRA", "full_address": "Amalienstr. 31\n76133 Karlsruhe", "hours": {}, "open": true, "categories": ["Art Supplies", "Shopping", "Home Services", "Arts & Crafts"], "city": "Karlsruhe", "review_count": 4, "name": "Senci Kurzwaren", "neighborhoods": [], "longitude": 8.3932819, "state": "BW", "stars": 4.0, "latitude": 49.0082984, "attributes": {}, "type": "business"}
{"business_id": "lZdaEd0x4nCPtOgkBeKDFA", "full_address": "Ferdinand-Porsche-Stra\u00dfe 7\n76275 Ettlingen", "hours": {}, "open": true, "categories": ["Professional Services", "Matchmakers", "Home Services", "Internet Service Providers"], "city": "Ettlingen", "review_count": 3, "name": "Knuddels - knuddels.de", "neighborhoods": [], "longitude": 8.38447, "state": "BW", "stars": 1.5, "latitude": 48.93762, "attributes": {}, "type": "business"}
{"business_id": "jthSxhOVK5NH5FGSPKmkng", "full_address": "Westmarkstr. 64\n76227 Karlsruhe", "hours": {"Monday": {"close": "18:00", "open": "09:00"}, "Tuesday": {"close": "18:00", "open": "09:00"}, "Friday": {"close": "18:00", "open": "09:00"}, "Wednesday": {"close": "18:00", "open": "09:00"}, "Thursday": {"close": "18:00", "open": "09:00"}, "Saturday": {"close": "18:00", "open": "09:00"}}, "open": true, "categories": ["Building Supplies", "Home Services", "Flooring"], "city": "Karlsruhe", "review_count": 5, "name": "Wera Fliesen & Design haftungsbeschr\u00e4nkt", "neighborhoods": [], "longitude": 8.45797, "state": "BW", "stars": 5.0, "latitude": 48.9896, "attributes": {"Parking": {"garage": false, "validated": false, "street": false, "lot": false, "valet": false}, "Wheelchair Accessible": true, "Price Range": 2}, "type": "business"}
{"business_id": "Rk6LiMxPpMhbERugYspYwQ", "full_address": "Schneidem\u00fchlerstr. 14 E\n76139 Karlsruhe", "hours": {"Monday": {"close": "18:00", "open": "09:00"}, "Tuesday": {"close": "18:00", "open": "09:00"}, "Friday": {"close": "18:00", "open": "09:00"}, "Wednesday": {"close": "18:00", "open": "09:00"}, "Thursday": {"close": "18:00", "open": "09:00"}, "Saturday": {"close": "18:00", "open": "09:00"}}, "open": true, "categories": ["Professional Services", "Window Washing", "Office Cleaning", "Home Services"], "city": "Karlsruhe", "review_count": 3, "name": "Geb\u00e4udereinigung S&O - Karlsruhe Reinigungsfirma", "neighborhoods": [], "longitude": 8.43593, "state": "BW", "stars": 5.0, "latitude": 49.03553, "attributes": {"Parking": {"garage": false, "validated": false, "street": false, "lot": false, "valet": false}, "Wheelchair Accessible": true, "Price Range": 2}, "type": "business"}
{"business_id": "qBID4rvYlBllq0SR59vvjw", "full_address": "Kaiserstr. 217\n76133 Karlsruhe", "hours": {}, "open": true, "categories": ["Keys & Locksmiths", "Home Services"], "city": "Karlsruhe", "review_count": 5, "name": "Meister Bagci Service", "neighborhoods": [], "longitude": 8.393843, "state": "BW", "stars": 4.0, "latitude": 49.0067498, "attributes": {"Price Range": 2}, "type": "business"}
{"business_id": "6G6T-7zxuPtAOLbt6SGwAg", "full_address": "K\u00e4ppelestr. 2\n76131 Karlsruhe", "hours": {}, "open": false, "categories": ["Hardware Stores", "Shopping", "Home Services", "Home & Garden"], "city": "Karlsruhe", "review_count": 9, "name": "Baumarkt Max Bahr GmbH & Co. KG", "neighborhoods": [], "longitude": 8.44044, "state": "BW", "stars": 3.0, "latitude": 49.00817, "attributes": {"Parking": {"garage": false, "validated": false, "street": false, "lot": false, "valet": false}, "Price Range": 2}, "type": "business"}
{"business_id": "rKLqywVES-dgjQ08mnqIGA", "full_address": "Kaiserstr. 88\n76133 Karlsruhe", "hours": {"Monday": {"close": "18:00", "open": "10:00"}, "Tuesday": {"close": "18:00", "open": "10:00"}, "Friday": {"close": "18:00", "open": "10:00"}, "Wednesday": {"close": "18:00", "open": "10:00"}, "Thursday": {"close": "18:00", "open": "10:00"}, "Saturday": {"close": "18:00", "open": "10:00"}}, "open": true, "categories": ["Professional Services", "Home Services", "Shopping", "Mobile Phones", "Internet Service Providers"], "city": "Karlsruhe", "review_count": 4, "name": "Telekom Shop", "neighborhoods": [], "longitude": 8.40201, "state": "BW", "stars": 2.5, "latitude": 49.0098, "attributes": {"Price Range": 2}, "type": "business"}
