{"business_id": "W2RFJg1N_MzuI8I42MQ2VA", "full_address": "Windeckstr. 15\n76135 Karlsruhe", "hours": {}, "open": true, "categories": ["Department Stores", "Fashion", "Shopping"], "city": "Karlsruhe", "review_count": 5, "name": "Heinrich Heine", "neighborhoods": [], "longitude": 8.37332, "state": "BW", "stars": 3.0, "latitude": 48.98807, "attributes": {"Price Range": 3}, "type": "business"}
{"business_id": "ePiK7IM1ZWQiwuivFwKE1Q", "full_address": "Lammstr. 4\n76133 Karlsruhe", "hours": {"Monday": {"close": "20:00", "open": "10:00"}, "Tuesday": {"close": "20:00", "open": "10:00"}, "Friday": {"close": "20:00", "open": "10:00"}, "Wednesday": {"close": "20:00", "open": "10:00"}, "Thursday": {"close": "20:00", "open": "10:00"}, "Saturday": {"close": "20:00", "open": "10:00"}}, "open": true, "categories": ["Fashion", "Shopping"], "city": "Karlsruhe", "review_count": 11, "name": "Peek & Cloppenburg", "neighborhoods": [], "longitude": 8.40257, "state": "BW", "stars": 4.0, "latitude": 49.0098, "attributes": {"Price Range": 3}, "type": "business"}
{"business_id": "aePFUnoAYbi7uij8k4KFxA", "full_address": "Kaiserstr. 52\n76133 Karlsruhe", "hours": {}, "open": true, "categories": ["Fashion", "Shopping"], "city": "Karlsruhe", "review_count": 3, "name": "C & A Mode", "neighborhoods": [], "longitude": 8.4063616, "state": "BW", "stars": 3.0, "latitude": 49.0095992, "attributes": {"Price Range": 2}, "type": "business"}
{"business_id": "q_Xd4xuUEcSga_n65SGejQ", "full_address": "Kaiserstr. 199 A\n76133 Karlsruhe", "hours": {}, "open": true, "categories": ["Hobby Shops", "Fashion", "Shopping", "Accessories"], "city": "Karlsruhe", "review_count": 4, "name": "Wmf W\u00fcrttembergische Metallwarenfabrik", "neighborhoods": [], "longitude": 8.3975624, "state": "BW", "stars": 4.0, "latitude": 49.0097223, "attributes": {}, "type": "business"}
{"business_id": "V8oiNG50dqpSlWdencpHqw", "full_address": "Karlstra\u00dfe 25\n76133 Karlsruhe", "hours": {"Monday": {"close": "18:00", "open": "10:00"}, "Tuesday": {"close": "18:00", "open": "10:00"}, "Friday": {"close": "19:00", "open": "10:00"}, "Wednesday": {"close": "18:00", "open": "10:00"}, "Thursday": {"close": "19:00", "open": "10:00"}, "Saturday": {"close": "17:00", "open": "10:30"}}, "open": true, "categories": ["Children's Clothing", "Fashion", "Shopping"], "city": "Karlsruhe", "review_count": 4, "name": "Hergard Kindermoden", "neighborhoods": [], "longitude": 8.3951634, "state": "BW", "stars": 3.5, "latitude": 49.0081634, "attributes": {"Parking": {"garage": false, "validated": false, "street": false, "lot": false, "valet": false}, "Wheelchair Accessible": false, "Price Range": 4}, "type": "business"}
{"business_id": "BGZHzaRaOuxbBPAKxmnkZw", "full_address": "Karlstra\u00dfe 82\n76137 Karlsruhe", "hours": {"Monday": {"close": "18:30", "open": "08:30"}, "Tuesday": {"close": "18:30", "open": "08:30"}, "Friday": {"close": "18:30", "open": "08:30"}, "Wednesday": {"close": "18:30", "open": "08:30"}, "Thursday": {"close": "18:30", "open": "08:30"}, "Saturday": {"close": "13:30", "open": "09:30"}}, "open": true, "categories": ["Children's Clothing", "Fashion", "Shopping", "Appliances & Repair", "Home & Garden", "Local Services", "Kitchen & Bath", "Toy Stores"], "city": "Karlsruhe", "review_count": 3, "name": "atelier B:", "neighborhoods": [], "longitude": 8.39402, "state": "BW", "stars": 4.5, "latitude": 49.0009, "attributes": {}, "type": "business"}
{"business_id": "JKPfm4KBvDoAKJwWiMz3Lg", "full_address": "Gerwigstr. 69\n76131 Karlsruhe", "hours": {}, "open": true, "categories": ["Shopping", "Fashion", "Maternity Wear", "Baby Gear & Furniture"], "city": "Karlsruhe", "review_count": 3, "name": "Baby-Center", "neighborhoods": [], "longitude": 8.43805, "state": "BW", "stars": 1.5, "latitude": 49.007, "attributes": {"Parking": {"garage": false, "validated": false, "street": false, "lot": false, "valet": false}, "Wheelchair Accessible": false, "Price Range": 3}, "type": "business"}
{"business_id": "A7Zrif-apG0Lt6ml1bXSsg", "full_address": "Eggensteiner Stra\u00dfe 52\n76297 Stutensee", "hours": {}, "open": true, "categories": ["Children's Clothing", "Fashion", "Shopping", "Mattresses", "Home & Garden", "Furniture Stores"], "city": "Stutensee", "review_count": 4, "name": "Naturversand Kirschke", "neighborhoods": [], "longitude": 8.4665991, "state": "BW", "stars": 3.5, "latitude": 49.0655226, "attributes": {}, "type": "business"}
{"business_id": "R0k3wzbxnqO6a7arCGtc-Q", "full_address": "Kaiserstr. 82a\n76133 Karlsruhe", "hours": {}, "open": true, "categories": ["Men's Clothing", "Fashion", "Shopping"], "city": "Karlsruhe", "review_count": 3, "name": "Eckerle Herrenmodenvertrieb", "neighborhoods": [], "longitude": 8.40286, "state": "BW", "stars": 3.0, "latitude": 49.0099, "attributes": {"Accepts Credit Cards": true, "Wheelchair Accessible": true, "Price Range": 3}, "type": "business"}
{"business_id": "8cfBkyIJsa3Ij25QnkDr7w", "full_address": "Kaiserstr. 170\n76133 Karlsruhe", "hours": {}, "open": true, "categories": ["Fashion", "Shopping"], "city": "Karlsruhe", "review_count": 7, "name": "XtraX", "neighborhoods": [], "longitude": 8.39249, "state": "BW", "stars": 4.5, "latitude": 49.0103, "attributes": {"Parking": {"garage": false, "validated": false, "street": false, "lot": false, "valet": false}, "Wheelchair Accessible": false, "Price Range": 3}, "type": "business"}
{"business_id": "D37k9DjJeF5h1ibjkdNTOQ", "full_address": "Herrenstr. 20\n76133 Karlsruhe", "hours": {}, "open": true, "categories": ["Fashion", "Shopping", "Shoe Stores"], "city": "Karlsruhe", "review_count": 4, "name": "Sigrun Woehr", "neighborhoods": [], "longitude": 8.39885, "state": "BW", "stars": 5.0, "latitude": 49.0096, "attributes": {"Parking": {"garage": false, "validated": false, "street": false, "lot": false, "valet": false}, "Accepts Credit Cards": true, "Price Range": 3}, "type": "business"}
{"business_id": "V2sfga9fwgmwpFELSWrQCw", "full_address": "Bahnhofstr. 5\n76356 Weingarten", "hours": {}, "open": true, "categories": ["Children's Clothing", "Fashion", "Shopping", "Food", "Chocolatiers & Shops", "Specialty Food"], "city": "Weingarten", "review_count": 4, "name": "La Casetta del Caff\u00e9", "neighborhoods": [], "longitude": 8.53132, "state": "BW", "stars": 4.0, "latitude": 49.0515, "attributes": {"Parking": {"garage": false, "validated": false, "street": false, "lot": false, "valet": false}, "Price Range": 1}, "type": "business"}
{"business_id": "y4Y_PFthmrdSZuJH6Jl9GQ", "full_address": "Kaiserstra\u00dfe 181\n76133 Karlsruhe", "hours": {}, "open": true, "categories": ["Sporting Goods", "Fashion", "Shopping", "Shoe Stores"], "city": "Karlsruhe", "review_count": 6, "name": "Foot Locker", "neighborhoods": [], "longitude": 8.3990525, "state": "BW", "stars": 4.0, "latitude": 49.0096384, "attributes": {"Wheelchair Accessible": true, "Price Range": 3}, "type": "business"}
{"business_id": "E7iw4558JRv7F2Un_CD76g", "full_address": "Kaiserstr. 175\n76133 Karlsruhe", "hours": {}, "open": true, "categories": ["Fashion", "Shopping"], "city": "Karlsruhe", "review_count": 4, "name": "H & M Hennes & Mauritz", "neighborhoods": [], "longitude": 8.3998035, "state": "BW", "stars": 5.0, "latitude": 49.0096273, "attributes": {"Parking": {"garage": false, "street": false, "validated": false, "lot": false, "valet": false}, "Accepts Credit Cards": true, "Price Range": 2}, "type": "business"}
{"business_id": "16SuskmvewU0N3J4GdgLUQ", "full_address": "Kriegsstr. 39\n76133 Karlsruhe", "hours": {}, "open": true, "categories": ["Photographers", "Bridal", "Fashion", "Shopping", "Event Planning & Services"], "city": "Karlsruhe", "review_count": 3, "name": "Bauer Portrait Atelier", "neighborhoods": [], "longitude": 8.39656, "state": "BW", "stars": 5.0, "latitude": 49.0052, "attributes": {"Price Range": 2}, "type": "business"}
{"business_id": "HgdywOlTmkSZ_7WM1foXQA", "full_address": "Kaiserstr. 217\n76133 Karlsruhe", "hours": {}, "open": true, "categories": ["Fashion", "Shopping", "Shoe Stores"], "city": "Karlsruhe", "review_count": 3, "name": "G\u00f6rtz 17", "neighborhoods": [], "longitude": 8.39476, "state": "BW", "stars": 2.5, "latitude": 49.0097, "attributes": {"Price Range": 3}, "type": "business"}
{"business_id": "1n5hiaLwfqWY9T6X8kdQCw", "full_address": "Erbprinzenstr. 26\n76133 Karlsruhe", "hours": {}, "open": true, "categories": ["Fashion", "Shopping"], "city": "Karlsruhe", "review_count": 5, "name": "Glam Fashion Store", "neighborhoods": [], "longitude": 8.39699, "state": "BW", "stars": 4.5, "latitude": 49.0091, "attributes": {"Wheelchair Accessible": true, "Price Range": 3}, "type": "business"}
{"business_id": "_PWHhThtFJRf7oEnP6w82Q", "full_address": "Karlstr. 90\n76137 Karlsruhe", "hours": {"Monday": {"close": "18:00", "open": "10:00"}, "Tuesday": {"close": "18:00", "open": "10:00"}, "Friday": {"close": "18:00", "open": "10:00"}, "Wednesday": {"close": "18:00", "open": "10:00"}, "Thursday": {"close": "18:00", "open": "10:00"}, "Saturday": {"close": "13:00", "open": "11:00"}}, "open": false, "categories": ["Used, Vintage & Consignment", "Fashion", "Shopping"], "city": "Karlsruhe", "review_count": 7, "name": "Kashka Diakonisches Werk Karlsruhe", "neighborhoods": [], "longitude": 8.39394, "state": "BW", "stars": 3.0, "latitude": 49.0004, "attributes": {"Parking": {"garage": false, "street": false, "validated": false, "lot": false, "valet": false}, "Accepts Credit Cards": false, "Price Range": 1}, "type": "business"}
{"business_id": "pTDZ9IbXXQLBPeev-Oupbg", "full_address": "Kaiserstr. 195\n76133 Karlsruhe", "hours": {}, "open": true, "categories": ["Fashion", "Shopping"], "city": "Karlsruhe", "review_count": 7, "name": "Esprit", "neighborhoods": [], "longitude": 8.3979247, "state": "BW", "stars": 3.5, "latitude": 49.0096938, "attributes": {"Price Range": 3}, "type": "business"}
{"business_id": "r79r7YC7NwxlncEMmJnffw", "full_address": "Ettlinger-Tor-Platz 1\nim Ettlinger Tor-Shopping-Center\n76133 Karlsruhe", "hours": {}, "open": true, "categories": ["Men's Clothing", "Fashion", "Shopping"], "city": "Karlsruhe", "review_count": 5, "name": "Anson's", "neighborhoods": [], "longitude": 8.40208, "state": "BW", "stars": 4.0, "latitude": 49.0067, "attributes": {"Parking": {"garage": false, "street": false, "validated": false, "lot": false, "valet": false}, "Accepts Credit Cards": true, "Wheelchair Accessible": true, "Price Range": 2}, "type": "business"}
{"business_id": "3BvclNio2VNl3aZv3JYSsQ", "full_address": "Kaiserstra\u00dfe 120\n76133 Karlsruhe", "hours": {}, "open": true, "categories": ["Fashion", "Shopping"], "city": "Karlsruhe", "review_count": 5, "name": "H&M - Men", "neighborhoods": [], "longitude": 8.40058, "state": "BW", "stars": 4.0, "latitude": 49.0098, "attributes": {}, "type": "business"}
{"business_id": "D2LF87_v_nC4sK7ZAAmQkw", "full_address": "Ettlinger-Tor-Platz 1\n76133 Karlsruhe", "hours": {}, "open": true, "categories": ["Fashion", "Shopping", "Shoe Stores"], "city": "Karlsruhe", "review_count": 3, "name": "Deichmann", "neighborhoods": [], "longitude": 8.40208, "state": "BW", "stars": 2.0, "latitude": 49.0067, "attributes": {"Accepts Credit Cards": true, "Price Range": 1}, "type": "business"}
{"business_id": "FgXSF5rB-sXvqeheZPFwZw", "full_address": "Karlstr. 56\n76133 Karlsruhe", "hours": {}, "open": true, "categories": ["Maternity Wear", "Fashion", "Shopping", "Baby Gear & Furniture"], "city": "Karlsruhe", "review_count": 3, "name": "baby-walz", "neighborhoods": [], "longitude": 8.39429, "state": "BW", "stars": 1.5, "latitude": 49.0035, "attributes": {"Price Range": 4}, "type": "business"}
{"business_id": "rJZRC9dVdsHuIeQmDdp3rA", "full_address": "Kaiserstr. 96\n76133 Karlsruhe", "hours": {"Monday": {"close": "20:00", "open": "10:00"}, "Tuesday": {"close": "20:00", "open": "10:00"}, "Friday": {"close": "20:00", "open": "10:00"}, "Wednesday": {"close": "20:00", "open": "10:00"}, "Thursday": {"close": "20:00", "open": "10:00"}, "Saturday": {"close": "20:00", "open": "10:00"}}, "open": true, "categories": ["Department Stores", "Fashion", "Shopping"], "city": "Karlsruhe", "review_count": 13, "name": "E. Breuninger", "neighborhoods": [], "longitude": 8.4005128, "state": "BW", "stars": 4.5, "latitude": 49.009768, "attributes": {"Parking": {"garage": false, "street": false, "validated": false, "lot": false, "valet": false}, "Accepts Credit Cards": true, "Wheelchair Accessible": true, "Price Range": 3}, "type": "business"}
{"business_id": "4svxTJsNoi1P6zt93_sGTg", "full_address": "Ortenbergstr. 8\n76135 Karlsruhe", "hours": {}, "open": true, "categories": ["Department Stores", "Fashion", "Shopping"], "city": "Karlsruhe", "review_count": 4, "name": "real,- SB Warenhaus", "neighborhoods": [], "longitude": 8.37562, "state": "BW", "stars": 2.5, "latitude": 48.9917, "attributes": {"Parking": {"garage": false, "street": false, "validated": false, "lot": false, "valet": false}, "Accepts Credit Cards": true, "Price Range": 2}, "type": "business"}
{"business_id": "9107Qw2zL_zIoLR9acqnag", "full_address": "Amthausstr.  7\n76227 Karlsruhe\n76227 Karlsruhe", "hours": {"Monday": {"close": "18:00", "open": "14:30"}, "Tuesday": {"close": "18:00", "open": "14:30"}, "Friday": {"close": "18:00", "open": "14:30"}, "Wednesday": {"close": "00:00", "open": "00:00"}, "Thursday": {"close": "18:00", "open": "14:30"}, "Saturday": {"close": "00:00", "open": "00:00"}}, "open": false, "categories": ["Used, Vintage & Consignment", "Fashion", "Shopping"], "city": "Karlsruhe", "review_count": 3, "name": "Kindersecondhandladen Durlach", "neighborhoods": [], "longitude": 8.4716335, "state": "BW", "stars": 3.5, "latitude": 48.9987216, "attributes": {"Accepts Credit Cards": false, "Wheelchair Accessible": false, "Parking": {"garage": false, "validated": false, "street": false, "lot": false, "valet": false}}, "type": "business"}
{"business_id": "LudeITL-wiw883I4Nqq0Fg", "full_address": "Passagehof 24\n76133 Karlsruhe", "hours": {"Monday": {"close": "19:30", "open": "10:30"}, "Tuesday": {"close": "19:30", "open": "10:30"}, "Friday": {"close": "19:30", "open": "10:30"}, "Wednesday": {"close": "19:30", "open": "10:30"}, "Thursday": {"close": "19:30", "open": "10:30"}, "Saturday": {"close": "19:30", "open": "10:30"}}, "open": true, "categories": ["Sporting Goods", "Fashion", "Shopping", "Outdoor Gear"], "city": "Karlsruhe", "review_count": 6, "name": "GRiP Boardshop Karlsruhe", "neighborhoods": [], "longitude": 8.39640182740027, "state": "BW", "stars": 5.0, "latitude": 49.0106767352139, "attributes": {"Parking": {"garage": true, "street": true, "validated": false, "lot": false, "valet": false}, "Accepts Credit Cards": true, "Price Range": 2}, "type": "business"}
{"business_id": "fPZ9g2t2HTLRh5aL8BBIAw", "full_address": "Lammstra\u00dfe 7a\nRathauspassage\n76133 Karlsruhe", "hours": {"Monday": {"close": "19:00", "open": "10:00"}, "Tuesday": {"close": "19:00", "open": "10:00"}, "Friday": {"close": "19:00", "open": "10:00"}, "Wednesday": {"close": "19:00", "open": "10:00"}, "Thursday": {"close": "19:00", "open": "10:00"}, "Saturday": {"close": "18:00", "open": "10:00"}}, "open": true, "categories": ["Children's Clothing", "Fashion", "Shopping"], "city": "Karlsruhe", "review_count": 3, "name": "Coloretti Kinder- und Schwangerschaftsmode", "neighborhoods": [], "longitude": 8.393843, "state": "BW", "stars": 4.5, "latitude": 49.0067498, "attributes": {"Parking": {"garage": false, "validated": false, "street": false, "lot": false, "valet": false}, "Accepts Credit Cards": true, "Wheelchair Accessible": true, "Price Range": 2}, "type": "business"}
{"business_id": "NOVlS5DyG-W5ryzxw5D4qA", "full_address": "Waldstr. 41 - 43\n76133 Karlsruhe", "hours": {}, "open": true, "categories": ["Used, Vintage & Consignment", "Used Bookstore", "Fashion", "Shopping"], "city": "Karlsruhe", "review_count": 3, "name": "Oxfam", "neighborhoods": [], "longitude": 8.3808372, "state": "BW", "stars": 5.0, "latitude": 49.0176507, "attributes": {}, "type": "business"}
{"business_id": "uAbMtNpZiRDqf61PRX4bDw", "full_address": "Carl-Metz-Str. 3\n76185 Karlsruhe", "hours": {"Monday": {"close": "19:00", "open": "10:00"}, "Tuesday": {"close": "19:00", "open": "10:00"}, "Friday": {"close": "19:00", "open": "10:00"}, "Wednesday": {"close": "19:00", "open": "10:00"}, "Thursday": {"close": "19:00", "open": "10:00"}, "Saturday": {"close": "18:00", "open": "10:00"}}, "open": true, "categories": ["Fashion", "Shopping", "Sporting Goods", "Local Services", "Bikes", "Sports Wear", "Bike Repair/Maintenance"], "city": "Karlsruhe", "review_count": 9, "name": "B.O.C.", "neighborhoods": [], "longitude": 8.35423, "state": "BW", "stars": 3.0, "latitude": 49.00984, "attributes": {"Parking": {"garage": false, "street": false, "validated": false, "lot": true, "valet": false}, "Accepts Credit Cards": false, "Wheelchair Accessible": true, "Price Range": 2}, "type": "business"}
{"business_id": "YWp1E5ZBJQhlbgbDhS6zcw", "full_address": "Kaiserstr. 92\n76133 Karlsruhe", "hours": {"Monday": {"close": "20:00", "open": "10:00"}, "Tuesday": {"close": "20:00", "open": "10:00"}, "Friday": {"close": "20:00", "open": "10:00"}, "Wednesday": {"close": "20:00", "open": "10:00"}, "Thursday": {"close": "20:00", "open": "10:00"}, "Saturday": {"close": "20:00", "open": "10:00"}}, "open": true, "categories": ["Department Stores", "Fashion", "Shopping"], "city": "Karlsruhe", "review_count": 5, "name": "Karstadt sports", "neighborhoods": [], "longitude": 8.3946101, "state": "BW", "stars": 2.5, "latitude": 49.0099888, "attributes": {"Accepts Credit Cards": true, "Price Range": 3}, "type": "business"}
{"business_id": "0mqni7gWoWJ1H5dN4Wwzsg", "full_address": "Ettlinger Tor Platz 1\n76133 Karlsruhe", "hours": {"Monday": {"close": "20:00", "open": "10:00"}, "Tuesday": {"close": "20:00", "open": "10:00"}, "Friday": {"close": "20:00", "open": "10:00"}, "Wednesday": {"close": "20:00", "open": "10:00"}, "Thursday": {"close": "22:00", "open": "10:00"}, "Saturday": {"close": "20:00", "open": "10:00"}}, "open": true, "categories": ["Fashion", "Shopping"], "city": "Karlsruhe", "review_count": 3, "name": "Olymp", "neighborhoods": [], "longitude": 8.4686236, "state": "BW", "stars": 2.5, "latitude": 48.9942088, "attributes": {"Accepts Credit Cards": true, "Price Range": 3}, "type": "business"}
{"business_id": "0dLjH5zWnbJDukuM3iQYvg", "full_address": "Kaiserstr. 211\n76133 Karlsruhe", "hours": {}, "open": true, "categories": ["Fashion", "Shopping", "Shoe Stores"], "city": "Karlsruhe", "review_count": 9, "name": "Humanic Filiale", "neighborhoods": [], "longitude": 8.3958862, "state": "BW", "stars": 3.5, "latitude": 49.0099485, "attributes": {"Accepts Credit Cards": true, "Price Range": 2}, "type": "business"}
{"business_id": "ll6IEuZo2hLh4PoAHjc6cA", "full_address": "Karlstr. 3-5\n76133 Karlsruhe", "hours": {"Monday": {"close": "19:00", "open": "11:00"}, "Tuesday": {"close": "19:00", "open": "11:00"}, "Friday": {"close": "19:00", "open": "11:00"}, "Wednesday": {"close": "19:00", "open": "11:00"}, "Thursday": {"close": "19:00", "open": "11:00"}, "Saturday": {"close": "19:00", "open": "11:00"}}, "open": true, "categories": ["Women's Clothing", "Fashion", "Shopping"], "city": "Karlsruhe", "review_count": 5, "name": "Kult-Industries", "neighborhoods": [], "longitude": 8.3953935, "state": "BW", "stars": 4.0, "latitude": 49.0116172, "attributes": {"Parking": {"garage": false, "validated": false, "street": false, "lot": false, "valet": false}, "Accepts Credit Cards": true, "Wheelchair Accessible": true, "Price Range": 3}, "type": "business"}
{"business_id": "Hxw62K84VXUysh1QjWZlqA", "full_address": "Printzstr. 4\n76139 Karlsruhe", "hours": {"Monday": {"close": "18:30", "open": "10:00"}, "Tuesday": {"close": "18:30", "open": "10:00"}, "Friday": {"close": "20:00", "open": "10:00"}, "Wednesday": {"close": "18:30", "open": "10:00"}, "Thursday": {"close": "20:00", "open": "10:00"}, "Saturday": {"close": "18:00", "open": "10:00"}}, "open": true, "categories": ["Fashion", "Shopping"], "city": "Karlsruhe", "review_count": 3, "name": "Big N Better", "neighborhoods": [], "longitude": 8.4625259, "state": "BW", "stars": 3.5, "latitude": 49.0215295, "attributes": {"Accepts Credit Cards": true, "Wheelchair Accessible": true, "Parking": {"garage": false, "validated": false, "street": false, "lot": false, "valet": false}}, "type": "business"}
{"business_id": "UhT3MBAwJKEBXUxui8ggrg", "full_address": "Ettlinger-Tor-Platz  1\nim Ece\n76133 Karlsruhe", "hours": {}, "open": true, "categories": ["Women's Clothing", "Fashion", "Shopping"], "city": "Karlsruhe", "review_count": 3, "name": "Noa Noa", "neighborhoods": [], "longitude": 8.40278, "state": "BW", "stars": 2.5, "latitude": 49.006, "attributes": {"Price Range": 4}, "type": "business"}
{"business_id": "WFvTk1sfSHMLCQkxzk0jlg", "full_address": "Kaiserstr. 147-159\n76133 Karlsruhe", "hours": {"Monday": {"close": "20:00", "open": "09:30"}, "Tuesday": {"close": "20:00", "open": "09:30"}, "Friday": {"close": "20:00", "open": "09:30"}, "Wednesday": {"close": "20:00", "open": "09:30"}, "Thursday": {"close": "20:00", "open": "09:30"}, "Saturday": {"close": "20:00", "open": "09:30"}}, "open": true, "categories": ["Department Stores", "Fashion", "Shopping"], "city": "Karlsruhe", "review_count": 15, "name": "Karstadt", "neighborhoods": [], "longitude": 8.40234, "state": "BW", "stars": 4.0, "latitude": 49.0095, "attributes": {"Parking": {"garage": true, "street": false, "validated": false, "lot": false, "valet": false}, "Accepts Credit Cards": true, "Wheelchair Accessible": true, "Price Range": 2}, "type": "business"}
{"business_id": "_BTySD9rDdvEH5ftVE4adQ", "full_address": "EKZ Post Galerie\nKaiserstr. 217\n76133 Karlsruhe", "hours": {"Monday": {"close": "20:00", "open": "09:00"}, "Tuesday": {"close": "20:00", "open": "09:00"}, "Friday": {"close": "20:00", "open": "09:00"}, "Wednesday": {"close": "20:00", "open": "09:00"}, "Thursday": {"close": "20:00", "open": "09:00"}, "Saturday": {"close": "20:00", "open": "09:00"}}, "open": true, "categories": ["Fashion", "Shopping"], "city": "Karlsruhe", "review_count": 8, "name": "Primark", "neighborhoods": [], "longitude": 8.39478, "state": "BW", "stars": 3.5, "latitude": 49.0097, "attributes": {"Parking": {"garage": false, "street": false, "validated": false, "lot": false, "valet": false}, "Accepts Credit Cards": true, "Price Range": 1}, "type": "business"}
{"business_id": "92bAvTJN_wKOUwygwAAlQw", "full_address": "Akademiestra\u00dfe 9-11\n76133 Karlsruhe", "hours": {}, "open": true, "categories": ["Children's Clothing", "Fashion", "Shopping"], "city": "Karlsruhe", "review_count": 3, "name": "Rasselfisch", "neighborhoods": [], "longitude": 8.39799, "state": "BW", "stars": 3.5, "latitude": 49.0118, "attributes": {"Parking": {"garage": false, "street": false, "validated": false, "lot": false, "valet": false}, "Accepts Credit Cards": true, "Price Range": 3}, "type": "business"}
{"business_id": "W2RFJg1N_MzuI8I42MQ2VA", "full_address": "Windeckstr. 15\n76135 Karlsruhe", "hours": {}, "open": true, "categories": ["Department Stores", "Fashion", "Shopping"], "city": "Karlsruhe", "review_count": 5, "name": "Heinrich Heine", "neighborhoods": [], "longitude": 8.37332, "state": "BW", "stars": 3.0, "latitude": 48.98807, "attributes": {"Price Range": 3}, "type": "business"}
{"business_id": "ePiK7IM1ZWQiwuivFwKE1Q", "full_address": "Lammstr. 4\n76133 Karlsruhe", "hours": {"Monday": {"close": "20:00", "open": "10:00"}, "Tuesday": {"close": "20:00", "open": "10:00"}, "Friday": {"close": "20:00", "open": "10:00"}, "Wednesday": {"close": "20:00", "open": "10:00"}, "Thursday": {"close": "20:00", "open": "10:00"}, "Saturday": {"close": "20:00", "open": "10:00"}}, "open": true, "categories": ["Fashion", "Shopping"], "city": "Karlsruhe", "review_count": 11, "name": "Peek & Cloppenburg", "neighborhoods": [], "longitude": 8.40257, "state": "BW", "stars": 4.0, "latitude": 49.0098, "attributes": {"Price Range": 3}, "type": "business"}
{"business_id": "aePFUnoAYbi7uij8k4KFxA", "full_address": "Kaiserstr. 52\n76133 Karlsruhe", "hours": {}, "open": true, "categories": ["Fashion", "Shopping"], "city": "Karlsruhe", "review_count": 3, "name": "C & A Mode", "neighborhoods": [], "longitude": 8.4063616, "state": "BW", "stars": 3.0, "latitude": 49.0095992, "attributes": {"Price Range": 2}, "type": "business"}
{"business_id": "q_Xd4xuUEcSga_n65SGejQ", "full_address": "Kaiserstr. 199 A\n76133 Karlsruhe", "hours": {}, "open": true, "categories": ["Hobby Shops", "Fashion", "Shopping", "Accessories"], "city": "Karlsruhe", "review_count": 4, "name": "Wmf W\u00fcrttembergische Metallwarenfabrik", "neighborhoods": [], "longitude": 8.3975624, "state": "BW", "stars": 4.0, "latitude": 49.0097223, "attributes": {}, "type": "business"}
{"business_id": "V8oiNG50dqpSlWdencpHqw", "full_address": "Karlstra\u00dfe 25\n76133 Karlsruhe", "hours": {"Monday": {"close": "18:00", "open": "10:00"}, "Tuesday": {"close": "18:00", "open": "10:00"}, "Friday": {"close": "19:00", "open": "10:00"}, "Wednesday": {"close": "18:00", "open": "10:00"}, "Thursday": {"close": "19:00", "open": "10:00"}, "Saturday": {"close": "17:00", "open": "10:30"}}, "open": true, "categories": ["Children's Clothing", "Fashion", "Shopping"], "city": "Karlsruhe", "review_count": 4, "name": "Hergard Kindermoden", "neighborhoods": [], "longitude": 8.3951634, "state": "BW", "stars": 3.5, "latitude": 49.0081634, "attributes": {"Parking": {"garage": false, "validated": false, "street": false, "lot": false, "valet": false}, "Wheelchair Accessible": false, "Price Range": 4}, "type": "business"}
{"business_id": "BGZHzaRaOuxbBPAKxmnkZw", "full_address": "Karlstra\u00dfe 82\n76137 Karlsruhe", "hours": {"Monday": {"close": "18:30", "open": "08:30"}, "Tuesday": {"close": "18:30", "open": "08:30"}, "Friday": {"close": "18:30", "open": "08:30"}, "Wednesday": {"close": "18:30", "open": "08:30"}, "Thursday": {"close": "18:30", "open": "08:30"}, "Saturday": {"close": "13:30", "open": "09:30"}}, "open": true, "categories": ["Children's Clothing", "Fashion", "Shopping", "Appliances & Repair", "Home & Garden", "Local Services", "Kitchen & Bath", "Toy Stores"], "city": "Karlsruhe", "review_count": 3, "name": "atelier B:", "neighborhoods": [], "longitude": 8.39402, "state": "BW", "stars": 4.5, "latitude": 49.0009, "attributes": {}, "type": "business"}
{"business_id": "JKPfm4KBvDoAKJwWiMz3Lg", "full_address": "Gerwigstr. 69\n76131 Karlsruhe", "hours": {}, "open": true, "categories": ["Shopping", "Fashion", "Maternity Wear", "Baby Gear & Furniture"], "city": "Karlsruhe", "review_count": 3, "name": "Baby-Center", "neighborhoods": [], "longitude": 8.43805, "state": "BW", "stars": 1.5, "latitude": 49.007, "attributes": {"Parking": {"garage": false, "validated": false, "street": false, "lot": false, "valet": false}, "Wheelchair Accessible": false, "Price Range": 3}, "type": "business"}
{"business_id": "A7Zrif-apG0Lt6ml1bXSsg", "full_address": "Eggensteiner Stra\u00dfe 52\n76297 Stutensee", "hours": {}, "open": true, "categories": ["Children's Clothing", "Fashion", "Shopping", "Mattresses", "Home & Garden", "Furniture Stores"], "city": "Stutensee", "review_count": 4, "name": "Naturversand Kirschke", "neighborhoods": [], "longitude": 8.4665991, "state": "BW", "stars": 3.5, "latitude": 49.0655226, "attributes": {}, "type": "business"}
{"business_id": "R0k3wzbxnqO6a7arCGtc-Q", "full_address": "Kaiserstr. 82a\n76133 Karlsruhe", "hours": {}, "open": true, "categories": ["Men's Clothing", "Fashion", "Shopping"], "city": "Karlsruhe", "review_count": 3, "name": "Eckerle Herrenmodenvertrieb", "neighborhoods": [], "longitude": 8.40286, "state": "BW", "stars": 3.0, "latitude": 49.0099, "attributes": {"Accepts Credit Cards": true, "Wheelchair Accessible": true, "Price Range": 3}, "type": "business"}
{"business_id": "8cfBkyIJsa3Ij25QnkDr7w", "full_address": "Kaiserstr. 170\n76133 Karlsruhe", "hours": {}, "open": true, "categories": ["Fashion", "Shopping"], "city": "Karlsruhe", "review_count": 7, "name": "XtraX", "neighborhoods": [], "longitude": 8.39249, "state": "BW", "stars": 4.5, "latitude": 49.0103, "attributes": {"Parking": {"garage": false, "validated": false, "street": false, "lot": false, "valet": false}, "Wheelchair Accessible": false, "Price Range": 3}, "type": "business"}
{"business_id": "D37k9DjJeF5h1ibjkdNTOQ", "full_address": "Herrenstr. 20\n76133 Karlsruhe", "hours": {}, "open": true, "categories": ["Fashion", "Shopping", "Shoe Stores"], "city": "Karlsruhe", "review_count": 4, "name": "Sigrun Woehr", "neighborhoods": [], "longitude": 8.39885, "state": "BW", "stars": 5.0, "latitude": 49.0096, "attributes": {"Parking": {"garage": false, "validated": false, "street": false, "lot": false, "valet": false}, "Accepts Credit Cards": true, "Price Range": 3}, "type": "business"}
{"business_id": "V2sfga9fwgmwpFELSWrQCw", "full_address": "Bahnhofstr. 5\n76356 Weingarten", "hours": {}, "open": true, "categories": ["Children's Clothing", "Fashion", "Shopping", "Food", "Chocolatiers & Shops", "Specialty Food"], "city": "Weingarten", "review_count": 4, "name": "La Casetta del Caff\u00e9", "neighborhoods": [], "longitude": 8.53132, "state": "BW", "stars": 4.0, "latitude": 49.0515, "attributes": {"Parking": {"garage": false, "validated": false, "street": false, "lot": false, "valet": false}, "Price Range": 1}, "type": "business"}
{"business_id": "y4Y_PFthmrdSZuJH6Jl9GQ", "full_address": "Kaiserstra\u00dfe 181\n76133 Karlsruhe", "hours": {}, "open": true, "categories": ["Sporting Goods", "Fashion", "Shopping", "Shoe Stores"], "city": "Karlsruhe", "review_count": 6, "name": "Foot Locker", "neighborhoods": [], "longitude": 8.3990525, "state": "BW", "stars": 4.0, "latitude": 49.0096384, "attributes": {"Wheelchair Accessible": true, "Price Range": 3}, "type": "business"}
{"business_id": "E7iw4558JRv7F2Un_CD76g", "full_address": "Kaiserstr. 175\n76133 Karlsruhe", "hours": {}, "open": true, "categories": ["Fashion", "Shopping"], "city": "Karlsruhe", "review_count": 4, "name": "H & M Hennes & Mauritz", "neighborhoods": [], "longitude": 8.3998035, "state": "BW", "stars": 5.0, "latitude": 49.0096273, "attributes": {"Parking": {"garage": false, "street": false, "validated": false, "lot": false, "valet": false}, "Accepts Credit Cards": true, "Price Range": 2}, "type": "business"}
{"business_id": "16SuskmvewU0N3J4GdgLUQ", "full_address": "Kriegsstr. 39\n76133 Karlsruhe", "hours": {}, "open": true, "categories": ["Photographers", "Bridal", "Fashion", "Shopping", "Event Planning & Services"], "city": "Karlsruhe", "review_count": 3, "name": "Bauer Portrait Atelier", "neighborhoods": [], "longitude": 8.39656, "state": "BW", "stars": 5.0, "latitude": 49.0052, "attributes": {"Price Range": 2}, "type": "business"}
{"business_id": "HgdywOlTmkSZ_7WM1foXQA", "full_address": "Kaiserstr. 217\n76133 Karlsruhe", "hours": {}, "open": true, "categories": ["Fashion", "Shopping", "Shoe Stores"], "city": "Karlsruhe", "review_count": 3, "name": "G\u00f6rtz 17", "neighborhoods": [], "longitude": 8.39476, "state": "BW", "stars": 2.5, "latitude": 49.0097, "attributes": {"Price Range": 3}, "type": "business"}
{"business_id": "1n5hiaLwfqWY9T6X8kdQCw", "full_address": "Erbprinzenstr. 26\n76133 Karlsruhe", "hours": {}, "open": true, "categories": ["Fashion", "Shopping"], "city": "Karlsruhe", "review_count": 5, "name": "Glam Fashion Store", "neighborhoods": [], "longitude": 8.39699, "state": "BW", "stars": 4.5, "latitude": 49.0091, "attributes": {"Wheelchair Accessible": true, "Price Range": 3}, "type": "business"}
{"business_id": "_PWHhThtFJRf7oEnP6w82Q", "full_address": "Karlstr. 90\n76137 Karlsruhe", "hours": {"Monday": {"close": "18:00", "open": "10:00"}, "Tuesday": {"close": "18:00", "open": "10:00"}, "Friday": {"close": "18:00", "open": "10:00"}, "Wednesday": {"close": "18:00", "open": "10:00"}, "Thursday": {"close": "18:00", "open": "10:00"}, "Saturday": {"close": "13:00", "open": "11:00"}}, "open": false, "categories": ["Used, Vintage & Consignment", "Fashion", "Shopping"], "city": "Karlsruhe", "review_count": 7, "name": "Kashka Diakonisches Werk Karlsruhe", "neighborhoods": [], "longitude": 8.39394, "state": "BW", "stars": 3.0, "latitude": 49.0004, "attributes": {"Parking": {"garage": false, "street": false, "validated": false, "lot": false, "valet": false}, "Accepts Credit Cards": false, "Price Range": 1}, "type": "business"}
{"business_id": "pTDZ9IbXXQLBPeev-Oupbg", "full_address": "Kaiserstr. 195\n76133 Karlsruhe", "hours": {}, "open": true, "categories": ["Fashion", "Shopping"], "city": "Karlsruhe", "review_count": 7, "name": "Esprit", "neighborhoods": [], "longitude": 8.3979247, "state": "BW", "stars": 3.5, "latitude": 49.0096938, "attributes": {"Price Range": 3}, "type": "business"}
{"business_id": "r79r7YC7NwxlncEMmJnffw", "full_address": "Ettlinger-Tor-Platz 1\nim Ettlinger Tor-Shopping-Center\n76133 Karlsruhe", "hours": {}, "open": true, "categories": ["Men's Clothing", "Fashion", "Shopping"], "city": "Karlsruhe", "review_count": 5, "name": "Anson's", "neighborhoods": [], "longitude": 8.40208, "state": "BW", "stars": 4.0, "latitude": 49.0067, "attributes": {"Parking": {"garage": false, "street": false, "validated": false, "lot": false, "valet": false}, "Accepts Credit Cards": true, "Wheelchair Accessible": true, "Price Range": 2}, "type": "business"}
{"business_id": "3BvclNio2VNl3aZv3JYSsQ", "full_address": "Kaiserstra\u00dfe 120\n76133 Karlsruhe", "hours": {}, "open": true, "categories": ["Fashion", "Shopping"], "city": "Karlsruhe", "review_count": 5, "name": "H&M - Men", "neighborhoods": [], "longitude": 8.40058, "state": "BW", "stars": 4.0, "latitude": 49.0098, "attributes": {}, "type": "business"}
{"business_id": "D2LF87_v_nC4sK7ZAAmQkw", "full_address": "Ettlinger-Tor-Platz 1\n76133 Karlsruhe", "hours": {}, "open": true, "categories": ["Fashion", "Shopping", "Shoe Stores"], "city": "Karlsruhe", "review_count": 3, "name": "Deichmann", "neighborhoods": [], "longitude": 8.40208, "state": "BW", "stars": 2.0, "latitude": 49.0067, "attributes": {"Accepts Credit Cards": true, "Price Range": 1}, "type": "business"}
{"business_id": "FgXSF5rB-sXvqeheZPFwZw", "full_address": "Karlstr. 56\n76133 Karlsruhe", "hours": {}, "open": true, "categories": ["Maternity Wear", "Fashion", "Shopping", "Baby Gear & Furniture"], "city": "Karlsruhe", "review_count": 3, "name": "baby-walz", "neighborhoods": [], "longitude": 8.39429, "state": "BW", "stars": 1.5, "latitude": 49.0035, "attributes": {"Price Range": 4}, "type": "business"}
{"business_id": "rJZRC9dVdsHuIeQmDdp3rA", "full_address": "Kaiserstr. 96\n76133 Karlsruhe", "hours": {"Monday": {"close": "20:00", "open": "10:00"}, "Tuesday": {"close": "20:00", "open": "10:00"}, "Friday": {"close": "20:00", "open": "10:00"}, "Wednesday": {"close": "20:00", "open": "10:00"}, "Thursday": {"close": "20:00", "open": "10:00"}, "Saturday": {"close": "20:00", "open": "10:00"}}, "open": true, "categories": ["Department Stores", "Fashion", "Shopping"], "city": "Karlsruhe", "review_count": 13, "name": "E. Breuninger", "neighborhoods": [], "longitude": 8.4005128, "state": "BW", "stars": 4.5, "latitude": 49.009768, "attributes": {"Parking": {"garage": false, "street": false, "validated": false, "lot": false, "valet": false}, "Accepts Credit Cards": true, "Wheelchair Accessible": true, "Price Range": 3}, "type": "business"}
{"business_id": "4svxTJsNoi1P6zt93_sGTg", "full_address": "Ortenbergstr. 8\n76135 Karlsruhe", "hours": {}, "open": true, "categories": ["Department Stores", "Fashion", "Shopping"], "city": "Karlsruhe", "review_count": 4, "name": "real,- SB Warenhaus", "neighborhoods": [], "longitude": 8.37562, "state": "BW", "stars": 2.5, "latitude": 48.9917, "attributes": {"Parking": {"garage": false, "street": false, "validated": false, "lot": false, "valet": false}, "Accepts Credit Cards": true, "Price Range": 2}, "type": "business"}
{"business_id": "9107Qw2zL_zIoLR9acqnag", "full_address": "Amthausstr.  7\n76227 Karlsruhe\n76227 Karlsruhe", "hours": {"Monday": {"close": "18:00", "open": "14:30"}, "Tuesday": {"close": "18:00", "open": "14:30"}, "Friday": {"close": "18:00", "open": "14:30"}, "Wednesday": {"close": "00:00", "open": "00:00"}, "Thursday": {"close": "18:00", "open": "14:30"}, "Saturday": {"close": "00:00", "open": "00:00"}}, "open": false, "categories": ["Used, Vintage & Consignment", "Fashion", "Shopping"], "city": "Karlsruhe", "review_count": 3, "name": "Kindersecondhandladen Durlach", "neighborhoods": [], "longitude": 8.4716335, "state": "BW", "stars": 3.5, "latitude": 48.9987216, "attributes": {"Accepts Credit Cards": false, "Wheelchair Accessible": false, "Parking": {"garage": false, "validated": false, "street": false, "lot": false, "valet": false}}, "type": "business"}
{"business_id": "LudeITL-wiw883I4Nqq0Fg", "full_address": "Passagehof 24\n76133 Karlsruhe", "hours": {"Monday": {"close": "19:30", "open": "10:30"}, "Tuesday": {"close": "19:30", "open": "10:30"}, "Friday": {"close": "19:30", "open": "10:30"}, "Wednesday": {"close": "19:30", "open": "10:30"}, "Thursday": {"close": "19:30", "open": "10:30"}, "Saturday": {"close": "19:30", "open": "10:30"}}, "open": true, "categories": ["Sporting Goods", "Fashion", "Shopping", "Outdoor Gear"], "city": "Karlsruhe", "review_count": 6, "name": "GRiP Boardshop Karlsruhe", "neighborhoods": [], "longitude": 8.39640182740027, "state": "BW", "stars": 5.0, "latitude": 49.0106767352139, "attributes": {"Parking": {"garage": true, "street": true, "validated": false, "lot": false, "valet": false}, "Accepts Credit Cards": true, "Price Range": 2}, "type": "business"}
{"business_id": "fPZ9g2t2HTLRh5aL8BBIAw", "full_address": "Lammstra\u00dfe 7a\nRathauspassage\n76133 Karlsruhe", "hours": {"Monday": {"close": "19:00", "open": "10:00"}, "Tuesday": {"close": "19:00", "open": "10:00"}, "Friday": {"close": "19:00", "open": "10:00"}, "Wednesday": {"close": "19:00", "open": "10:00"}, "Thursday": {"close": "19:00", "open": "10:00"}, "Saturday": {"close": "18:00", "open": "10:00"}}, "open": true, "categories": ["Children's Clothing", "Fashion", "Shopping"], "city": "Karlsruhe", "review_count": 3, "name": "Coloretti Kinder- und Schwangerschaftsmode", "neighborhoods": [], "longitude": 8.393843, "state": "BW", "stars": 4.5, "latitude": 49.0067498, "attributes": {"Parking": {"garage": false, "validated": false, "street": false, "lot": false, "valet": false}, "Accepts Credit Cards": true, "Wheelchair Accessible": true, "Price Range": 2}, "type": "business"}
{"business_id": "NOVlS5DyG-W5ryzxw5D4qA", "full_address": "Waldstr. 41 - 43\n76133 Karlsruhe", "hours": {}, "open": true, "categories": ["Used, Vintage & Consignment", "Used Bookstore", "Fashion", "Shopping"], "city": "Karlsruhe", "review_count": 3, "name": "Oxfam", "neighborhoods": [], "longitude": 8.3808372, "state": "BW", "stars": 5.0, "latitude": 49.0176507, "attributes": {}, "type": "business"}
{"business_id": "uAbMtNpZiRDqf61PRX4bDw", "full_address": "Carl-Metz-Str. 3\n76185 Karlsruhe", "hours": {"Monday": {"close": "19:00", "open": "10:00"}, "Tuesday": {"close": "19:00", "open": "10:00"}, "Friday": {"close": "19:00", "open": "10:00"}, "Wednesday": {"close": "19:00", "open": "10:00"}, "Thursday": {"close": "19:00", "open": "10:00"}, "Saturday": {"close": "18:00", "open": "10:00"}}, "open": true, "categories": ["Fashion", "Shopping", "Sporting Goods", "Local Services", "Bikes", "Sports Wear", "Bike Repair/Maintenance"], "city": "Karlsruhe", "review_count": 9, "name": "B.O.C.", "neighborhoods": [], "longitude": 8.35423, "state": "BW", "stars": 3.0, "latitude": 49.00984, "attributes": {"Parking": {"garage": false, "street": false, "validated": false, "lot": true, "valet": false}, "Accepts Credit Cards": false, "Wheelchair Accessible": true, "Price Range": 2}, "type": "business"}
{"business_id": "YWp1E5ZBJQhlbgbDhS6zcw", "full_address": "Kaiserstr. 92\n76133 Karlsruhe", "hours": {"Monday": {"close": "20:00", "open": "10:00"}, "Tuesday": {"close": "20:00", "open": "10:00"}, "Friday": {"close": "20:00", "open": "10:00"}, "Wednesday": {"close": "20:00", "open": "10:00"}, "Thursday": {"close": "20:00", "open": "10:00"}, "Saturday": {"close": "20:00", "open": "10:00"}}, "open": true, "categories": ["Department Stores", "Fashion", "Shopping"], "city": "Karlsruhe", "review_count": 5, "name": "Karstadt sports", "neighborhoods": [], "longitude": 8.3946101, "state": "BW", "stars": 2.5, "latitude": 49.0099888, "attributes": {"Accepts Credit Cards": true, "Price Range": 3}, "type": "business"}
{"business_id": "0mqni7gWoWJ1H5dN4Wwzsg", "full_address": "Ettlinger Tor Platz 1\n76133 Karlsruhe", "hours": {"Monday": {"close": "20:00", "open": "10:00"}, "Tuesday": {"close": "20:00", "open": "10:00"}, "Friday": {"close": "20:00", "open": "10:00"}, "Wednesday": {"close": "20:00", "open": "10:00"}, "Thursday": {"close": "22:00", "open": "10:00"}, "Saturday": {"close": "20:00", "open": "10:00"}}, "open": true, "categories": ["Fashion", "Shopping"], "city": "Karlsruhe", "review_count": 3, "name": "Olymp", "neighborhoods": [], "longitude": 8.4686236, "state": "BW", "stars": 2.5, "latitude": 48.9942088, "attributes": {"Accepts Credit Cards": true, "Price Range": 3}, "type": "business"}
{"business_id": "0dLjH5zWnbJDukuM3iQYvg", "full_address": "Kaiserstr. 211\n76133 Karlsruhe", "hours": {}, "open": true, "categories": ["Fashion", "Shopping", "Shoe Stores"], "city": "Karlsruhe", "review_count": 9, "name": "Humanic Filiale", "neighborhoods": [], "longitude": 8.3958862, "state": "BW", "stars": 3.5, "latitude": 49.0099485, "attributes": {"Accepts Credit Cards": true, "Price Range": 2}, "type": "business"}
{"business_id": "ll6IEuZo2hLh4PoAHjc6cA", "full_address": "Karlstr. 3-5\n76133 Karlsruhe", "hours": {"Monday": {"close": "19:00", "open": "11:00"}, "Tuesday": {"close": "19:00", "open": "11:00"}, "Friday": {"close": "19:00", "open": "11:00"}, "Wednesday": {"close": "19:00", "open": "11:00"}, "Thursday": {"close": "19:00", "open": "11:00"}, "Saturday": {"close": "19:00", "open": "11:00"}}, "open": true, "categories": ["Women's Clothing", "Fashion", "Shopping"], "city": "Karlsruhe", "review_count": 5, "name": "Kult-Industries", "neighborhoods": [], "longitude": 8.3953935, "state": "BW", "stars": 4.0, "latitude": 49.0116172, "attributes": {"Parking": {"garage": false, "validated": false, "street": false, "lot": false, "valet": false}, "Accepts Credit Cards": true, "Wheelchair Accessible": true, "Price Range": 3}, "type": "business"}
{"business_id": "Hxw62K84VXUysh1QjWZlqA", "full_address": "Printzstr. 4\n76139 Karlsruhe", "hours": {"Monday": {"close": "18:30", "open": "10:00"}, "Tuesday": {"close": "18:30", "open": "10:00"}, "Friday": {"close": "20:00", "open": "10:00"}, "Wednesday": {"close": "18:30", "open": "10:00"}, "Thursday": {"close": "20:00", "open": "10:00"}, "Saturday": {"close": "18:00", "open": "10:00"}}, "open": true, "categories": ["Fashion", "Shopping"], "city": "Karlsruhe", "review_count": 3, "name": "Big N Better", "neighborhoods": [], "longitude": 8.4625259, "state": "BW", "stars": 3.5, "latitude": 49.0215295, "attributes": {"Accepts Credit Cards": true, "Wheelchair Accessible": true, "Parking": {"garage": false, "validated": false, "street": false, "lot": false, "valet": false}}, "type": "business"}
{"business_id": "UhT3MBAwJKEBXUxui8ggrg", "full_address": "Ettlinger-Tor-Platz  1\nim Ece\n76133 Karlsruhe", "hours": {}, "open": true, "categories": ["Women's Clothing", "Fashion", "Shopping"], "city": "Karlsruhe", "review_count": 3, "name": "Noa Noa", "neighborhoods": [], "longitude": 8.40278, "state": "BW", "stars": 2.5, "latitude": 49.006, "attributes": {"Price Range": 4}, "type": "business"}
{"business_id": "WFvTk1sfSHMLCQkxzk0jlg", "full_address": "Kaiserstr. 147-159\n76133 Karlsruhe", "hours": {"Monday": {"close": "20:00", "open": "09:30"}, "Tuesday": {"close": "20:00", "open": "09:30"}, "Friday": {"close": "20:00", "open": "09:30"}, "Wednesday": {"close": "20:00", "open": "09:30"}, "Thursday": {"close": "20:00", "open": "09:30"}, "Saturday": {"close": "20:00", "open": "09:30"}}, "open": true, "categories": ["Department Stores", "Fashion", "Shopping"], "city": "Karlsruhe", "review_count": 15, "name": "Karstadt", "neighborhoods": [], "longitude": 8.40234, "state": "BW", "stars": 4.0, "latitude": 49.0095, "attributes": {"Parking": {"garage": true, "street": false, "validated": false, "lot": false, "valet": false}, "Accepts Credit Cards": true, "Wheelchair Accessible": true, "Price Range": 2}, "type": "business"}
{"business_id": "_BTySD9rDdvEH5ftVE4adQ", "full_address": "EKZ Post Galerie\nKaiserstr. 217\n76133 Karlsruhe", "hours": {"Monday": {"close": "20:00", "open": "09:00"}, "Tuesday": {"close": "20:00", "open": "09:00"}, "Friday": {"close": "20:00", "open": "09:00"}, "Wednesday": {"close": "20:00", "open": "09:00"}, "Thursday": {"close": "20:00", "open": "09:00"}, "Saturday": {"close": "20:00", "open": "09:00"}}, "open": true, "categories": ["Fashion", "Shopping"], "city": "Karlsruhe", "review_count": 8, "name": "Primark", "neighborhoods": [], "longitude": 8.39478, "state": "BW", "stars": 3.5, "latitude": 49.0097, "attributes": {"Parking": {"garage": false, "street": false, "validated": false, "lot": false, "valet": false}, "Accepts Credit Cards": true, "Price Range": 1}, "type": "business"}
{"business_id": "92bAvTJN_wKOUwygwAAlQw", "full_address": "Akademiestra\u00dfe 9-11\n76133 Karlsruhe", "hours": {}, "open": true, "categories": ["Children's Clothing", "Fashion", "Shopping"], "city": "Karlsruhe", "review_count": 3, "name": "Rasselfisch", "neighborhoods": [], "longitude": 8.39799, "state": "BW", "stars": 3.5, "latitude": 49.0118, "attributes": {"Parking": {"garage": false, "street": false, "validated": false, "lot": false, "valet": false}, "Accepts Credit Cards": true, "Price Range": 3}, "type": "business"}
{"business_id": "W2RFJg1N_MzuI8I42MQ2VA", "full_address": "Windeckstr. 15\n76135 Karlsruhe", "hours": {}, "open": true, "categories": ["Department Stores", "Fashion", "Shopping"], "city": "Karlsruhe", "review_count": 5, "name": "Heinrich Heine", "neighborhoods": [], "longitude": 8.37332, "state": "BW", "stars": 3.0, "latitude": 48.98807, "attributes": {"Price Range": 3}, "type": "business"}
{"business_id": "ePiK7IM1ZWQiwuivFwKE1Q", "full_address": "Lammstr. 4\n76133 Karlsruhe", "hours": {"Monday": {"close": "20:00", "open": "10:00"}, "Tuesday": {"close": "20:00", "open": "10:00"}, "Friday": {"close": "20:00", "open": "10:00"}, "Wednesday": {"close": "20:00", "open": "10:00"}, "Thursday": {"close": "20:00", "open": "10:00"}, "Saturday": {"close": "20:00", "open": "10:00"}}, "open": true, "categories": ["Fashion", "Shopping"], "city": "Karlsruhe", "review_count": 11, "name": "Peek & Cloppenburg", "neighborhoods": [], "longitude": 8.40257, "state": "BW", "stars": 4.0, "latitude": 49.0098, "attributes": {"Price Range": 3}, "type": "business"}
{"business_id": "aePFUnoAYbi7uij8k4KFxA", "full_address": "Kaiserstr. 52\n76133 Karlsruhe", "hours": {}, "open": true, "categories": ["Fashion", "Shopping"], "city": "Karlsruhe", "review_count": 3, "name": "C & A Mode", "neighborhoods": [], "longitude": 8.4063616, "state": "BW", "stars": 3.0, "latitude": 49.0095992, "attributes": {"Price Range": 2}, "type": "business"}
{"business_id": "q_Xd4xuUEcSga_n65SGejQ", "full_address": "Kaiserstr. 199 A\n76133 Karlsruhe", "hours": {}, "open": true, "categories": ["Hobby Shops", "Fashion", "Shopping", "Accessories"], "city": "Karlsruhe", "review_count": 4, "name": "Wmf W\u00fcrttembergische Metallwarenfabrik", "neighborhoods": [], "longitude": 8.3975624, "state": "BW", "stars": 4.0, "latitude": 49.0097223, "attributes": {}, "type": "business"}
{"business_id": "V8oiNG50dqpSlWdencpHqw", "full_address": "Karlstra\u00dfe 25\n76133 Karlsruhe", "hours": {"Monday": {"close": "18:00", "open": "10:00"}, "Tuesday": {"close": "18:00", "open": "10:00"}, "Friday": {"close": "19:00", "open": "10:00"}, "Wednesday": {"close": "18:00", "open": "10:00"}, "Thursday": {"close": "19:00", "open": "10:00"}, "Saturday": {"close": "17:00", "open": "10:30"}}, "open": true, "categories": ["Children's Clothing", "Fashion", "Shopping"], "city": "Karlsruhe", "review_count": 4, "name": "Hergard Kindermoden", "neighborhoods": [], "longitude": 8.3951634, "state": "BW", "stars": 3.5, "latitude": 49.0081634, "attributes": {"Parking": {"garage": false, "validated": false, "street": false, "lot": false, "valet": false}, "Wheelchair Accessible": false, "Price Range": 4}, "type": "business"}
{"business_id": "BGZHzaRaOuxbBPAKxmnkZw", "full_address": "Karlstra\u00dfe 82\n76137 Karlsruhe", "hours": {"Monday": {"close": "18:30", "open": "08:30"}, "Tuesday": {"close": "18:30", "open": "08:30"}, "Friday": {"close": "18:30", "open": "08:30"}, "Wednesday": {"close": "18:30", "open": "08:30"}, "Thursday": {"close": "18:30", "open": "08:30"}, "Saturday": {"close": "13:30", "open": "09:30"}}, "open": true, "categories": ["Children's Clothing", "Fashion", "Shopping", "Appliances & Repair", "Home & Garden", "Local Services", "Kitchen & Bath", "Toy Stores"], "city": "Karlsruhe", "review_count": 3, "name": "atelier B:", "neighborhoods": [], "longitude": 8.39402, "state": "BW", "stars": 4.5, "latitude": 49.0009, "attributes": {}, "type": "business"}
{"business_id": "JKPfm4KBvDoAKJwWiMz3Lg", "full_address": "Gerwigstr. 69\n76131 Karlsruhe", "hours": {}, "open": true, "categories": ["Shopping", "Fashion", "Maternity Wear", "Baby Gear & Furniture"], "city": "Karlsruhe", "review_count": 3, "name": "Baby-Center", "neighborhoods": [], "longitude": 8.43805, "state": "BW", "stars": 1.5, "latitude": 49.007, "attributes": {"Parking": {"garage": false, "validated": false, "street": false, "lot": false, "valet": false}, "Wheelchair Accessible": false, "Price Range": 3}, "type": "business"}
{"business_id": "A7Zrif-apG0Lt6ml1bXSsg", "full_address": "Eggensteiner Stra\u00dfe 52\n76297 Stutensee", "hours": {}, "open": true, "categories": ["Children's Clothing", "Fashion", "Shopping", "Mattresses", "Home & Garden", "Furniture Stores"], "city": "Stutensee", "review_count": 4, "name": "Naturversand Kirschke", "neighborhoods": [], "longitude": 8.4665991, "state": "BW", "stars": 3.5, "latitude": 49.0655226, "attributes": {}, "type": "business"}
{"business_id": "R0k3wzbxnqO6a7arCGtc-Q", "full_address": "Kaiserstr. 82a\n76133 Karlsruhe", "hours": {}, "open": true, "categories": ["Men's Clothing", "Fashion", "Shopping"], "city": "Karlsruhe", "review_count": 3, "name": "Eckerle Herrenmodenvertrieb", "neighborhoods": [], "longitude": 8.40286, "state": "BW", "stars": 3.0, "latitude": 49.0099, "attributes": {"Accepts Credit Cards": true, "Wheelchair Accessible": true, "Price Range": 3}, "type": "business"}
{"business_id": "8cfBkyIJsa3Ij25QnkDr7w", "full_address": "Kaiserstr. 170\n76133 Karlsruhe", "hours": {}, "open": true, "categories": ["Fashion", "Shopping"], "city": "Karlsruhe", "review_count": 7, "name": "XtraX", "neighborhoods": [], "longitude": 8.39249, "state": "BW", "stars": 4.5, "latitude": 49.0103, "attributes": {"Parking": {"garage": false, "validated": false, "street": false, "lot": false, "valet": false}, "Wheelchair Accessible": false, "Price Range": 3}, "type": "business"}
{"business_id": "D37k9DjJeF5h1ibjkdNTOQ", "full_address": "Herrenstr. 20\n76133 Karlsruhe", "hours": {}, "open": true, "categories": ["Fashion", "Shopping", "Shoe Stores"], "city": "Karlsruhe", "review_count": 4, "name": "Sigrun Woehr", "neighborhoods": [], "longitude": 8.39885, "state": "BW", "stars": 5.0, "latitude": 49.0096, "attributes": {"Parking": {"garage": false, "validated": false, "street": false, "lot": false, "valet": false}, "Accepts Credit Cards": true, "Price Range": 3}, "type": "business"}
{"business_id": "V2sfga9fwgmwpFELSWrQCw", "full_address": "Bahnhofstr. 5\n76356 Weingarten", "hours": {}, "open": true, "categories": ["Children's Clothing", "Fashion", "Shopping", "Food", "Chocolatiers & Shops", "Specialty Food"], "city": "Weingarten", "review_count": 4, "name": "La Casetta del Caff\u00e9", "neighborhoods": [], "longitude": 8.53132, "state": "BW", "stars": 4.0, "latitude": 49.0515, "attributes": {"Parking": {"garage": false, "validated": false, "street": false, "lot": false, "valet": false}, "Price Range": 1}, "type": "business"}
{"business_id": "y4Y_PFthmrdSZuJH6Jl9GQ", "full_address": "Kaiserstra\u00dfe 181\n76133 Karlsruhe", "hours": {}, "open": true, "categories": ["Sporting Goods", "Fashion", "Shopping", "Shoe Stores"], "city": "Karlsruhe", "review_count": 6, "name": "Foot Locker", "neighborhoods": [], "longitude": 8.3990525, "state": "BW", "stars": 4.0, "latitude": 49.0096384, "attributes": {"Wheelchair Accessible": true, "Price Range": 3}, "type": "business"}
{"business_id": "E7iw4558JRv7F2Un_CD76g", "full_address": "Kaiserstr. 175\n76133 Karlsruhe", "hours": {}, "open": true, "categories": ["Fashion", "Shopping"], "city": "Karlsruhe", "review_count": 4, "name": "H & M Hennes & Mauritz", "neighborhoods": [], "longitude": 8.3998035, "state": "BW", "stars": 5.0, "latitude": 49.0096273, "attributes": {"Parking": {"garage": false, "street": false, "validated": false, "lot": false, "valet": false}, "Accepts Credit Cards": true, "Price Range": 2}, "type": "business"}
{"business_id": "16SuskmvewU0N3J4GdgLUQ", "full_address": "Kriegsstr. 39\n76133 Karlsruhe", "hours": {}, "open": true, "categories": ["Photographers", "Bridal", "Fashion", "Shopping", "Event Planning & Services"], "city": "Karlsruhe", "review_count": 3, "name": "Bauer Portrait Atelier", "neighborhoods": [], "longitude": 8.39656, "state": "BW", "stars": 5.0, "latitude": 49.0052, "attributes": {"Price Range": 2}, "type": "business"}
{"business_id": "HgdywOlTmkSZ_7WM1foXQA", "full_address": "Kaiserstr. 217\n76133 Karlsruhe", "hours": {}, "open": true, "categories": ["Fashion", "Shopping", "Shoe Stores"], "city": "Karlsruhe", "review_count": 3, "name": "G\u00f6rtz 17", "neighborhoods": [], "longitude": 8.39476, "state": "BW", "stars": 2.5, "latitude": 49.0097, "attributes": {"Price Range": 3}, "type": "business"}
{"business_id": "1n5hiaLwfqWY9T6X8kdQCw", "full_address": "Erbprinzenstr. 26\n76133 Karlsruhe", "hours": {}, "open": true, "categories": ["Fashion", "Shopping"], "city": "Karlsruhe", "review_count": 5, "name": "Glam Fashion Store", "neighborhoods": [], "longitude": 8.39699, "state": "BW", "stars": 4.5, "latitude": 49.0091, "attributes": {"Wheelchair Accessible": true, "Price Range": 3}, "type": "business"}
{"business_id": "_PWHhThtFJRf7oEnP6w82Q", "full_address": "Karlstr. 90\n76137 Karlsruhe", "hours": {"Monday": {"close": "18:00", "open": "10:00"}, "Tuesday": {"close": "18:00", "open": "10:00"}, "Friday": {"close": "18:00", "open": "10:00"}, "Wednesday": {"close": "18:00", "open": "10:00"}, "Thursday": {"close": "18:00", "open": "10:00"}, "Saturday": {"close": "13:00", "open": "11:00"}}, "open": false, "categories": ["Used, Vintage & Consignment", "Fashion", "Shopping"], "city": "Karlsruhe", "review_count": 7, "name": "Kashka Diakonisches Werk Karlsruhe", "neighborhoods": [], "longitude": 8.39394, "state": "BW", "stars": 3.0, "latitude": 49.0004, "attributes": {"Parking": {"garage": false, "street": false, "validated": false, "lot": false, "valet": false}, "Accepts Credit Cards": false, "Price Range": 1}, "type": "business"}
{"business_id": "pTDZ9IbXXQLBPeev-Oupbg", "full_address": "Kaiserstr. 195\n76133 Karlsruhe", "hours": {}, "open": true, "categories": ["Fashion", "Shopping"], "city": "Karlsruhe", "review_count": 7, "name": "Esprit", "neighborhoods": [], "longitude": 8.3979247, "state": "BW", "stars": 3.5, "latitude": 49.0096938, "attributes": {"Price Range": 3}, "type": "business"}
{"business_id": "r79r7YC7NwxlncEMmJnffw", "full_address": "Ettlinger-Tor-Platz 1\nim Ettlinger Tor-Shopping-Center\n76133 Karlsruhe", "hours": {}, "open": true, "categories": ["Men's Clothing", "Fashion", "Shopping"], "city": "Karlsruhe", "review_count": 5, "name": "Anson's", "neighborhoods": [], "longitude": 8.40208, "state": "BW", "stars": 4.0, "latitude": 49.0067, "attributes": {"Parking": {"garage": false, "street": false, "validated": false, "lot": false, "valet": false}, "Accepts Credit Cards": true, "Wheelchair Accessible": true, "Price Range": 2}, "type": "business"}
{"business_id": "3BvclNio2VNl3aZv3JYSsQ", "full_address": "Kaiserstra\u00dfe 120\n76133 Karlsruhe", "hours": {}, "open": true, "categories": ["Fashion", "Shopping"], "city": "Karlsruhe", "review_count": 5, "name": "H&M - Men", "neighborhoods": [], "longitude": 8.40058, "state": "BW", "stars": 4.0, "latitude": 49.0098, "attributes": {}, "type": "business"}
{"business_id": "D2LF87_v_nC4sK7ZAAmQkw", "full_address": "Ettlinger-Tor-Platz 1\n76133 Karlsruhe", "hours": {}, "open": true, "categories": ["Fashion", "Shopping", "Shoe Stores"], "city": "Karlsruhe", "review_count": 3, "name": "Deichmann", "neighborhoods": [], "longitude": 8.40208, "state": "BW", "stars": 2.0, "latitude": 49.0067, "attributes": {"Accepts Credit Cards": true, "Price Range": 1}, "type": "business"}
{"business_id": "FgXSF5rB-sXvqeheZPFwZw", "full_address": "Karlstr. 56\n76133 Karlsruhe", "hours": {}, "open": true, "categories": ["Maternity Wear", "Fashion", "Shopping", "Baby Gear & Furniture"], "city": "Karlsruhe", "review_count": 3, "name": "baby-walz", "neighborhoods": [], "longitude": 8.39429, "state": "BW", "stars": 1.5, "latitude": 49.0035, "attributes": {"Price Range": 4}, "type": "business"}
{"business_id": "rJZRC9dVdsHuIeQmDdp3rA", "full_address": "Kaiserstr. 96\n76133 Karlsruhe", "hours": {"Monday": {"close": "20:00", "open": "10:00"}, "Tuesday": {"close": "20:00", "open": "10:00"}, "Friday": {"close": "20:00", "open": "10:00"}, "Wednesday": {"close": "20:00", "open": "10:00"}, "Thursday": {"close": "20:00", "open": "10:00"}, "Saturday": {"close": "20:00", "open": "10:00"}}, "open": true, "categories": ["Department Stores", "Fashion", "Shopping"], "city": "Karlsruhe", "review_count": 13, "name": "E. Breuninger", "neighborhoods": [], "longitude": 8.4005128, "state": "BW", "stars": 4.5, "latitude": 49.009768, "attributes": {"Parking": {"garage": false, "street": false, "validated": false, "lot": false, "valet": false}, "Accepts Credit Cards": true, "Wheelchair Accessible": true, "Price Range": 3}, "type": "business"}
{"business_id": "4svxTJsNoi1P6zt93_sGTg", "full_address": "Ortenbergstr. 8\n76135 Karlsruhe", "hours": {}, "open": true, "categories": ["Department Stores", "Fashion", "Shopping"], "city": "Karlsruhe", "review_count": 4, "name": "real,- SB Warenhaus", "neighborhoods": [], "longitude": 8.37562, "state": "BW", "stars": 2.5, "latitude": 48.9917, "attributes": {"Parking": {"garage": false, "street": false, "validated": false, "lot": false, "valet": false}, "Accepts Credit Cards": true, "Price Range": 2}, "type": "business"}
{"business_id": "9107Qw2zL_zIoLR9acqnag", "full_address": "Amthausstr.  7\n76227 Karlsruhe\n76227 Karlsruhe", "hours": {"Monday": {"close": "18:00", "open": "14:30"}, "Tuesday": {"close": "18:00", "open": "14:30"}, "Friday": {"close": "18:00", "open": "14:30"}, "Wednesday": {"close": "00:00", "open": "00:00"}, "Thursday": {"close": "18:00", "open": "14:30"}, "Saturday": {"close": "00:00", "open": "00:00"}}, "open": false, "categories": ["Used, Vintage & Consignment", "Fashion", "Shopping"], "city": "Karlsruhe", "review_count": 3, "name": "Kindersecondhandladen Durlach", "neighborhoods": [], "longitude": 8.4716335, "state": "BW", "stars": 3.5, "latitude": 48.9987216, "attributes": {"Accepts Credit Cards": false, "Wheelchair Accessible": false, "Parking": {"garage": false, "validated": false, "street": false, "lot": false, "valet": false}}, "type": "business"}
{"business_id": "LudeITL-wiw883I4Nqq0Fg", "full_address": "Passagehof 24\n76133 Karlsruhe", "hours": {"Monday": {"close": "19:30", "open": "10:30"}, "Tuesday": {"close": "19:30", "open": "10:30"}, "Friday": {"close": "19:30", "open": "10:30"}, "Wednesday": {"close": "19:30", "open": "10:30"}, "Thursday": {"close": "19:30", "open": "10:30"}, "Saturday": {"close": "19:30", "open": "10:30"}}, "open": true, "categories": ["Sporting Goods", "Fashion", "Shopping", "Outdoor Gear"], "city": "Karlsruhe", "review_count": 6, "name": "GRiP Boardshop Karlsruhe", "neighborhoods": [], "longitude": 8.39640182740027, "state": "BW", "stars": 5.0, "latitude": 49.0106767352139, "attributes": {"Parking": {"garage": true, "street": true, "validated": false, "lot": false, "valet": false}, "Accepts Credit Cards": true, "Price Range": 2}, "type": "business"}
{"business_id": "fPZ9g2t2HTLRh5aL8BBIAw", "full_address": "Lammstra\u00dfe 7a\nRathauspassage\n76133 Karlsruhe", "hours": {"Monday": {"close": "19:00", "open": "10:00"}, "Tuesday": {"close": "19:00", "open": "10:00"}, "Friday": {"close": "19:00", "open": "10:00"}, "Wednesday": {"close": "19:00", "open": "10:00"}, "Thursday": {"close": "19:00", "open": "10:00"}, "Saturday": {"close": "18:00", "open": "10:00"}}, "open": true, "categories": ["Children's Clothing", "Fashion", "Shopping"], "city": "Karlsruhe", "review_count": 3, "name": "Coloretti Kinder- und Schwangerschaftsmode", "neighborhoods": [], "longitude": 8.393843, "state": "BW", "stars": 4.5, "latitude": 49.0067498, "attributes": {"Parking": {"garage": false, "validated": false, "street": false, "lot": false, "valet": false}, "Accepts Credit Cards": true, "Wheelchair Accessible": true, "Price Range": 2}, "type": "business"}
{"business_id": "NOVlS5DyG-W5ryzxw5D4qA", "full_address": "Waldstr. 41 - 43\n76133 Karlsruhe", "hours": {}, "open": true, "categories": ["Used, Vintage & Consignment", "Used Bookstore", "Fashion", "Shopping"], "city": "Karlsruhe", "review_count": 3, "name": "Oxfam", "neighborhoods": [], "longitude": 8.3808372, "state": "BW", "stars": 5.0, "latitude": 49.0176507, "attributes": {}, "type": "business"}
{"business_id": "uAbMtNpZiRDqf61PRX4bDw", "full_address": "Carl-Metz-Str. 3\n76185 Karlsruhe", "hours": {"Monday": {"close": "19:00", "open": "10:00"}, "Tuesday": {"close": "19:00", "open": "10:00"}, "Friday": {"close": "19:00", "open": "10:00"}, "Wednesday": {"close": "19:00", "open": "10:00"}, "Thursday": {"close": "19:00", "open": "10:00"}, "Saturday": {"close": "18:00", "open": "10:00"}}, "open": true, "categories": ["Fashion", "Shopping", "Sporting Goods", "Local Services", "Bikes", "Sports Wear", "Bike Repair/Maintenance"], "city": "Karlsruhe", "review_count": 9, "name": "B.O.C.", "neighborhoods": [], "longitude": 8.35423, "state": "BW", "stars": 3.0, "latitude": 49.00984, "attributes": {"Parking": {"garage": false, "street": false, "validated": false, "lot": true, "valet": false}, "Accepts Credit Cards": false, "Wheelchair Accessible": true, "Price Range": 2}, "type": "business"}
{"business_id": "YWp1E5ZBJQhlbgbDhS6zcw", "full_address": "Kaiserstr. 92\n76133 Karlsruhe", "hours": {"Monday": {"close": "20:00", "open": "10:00"}, "Tuesday": {"close": "20:00", "open": "10:00"}, "Friday": {"close": "20:00", "open": "10:00"}, "Wednesday": {"close": "20:00", "open": "10:00"}, "Thursday": {"close": "20:00", "open": "10:00"}, "Saturday": {"close": "20:00", "open": "10:00"}}, "open": true, "categories": ["Department Stores", "Fashion", "Shopping"], "city": "Karlsruhe", "review_count": 5, "name": "Karstadt sports", "neighborhoods": [], "longitude": 8.3946101, "state": "BW", "stars": 2.5, "latitude": 49.0099888, "attributes": {"Accepts Credit Cards": true, "Price Range": 3}, "type": "business"}
{"business_id": "0mqni7gWoWJ1H5dN4Wwzsg", "full_address": "Ettlinger Tor Platz 1\n76133 Karlsruhe", "hours": {"Monday": {"close": "20:00", "open": "10:00"}, "Tuesday": {"close": "20:00", "open": "10:00"}, "Friday": {"close": "20:00", "open": "10:00"}, "Wednesday": {"close": "20:00", "open": "10:00"}, "Thursday": {"close": "22:00", "open": "10:00"}, "Saturday": {"close": "20:00", "open": "10:00"}}, "open": true, "categories": ["Fashion", "Shopping"], "city": "Karlsruhe", "review_count": 3, "name": "Olymp", "neighborhoods": [], "longitude": 8.4686236, "state": "BW", "stars": 2.5, "latitude": 48.9942088, "attributes": {"Accepts Credit Cards": true, "Price Range": 3}, "type": "business"}
{"business_id": "0dLjH5zWnbJDukuM3iQYvg", "full_address": "Kaiserstr. 211\n76133 Karlsruhe", "hours": {}, "open": true, "categories": ["Fashion", "Shopping", "Shoe Stores"], "city": "Karlsruhe", "review_count": 9, "name": "Humanic Filiale", "neighborhoods": [], "longitude": 8.3958862, "state": "BW", "stars": 3.5, "latitude": 49.0099485, "attributes": {"Accepts Credit Cards": true, "Price Range": 2}, "type": "business"}
{"business_id": "ll6IEuZo2hLh4PoAHjc6cA", "full_address": "Karlstr. 3-5\n76133 Karlsruhe", "hours": {"Monday": {"close": "19:00", "open": "11:00"}, "Tuesday": {"close": "19:00", "open": "11:00"}, "Friday": {"close": "19:00", "open": "11:00"}, "Wednesday": {"close": "19:00", "open": "11:00"}, "Thursday": {"close": "19:00", "open": "11:00"}, "Saturday": {"close": "19:00", "open": "11:00"}}, "open": true, "categories": ["Women's Clothing", "Fashion", "Shopping"], "city": "Karlsruhe", "review_count": 5, "name": "Kult-Industries", "neighborhoods": [], "longitude": 8.3953935, "state": "BW", "stars": 4.0, "latitude": 49.0116172, "attributes": {"Parking": {"garage": false, "validated": false, "street": false, "lot": false, "valet": false}, "Accepts Credit Cards": true, "Wheelchair Accessible": true, "Price Range": 3}, "type": "business"}
{"business_id": "Hxw62K84VXUysh1QjWZlqA", "full_address": "Printzstr. 4\n76139 Karlsruhe", "hours": {"Monday": {"close": "18:30", "open": "10:00"}, "Tuesday": {"close": "18:30", "open": "10:00"}, "Friday": {"close": "20:00", "open": "10:00"}, "Wednesday": {"close": "18:30", "open": "10:00"}, "Thursday": {"close": "20:00", "open": "10:00"}, "Saturday": {"close": "18:00", "open": "10:00"}}, "open": true, "categories": ["Fashion", "Shopping"], "city": "Karlsruhe", "review_count": 3, "name": "Big N Better", "neighborhoods": [], "longitude": 8.4625259, "state": "BW", "stars": 3.5, "latitude": 49.0215295, "attributes": {"Accepts Credit Cards": true, "Wheelchair Accessible": true, "Parking": {"garage": false, "validated": false, "street": false, "lot": false, "valet": false}}, "type": "business"}
{"business_id": "UhT3MBAwJKEBXUxui8ggrg", "full_address": "Ettlinger-Tor-Platz  1\nim Ece\n76133 Karlsruhe", "hours": {}, "open": true, "categories": ["Women's Clothing", "Fashion", "Shopping"], "city": "Karlsruhe", "review_count": 3, "name": "Noa Noa", "neighborhoods": [], "longitude": 8.40278, "state": "BW", "stars": 2.5, "latitude": 49.006, "attributes": {"Price Range": 4}, "type": "business"}
{"business_id": "WFvTk1sfSHMLCQkxzk0jlg", "full_address": "Kaiserstr. 147-159\n76133 Karlsruhe", "hours": {"Monday": {"close": "20:00", "open": "09:30"}, "Tuesday": {"close": "20:00", "open": "09:30"}, "Friday": {"close": "20:00", "open": "09:30"}, "Wednesday": {"close": "20:00", "open": "09:30"}, "Thursday": {"close": "20:00", "open": "09:30"}, "Saturday": {"close": "20:00", "open": "09:30"}}, "open": true, "categories": ["Department Stores", "Fashion", "Shopping"], "city": "Karlsruhe", "review_count": 15, "name": "Karstadt", "neighborhoods": [], "longitude": 8.40234, "state": "BW", "stars": 4.0, "latitude": 49.0095, "attributes": {"Parking": {"garage": true, "street": false, "validated": false, "lot": false, "valet": false}, "Accepts Credit Cards": true, "Wheelchair Accessible": true, "Price Range": 2}, "type": "business"}
{"business_id": "_BTySD9rDdvEH5ftVE4adQ", "full_address": "EKZ Post Galerie\nKaiserstr. 217\n76133 Karlsruhe", "hours": {"Monday": {"close": "20:00", "open": "09:00"}, "Tuesday": {"close": "20:00", "open": "09:00"}, "Friday": {"close": "20:00", "open": "09:00"}, "Wednesday": {"close": "20:00", "open": "09:00"}, "Thursday": {"close": "20:00", "open": "09:00"}, "Saturday": {"close": "20:00", "open": "09:00"}}, "open": true, "categories": ["Fashion", "Shopping"], "city": "Karlsruhe", "review_count": 8, "name": "Primark", "neighborhoods": [], "longitude": 8.39478, "state": "BW", "stars": 3.5, "latitude": 49.0097, "attributes": {"Parking": {"garage": false, "street": false, "validated": false, "lot": false, "valet": false}, "Accepts Credit Cards": true, "Price Range": 1}, "type": "business"}
{"business_id": "92bAvTJN_wKOUwygwAAlQw", "full_address": "Akademiestra\u00dfe 9-11\n76133 Karlsruhe", "hours": {}, "open": true, "categories": ["Children's Clothing", "Fashion", "Shopping"], "city": "Karlsruhe", "review_count": 3, "name": "Rasselfisch", "neighborhoods": [], "longitude": 8.39799, "state": "BW", "stars": 3.5, "latitude": 49.0118, "attributes": {"Parking": {"garage": false, "street": false, "validated": false, "lot": false, "valet": false}, "Accepts Credit Cards": true, "Price Range": 3}, "type": "business"}
{"business_id": "W2RFJg1N_MzuI8I42MQ2VA", "full_address": "Windeckstr. 15\n76135 Karlsruhe", "hours": {}, "open": true, "categories": ["Department Stores", "Fashion", "Shopping"], "city": "Karlsruhe", "review_count": 5, "name": "Heinrich Heine", "neighborhoods": [], "longitude": 8.37332, "state": "BW", "stars": 3.0, "latitude": 48.98807, "attributes": {"Price Range": 3}, "type": "business"}
{"business_id": "ePiK7IM1ZWQiwuivFwKE1Q", "full_address": "Lammstr. 4\n76133 Karlsruhe", "hours": {"Monday": {"close": "20:00", "open": "10:00"}, "Tuesday": {"close": "20:00", "open": "10:00"}, "Friday": {"close": "20:00", "open": "10:00"}, "Wednesday": {"close": "20:00", "open": "10:00"}, "Thursday": {"close": "20:00", "open": "10:00"}, "Saturday": {"close": "20:00", "open": "10:00"}}, "open": true, "categories": ["Fashion", "Shopping"], "city": "Karlsruhe", "review_count": 11, "name": "Peek & Cloppenburg", "neighborhoods": [], "longitude": 8.40257, "state": "BW", "stars": 4.0, "latitude": 49.0098, "attributes": {"Price Range": 3}, "type": "business"}
{"business_id": "aePFUnoAYbi7uij8k4KFxA", "full_address": "Kaiserstr. 52\n76133 Karlsruhe", "hours": {}, "open": true, "categories": ["Fashion", "Shopping"], "city": "Karlsruhe", "review_count": 3, "name": "C & A Mode", "neighborhoods": [], "longitude": 8.4063616, "state": "BW", "stars": 3.0, "latitude": 49.0095992, "attributes": {"Price Range": 2}, "type": "business"}
{"business_id": "q_Xd4xuUEcSga_n65SGejQ", "full_address": "Kaiserstr. 199 A\n76133 Karlsruhe", "hours": {}, "open": true, "categories": ["Hobby Shops", "Fashion", "Shopping", "Accessories"], "city": "Karlsruhe", "review_count": 4, "name": "Wmf W\u00fcrttembergische Metallwarenfabrik", "neighborhoods": [], "longitude": 8.3975624, "state": "BW", "stars": 4.0, "latitude": 49.0097223, "attributes": {}, "type": "business"}
{"business_id": "V8oiNG50dqpSlWdencpHqw", "full_address": "Karlstra\u00dfe 25\n76133 Karlsruhe", "hours": {"Monday": {"close": "18:00", "open": "10:00"}, "Tuesday": {"close": "18:00", "open": "10:00"}, "Friday": {"close": "19:00", "open": "10:00"}, "Wednesday": {"close": "18:00", "open": "10:00"}, "Thursday": {"close": "19:00", "open": "10:00"}, "Saturday": {"close": "17:00", "open": "10:30"}}, "open": true, "categories": ["Children's Clothing", "Fashion", "Shopping"], "city": "Karlsruhe", "review_count": 4, "name": "Hergard Kindermoden", "neighborhoods": [], "longitude": 8.3951634, "state": "BW", "stars": 3.5, "latitude": 49.0081634, "attributes": {"Parking": {"garage": false, "validated": false, "street": false, "lot": false, "valet": false}, "Wheelchair Accessible": false, "Price Range": 4}, "type": "business"}
{"business_id": "BGZHzaRaOuxbBPAKxmnkZw", "full_address": "Karlstra\u00dfe 82\n76137 Karlsruhe", "hours": {"Monday": {"close": "18:30", "open": "08:30"}, "Tuesday": {"close": "18:30", "open": "08:30"}, "Friday": {"close": "18:30", "open": "08:30"}, "Wednesday": {"close": "18:30", "open": "08:30"}, "Thursday": {"close": "18:30", "open": "08:30"}, "Saturday": {"close": "13:30", "open": "09:30"}}, "open": true, "categories": ["Children's Clothing", "Fashion", "Shopping", "Appliances & Repair", "Home & Garden", "Local Services", "Kitchen & Bath", "Toy Stores"], "city": "Karlsruhe", "review_count": 3, "name": "atelier B:", "neighborhoods": [], "longitude": 8.39402, "state": "BW", "stars": 4.5, "latitude": 49.0009, "attributes": {}, "type": "business"}
{"business_id": "JKPfm4KBvDoAKJwWiMz3Lg", "full_address": "Gerwigstr. 69\n76131 Karlsruhe", "hours": {}, "open": true, "categories": ["Shopping", "Fashion", "Maternity Wear", "Baby Gear & Furniture"], "city": "Karlsruhe", "review_count": 3, "name": "Baby-Center", "neighborhoods": [], "longitude": 8.43805, "state": "BW", "stars": 1.5, "latitude": 49.007, "attributes": {"Parking": {"garage": false, "validated": false, "street": false, "lot": false, "valet": false}, "Wheelchair Accessible": false, "Price Range": 3}, "type": "business"}
{"business_id": "A7Zrif-apG0Lt6ml1bXSsg", "full_address": "Eggensteiner Stra\u00dfe 52\n76297 Stutensee", "hours": {}, "open": true, "categories": ["Children's Clothing", "Fashion", "Shopping", "Mattresses", "Home & Garden", "Furniture Stores"], "city": "Stutensee", "review_count": 4, "name": "Naturversand Kirschke", "neighborhoods": [], "longitude": 8.4665991, "state": "BW", "stars": 3.5, "latitude": 49.0655226, "attributes": {}, "type": "business"}
{"business_id": "R0k3wzbxnqO6a7arCGtc-Q", "full_address": "Kaiserstr. 82a\n76133 Karlsruhe", "hours": {}, "open": true, "categories": ["Men's Clothing", "Fashion", "Shopping"], "city": "Karlsruhe", "review_count": 3, "name": "Eckerle Herrenmodenvertrieb", "neighborhoods": [], "longitude": 8.40286, "state": "BW", "stars": 3.0, "latitude": 49.0099, "attributes": {"Accepts Credit Cards": true, "Wheelchair Accessible": true, "Price Range": 3}, "type": "business"}
{"business_id": "8cfBkyIJsa3Ij25QnkDr7w", "full_address": "Kaiserstr. 170\n76133 Karlsruhe", "hours": {}, "open": true, "categories": ["Fashion", "Shopping"], "city": "Karlsruhe", "review_count": 7, "name": "XtraX", "neighborhoods": [], "longitude": 8.39249, "state": "BW", "stars": 4.5, "latitude": 49.0103, "attributes": {"Parking": {"garage": false, "validated": false, "street": false, "lot": false, "valet": false}, "Wheelchair Accessible": false, "Price Range": 3}, "type": "business"}
{"business_id": "D37k9DjJeF5h1ibjkdNTOQ", "full_address": "Herrenstr. 20\n76133 Karlsruhe", "hours": {}, "open": true, "categories": ["Fashion", "Shopping", "Shoe Stores"], "city": "Karlsruhe", "review_count": 4, "name": "Sigrun Woehr", "neighborhoods": [], "longitude": 8.39885, "state": "BW", "stars": 5.0, "latitude": 49.0096, "attributes": {"Parking": {"garage": false, "validated": false, "street": false, "lot": false, "valet": false}, "Accepts Credit Cards": true, "Price Range": 3}, "type": "business"}
{"business_id": "V2sfga9fwgmwpFELSWrQCw", "full_address": "Bahnhofstr. 5\n76356 Weingarten", "hours": {}, "open": true, "categories": ["Children's Clothing", "Fashion", "Shopping", "Food", "Chocolatiers & Shops", "Specialty Food"], "city": "Weingarten", "review_count": 4, "name": "La Casetta del Caff\u00e9", "neighborhoods": [], "longitude": 8.53132, "state": "BW", "stars": 4.0, "latitude": 49.0515, "attributes": {"Parking": {"garage": false, "validated": false, "street": false, "lot": false, "valet": false}, "Price Range": 1}, "type": "business"}
{"business_id": "y4Y_PFthmrdSZuJH6Jl9GQ", "full_address": "Kaiserstra\u00dfe 181\n76133 Karlsruhe", "hours": {}, "open": true, "categories": ["Sporting Goods", "Fashion", "Shopping", "Shoe Stores"], "city": "Karlsruhe", "review_count": 6, "name": "Foot Locker", "neighborhoods": [], "longitude": 8.3990525, "state": "BW", "stars": 4.0, "latitude": 49.0096384, "attributes": {"Wheelchair Accessible": true, "Price Range": 3}, "type": "business"}
{"business_id": "E7iw4558JRv7F2Un_CD76g", "full_address": "Kaiserstr. 175\n76133 Karlsruhe", "hours": {}, "open": true, "categories": ["Fashion", "Shopping"], "city": "Karlsruhe", "review_count": 4, "name": "H & M Hennes & Mauritz", "neighborhoods": [], "longitude": 8.3998035, "state": "BW", "stars": 5.0, "latitude": 49.0096273, "attributes": {"Parking": {"garage": false, "street": false, "validated": false, "lot": false, "valet": false}, "Accepts Credit Cards": true, "Price Range": 2}, "type": "business"}
{"business_id": "16SuskmvewU0N3J4GdgLUQ", "full_address": "Kriegsstr. 39\n76133 Karlsruhe", "hours": {}, "open": true, "categories": ["Photographers", "Bridal", "Fashion", "Shopping", "Event Planning & Services"], "city": "Karlsruhe", "review_count": 3, "name": "Bauer Portrait Atelier", "neighborhoods": [], "longitude": 8.39656, "state": "BW", "stars": 5.0, "latitude": 49.0052, "attributes": {"Price Range": 2}, "type": "business"}
{"business_id": "HgdywOlTmkSZ_7WM1foXQA", "full_address": "Kaiserstr. 217\n76133 Karlsruhe", "hours": {}, "open": true, "categories": ["Fashion", "Shopping", "Shoe Stores"], "city": "Karlsruhe", "review_count": 3, "name": "G\u00f6rtz 17", "neighborhoods": [], "longitude": 8.39476, "state": "BW", "stars": 2.5, "latitude": 49.0097, "attributes": {"Price Range": 3}, "type": "business"}
{"business_id": "1n5hiaLwfqWY9T6X8kdQCw", "full_address": "Erbprinzenstr. 26\n76133 Karlsruhe", "hours": {}, "open": true, "categories": ["Fashion", "Shopping"], "city": "Karlsruhe", "review_count": 5, "name": "Glam Fashion Store", "neighborhoods": [], "longitude": 8.39699, "state": "BW", "stars": 4.5, "latitude": 49.0091, "attributes": {"Wheelchair Accessible": true, "Price Range": 3}, "type": "business"}
{"business_id": "_PWHhThtFJRf7oEnP6w82Q", "full_address": "Karlstr. 90\n76137 Karlsruhe", "hours": {"Monday": {"close": "18:00", "open": "10:00"}, "Tuesday": {"close": "18:00", "open": "10:00"}, "Friday": {"close": "18:00", "open": "10:00"}, "Wednesday": {"close": "18:00", "open": "10:00"}, "Thursday": {"close": "18:00", "open": "10:00"}, "Saturday": {"close": "13:00", "open": "11:00"}}, "open": false, "categories": ["Used, Vintage & Consignment", "Fashion", "Shopping"], "city": "Karlsruhe", "review_count": 7, "name": "Kashka Diakonisches Werk Karlsruhe", "neighborhoods": [], "longitude": 8.39394, "state": "BW", "stars": 3.0, "latitude": 49.0004, "attributes": {"Parking": {"garage": false, "street": false, "validated": false, "lot": false, "valet": false}, "Accepts Credit Cards": false, "Price Range": 1}, "type": "business"}
{"business_id": "pTDZ9IbXXQLBPeev-Oupbg", "full_address": "Kaiserstr. 195\n76133 Karlsruhe", "hours": {}, "open": true, "categories": ["Fashion", "Shopping"], "city": "Karlsruhe", "review_count": 7, "name": "Esprit", "neighborhoods": [], "longitude": 8.3979247, "state": "BW", "stars": 3.5, "latitude": 49.0096938, "attributes": {"Price Range": 3}, "type": "business"}
{"business_id": "r79r7YC7NwxlncEMmJnffw", "full_address": "Ettlinger-Tor-Platz 1\nim Ettlinger Tor-Shopping-Center\n76133 Karlsruhe", "hours": {}, "open": true, "categories": ["Men's Clothing", "Fashion", "Shopping"], "city": "Karlsruhe", "review_count": 5, "name": "Anson's", "neighborhoods": [], "longitude": 8.40208, "state": "BW", "stars": 4.0, "latitude": 49.0067, "attributes": {"Parking": {"garage": false, "street": false, "validated": false, "lot": false, "valet": false}, "Accepts Credit Cards": true, "Wheelchair Accessible": true, "Price Range": 2}, "type": "business"}
{"business_id": "3BvclNio2VNl3aZv3JYSsQ", "full_address": "Kaiserstra\u00dfe 120\n76133 Karlsruhe", "hours": {}, "open": true, "categories": ["Fashion", "Shopping"], "city": "Karlsruhe", "review_count": 5, "name": "H&M - Men", "neighborhoods": [], "longitude": 8.40058, "state": "BW", "stars": 4.0, "latitude": 49.0098, "attributes": {}, "type": "business"}
{"business_id": "D2LF87_v_nC4sK7ZAAmQkw", "full_address": "Ettlinger-Tor-Platz 1\n76133 Karlsruhe", "hours": {}, "open": true, "categories": ["Fashion", "Shopping", "Shoe Stores"], "city": "Karlsruhe", "review_count": 3, "name": "Deichmann", "neighborhoods": [], "longitude": 8.40208, "state": "BW", "stars": 2.0, "latitude": 49.0067, "attributes": {"Accepts Credit Cards": true, "Price Range": 1}, "type": "business"}
{"business_id": "FgXSF5rB-sXvqeheZPFwZw", "full_address": "Karlstr. 56\n76133 Karlsruhe", "hours": {}, "open": true, "categories": ["Maternity Wear", "Fashion", "Shopping", "Baby Gear & Furniture"], "city": "Karlsruhe", "review_count": 3, "name": "baby-walz", "neighborhoods": [], "longitude": 8.39429, "state": "BW", "stars": 1.5, "latitude": 49.0035, "attributes": {"Price Range": 4}, "type": "business"}
{"business_id": "rJZRC9dVdsHuIeQmDdp3rA", "full_address": "Kaiserstr. 96\n76133 Karlsruhe", "hours": {"Monday": {"close": "20:00", "open": "10:00"}, "Tuesday": {"close": "20:00", "open": "10:00"}, "Friday": {"close": "20:00", "open": "10:00"}, "Wednesday": {"close": "20:00", "open": "10:00"}, "Thursday": {"close": "20:00", "open": "10:00"}, "Saturday": {"close": "20:00", "open": "10:00"}}, "open": true, "categories": ["Department Stores", "Fashion", "Shopping"], "city": "Karlsruhe", "review_count": 13, "name": "E. Breuninger", "neighborhoods": [], "longitude": 8.4005128, "state": "BW", "stars": 4.5, "latitude": 49.009768, "attributes": {"Parking": {"garage": false, "street": false, "validated": false, "lot": false, "valet": false}, "Accepts Credit Cards": true, "Wheelchair Accessible": true, "Price Range": 3}, "type": "business"}
{"business_id": "4svxTJsNoi1P6zt93_sGTg", "full_address": "Ortenbergstr. 8\n76135 Karlsruhe", "hours": {}, "open": true, "categories": ["Department Stores", "Fashion", "Shopping"], "city": "Karlsruhe", "review_count": 4, "name": "real,- SB Warenhaus", "neighborhoods": [], "longitude": 8.37562, "state": "BW", "stars": 2.5, "latitude": 48.9917, "attributes": {"Parking": {"garage": false, "street": false, "validated": false, "lot": false, "valet": false}, "Accepts Credit Cards": true, "Price Range": 2}, "type": "business"}
{"business_id": "9107Qw2zL_zIoLR9acqnag", "full_address": "Amthausstr.  7\n76227 Karlsruhe\n76227 Karlsruhe", "hours": {"Monday": {"close": "18:00", "open": "14:30"}, "Tuesday": {"close": "18:00", "open": "14:30"}, "Friday": {"close": "18:00", "open": "14:30"}, "Wednesday": {"close": "00:00", "open": "00:00"}, "Thursday": {"close": "18:00", "open": "14:30"}, "Saturday": {"close": "00:00", "open": "00:00"}}, "open": false, "categories": ["Used, Vintage & Consignment", "Fashion", "Shopping"], "city": "Karlsruhe", "review_count": 3, "name": "Kindersecondhandladen Durlach", "neighborhoods": [], "longitude": 8.4716335, "state": "BW", "stars": 3.5, "latitude": 48.9987216, "attributes": {"Accepts Credit Cards": false, "Wheelchair Accessible": false, "Parking": {"garage": false, "validated": false, "street": false, "lot": false, "valet": false}}, "type": "business"}
{"business_id": "LudeITL-wiw883I4Nqq0Fg", "full_address": "Passagehof 24\n76133 Karlsruhe", "hours": {"Monday": {"close": "19:30", "open": "10:30"}, "Tuesday": {"close": "19:30", "open": "10:30"}, "Friday": {"close": "19:30", "open": "10:30"}, "Wednesday": {"close": "19:30", "open": "10:30"}, "Thursday": {"close": "19:30", "open": "10:30"}, "Saturday": {"close": "19:30", "open": "10:30"}}, "open": true, "categories": ["Sporting Goods", "Fashion", "Shopping", "Outdoor Gear"], "city": "Karlsruhe", "review_count": 6, "name": "GRiP Boardshop Karlsruhe", "neighborhoods": [], "longitude": 8.39640182740027, "state": "BW", "stars": 5.0, "latitude": 49.0106767352139, "attributes": {"Parking": {"garage": true, "street": true, "validated": false, "lot": false, "valet": false}, "Accepts Credit Cards": true, "Price Range": 2}, "type": "business"}
{"business_id": "fPZ9g2t2HTLRh5aL8BBIAw", "full_address": "Lammstra\u00dfe 7a\nRathauspassage\n76133 Karlsruhe", "hours": {"Monday": {"close": "19:00", "open": "10:00"}, "Tuesday": {"close": "19:00", "open": "10:00"}, "Friday": {"close": "19:00", "open": "10:00"}, "Wednesday": {"close": "19:00", "open": "10:00"}, "Thursday": {"close": "19:00", "open": "10:00"}, "Saturday": {"close": "18:00", "open": "10:00"}}, "open": true, "categories": ["Children's Clothing", "Fashion", "Shopping"], "city": "Karlsruhe", "review_count": 3, "name": "Coloretti Kinder- und Schwangerschaftsmode", "neighborhoods": [], "longitude": 8.393843, "state": "BW", "stars": 4.5, "latitude": 49.0067498, "attributes": {"Parking": {"garage": false, "validated": false, "street": false, "lot": false, "valet": false}, "Accepts Credit Cards": true, "Wheelchair Accessible": true, "Price Range": 2}, "type": "business"}
{"business_id": "NOVlS5DyG-W5ryzxw5D4qA", "full_address": "Waldstr. 41 - 43\n76133 Karlsruhe", "hours": {}, "open": true, "categories": ["Used, Vintage & Consignment", "Used Bookstore", "Fashion", "Shopping"], "city": "Karlsruhe", "review_count": 3, "name": "Oxfam", "neighborhoods": [], "longitude": 8.3808372, "state": "BW", "stars": 5.0, "latitude": 49.0176507, "attributes": {}, "type": "business"}
{"business_id": "uAbMtNpZiRDqf61PRX4bDw", "full_address": "Carl-Metz-Str. 3\n76185 Karlsruhe", "hours": {"Monday": {"close": "19:00", "open": "10:00"}, "Tuesday": {"close": "19:00", "open": "10:00"}, "Friday": {"close": "19:00", "open": "10:00"}, "Wednesday": {"close": "19:00", "open": "10:00"}, "Thursday": {"close": "19:00", "open": "10:00"}, "Saturday": {"close": "18:00", "open": "10:00"}}, "open": true, "categories": ["Fashion", "Shopping", "Sporting Goods", "Local Services", "Bikes", "Sports Wear", "Bike Repair/Maintenance"], "city": "Karlsruhe", "review_count": 9, "name": "B.O.C.", "neighborhoods": [], "longitude": 8.35423, "state": "BW", "stars": 3.0, "latitude": 49.00984, "attributes": {"Parking": {"garage": false, "street": false, "validated": false, "lot": true, "valet": false}, "Accepts Credit Cards": false, "Wheelchair Accessible": true, "Price Range": 2}, "type": "business"}
{"business_id": "YWp1E5ZBJQhlbgbDhS6zcw", "full_address": "Kaiserstr. 92\n76133 Karlsruhe", "hours": {"Monday": {"close": "20:00", "open": "10:00"}, "Tuesday": {"close": "20:00", "open": "10:00"}, "Friday": {"close": "20:00", "open": "10:00"}, "Wednesday": {"close": "20:00", "open": "10:00"}, "Thursday": {"close": "20:00", "open": "10:00"}, "Saturday": {"close": "20:00", "open": "10:00"}}, "open": true, "categories": ["Department Stores", "Fashion", "Shopping"], "city": "Karlsruhe", "review_count": 5, "name": "Karstadt sports", "neighborhoods": [], "longitude": 8.3946101, "state": "BW", "stars": 2.5, "latitude": 49.0099888, "attributes": {"Accepts Credit Cards": true, "Price Range": 3}, "type": "business"}
{"business_id": "0mqni7gWoWJ1H5dN4Wwzsg", "full_address": "Ettlinger Tor Platz 1\n76133 Karlsruhe", "hours": {"Monday": {"close": "20:00", "open": "10:00"}, "Tuesday": {"close": "20:00", "open": "10:00"}, "Friday": {"close": "20:00", "open": "10:00"}, "Wednesday": {"close": "20:00", "open": "10:00"}, "Thursday": {"close": "22:00", "open": "10:00"}, "Saturday": {"close": "20:00", "open": "10:00"}}, "open": true, "categories": ["Fashion", "Shopping"], "city": "Karlsruhe", "review_count": 3, "name": "Olymp", "neighborhoods": [], "longitude": 8.4686236, "state": "BW", "stars": 2.5, "latitude": 48.9942088, "attributes": {"Accepts Credit Cards": true, "Price Range": 3}, "type": "business"}
{"business_id": "0dLjH5zWnbJDukuM3iQYvg", "full_address": "Kaiserstr. 211\n76133 Karlsruhe", "hours": {}, "open": true, "categories": ["Fashion", "Shopping", "Shoe Stores"], "city": "Karlsruhe", "review_count": 9, "name": "Humanic Filiale", "neighborhoods": [], "longitude": 8.3958862, "state": "BW", "stars": 3.5, "latitude": 49.0099485, "attributes": {"Accepts Credit Cards": true, "Price Range": 2}, "type": "business"}
{"business_id": "ll6IEuZo2hLh4PoAHjc6cA", "full_address": "Karlstr. 3-5\n76133 Karlsruhe", "hours": {"Monday": {"close": "19:00", "open": "11:00"}, "Tuesday": {"close": "19:00", "open": "11:00"}, "Friday": {"close": "19:00", "open": "11:00"}, "Wednesday": {"close": "19:00", "open": "11:00"}, "Thursday": {"close": "19:00", "open": "11:00"}, "Saturday": {"close": "19:00", "open": "11:00"}}, "open": true, "categories": ["Women's Clothing", "Fashion", "Shopping"], "city": "Karlsruhe", "review_count": 5, "name": "Kult-Industries", "neighborhoods": [], "longitude": 8.3953935, "state": "BW", "stars": 4.0, "latitude": 49.0116172, "attributes": {"Parking": {"garage": false, "validated": false, "street": false, "lot": false, "valet": false}, "Accepts Credit Cards": true, "Wheelchair Accessible": true, "Price Range": 3}, "type": "business"}
{"business_id": "Hxw62K84VXUysh1QjWZlqA", "full_address": "Printzstr. 4\n76139 Karlsruhe", "hours": {"Monday": {"close": "18:30", "open": "10:00"}, "Tuesday": {"close": "18:30", "open": "10:00"}, "Friday": {"close": "20:00", "open": "10:00"}, "Wednesday": {"close": "18:30", "open": "10:00"}, "Thursday": {"close": "20:00", "open": "10:00"}, "Saturday": {"close": "18:00", "open": "10:00"}}, "open": true, "categories": ["Fashion", "Shopping"], "city": "Karlsruhe", "review_count": 3, "name": "Big N Better", "neighborhoods": [], "longitude": 8.4625259, "state": "BW", "stars": 3.5, "latitude": 49.0215295, "attributes": {"Accepts Credit Cards": true, "Wheelchair Accessible": true, "Parking": {"garage": false, "validated": false, "street": false, "lot": false, "valet": false}}, "type": "business"}
{"business_id": "UhT3MBAwJKEBXUxui8ggrg", "full_address": "Ettlinger-Tor-Platz  1\nim Ece\n76133 Karlsruhe", "hours": {}, "open": true, "categories": ["Women's Clothing", "Fashion", "Shopping"], "city": "Karlsruhe", "review_count": 3, "name": "Noa Noa", "neighborhoods": [], "longitude": 8.40278, "state": "BW", "stars": 2.5, "latitude": 49.006, "attributes": {"Price Range": 4}, "type": "business"}
{"business_id": "WFvTk1sfSHMLCQkxzk0jlg", "full_address": "Kaiserstr. 147-159\n76133 Karlsruhe", "hours": {"Monday": {"close": "20:00", "open": "09:30"}, "Tuesday": {"close": "20:00", "open": "09:30"}, "Friday": {"close": "20:00", "open": "09:30"}, "Wednesday": {"close": "20:00", "open": "09:30"}, "Thursday": {"close": "20:00", "open": "09:30"}, "Saturday": {"close": "20:00", "open": "09:30"}}, "open": true, "categories": ["Department Stores", "Fashion", "Shopping"], "city": "Karlsruhe", "review_count": 15, "name": "Karstadt", "neighborhoods": [], "longitude": 8.40234, "state": "BW", "stars": 4.0, "latitude": 49.0095, "attributes": {"Parking": {"garage": true, "street": false, "validated": false, "lot": false, "valet": false}, "Accepts Credit Cards": true, "Wheelchair Accessible": true, "Price Range": 2}, "type": "business"}
{"business_id": "_BTySD9rDdvEH5ftVE4adQ", "full_address": "EKZ Post Galerie\nKaiserstr. 217\n76133 Karlsruhe", "hours": {"Monday": {"close": "20:00", "open": "09:00"}, "Tuesday": {"close": "20:00", "open": "09:00"}, "Friday": {"close": "20:00", "open": "09:00"}, "Wednesday": {"close": "20:00", "open": "09:00"}, "Thursday": {"close": "20:00", "open": "09:00"}, "Saturday": {"close": "20:00", "open": "09:00"}}, "open": true, "categories": ["Fashion", "Shopping"], "city": "Karlsruhe", "review_count": 8, "name": "Primark", "neighborhoods": [], "longitude": 8.39478, "state": "BW", "stars": 3.5, "latitude": 49.0097, "attributes": {"Parking": {"garage": false, "street": false, "validated": false, "lot": false, "valet": false}, "Accepts Credit Cards": true, "Price Range": 1}, "type": "business"}
{"business_id": "92bAvTJN_wKOUwygwAAlQw", "full_address": "Akademiestra\u00dfe 9-11\n76133 Karlsruhe", "hours": {}, "open": true, "categories": ["Children's Clothing", "Fashion", "Shopping"], "city": "Karlsruhe", "review_count": 3, "name": "Rasselfisch", "neighborhoods": [], "longitude": 8.39799, "state": "BW", "stars": 3.5, "latitude": 49.0118, "attributes": {"Parking": {"garage": false, "street": false, "validated": false, "lot": false, "valet": false}, "Accepts Credit Cards": true, "Price Range": 3}, "type": "business"}
{"business_id": "W2RFJg1N_MzuI8I42MQ2VA", "full_address": "Windeckstr. 15\n76135 Karlsruhe", "hours": {}, "open": true, "categories": ["Department Stores", "Fashion", "Shopping"], "city": "Karlsruhe", "review_count": 5, "name": "Heinrich Heine", "neighborhoods": [], "longitude": 8.37332, "state": "BW", "stars": 3.0, "latitude": 48.98807, "attributes": {"Price Range": 3}, "type": "business"}
{"business_id": "ePiK7IM1ZWQiwuivFwKE1Q", "full_address": "Lammstr. 4\n76133 Karlsruhe", "hours": {"Monday": {"close": "20:00", "open": "10:00"}, "Tuesday": {"close": "20:00", "open": "10:00"}, "Friday": {"close": "20:00", "open": "10:00"}, "Wednesday": {"close": "20:00", "open": "10:00"}, "Thursday": {"close": "20:00", "open": "10:00"}, "Saturday": {"close": "20:00", "open": "10:00"}}, "open": true, "categories": ["Fashion", "Shopping"], "city": "Karlsruhe", "review_count": 11, "name": "Peek & Cloppenburg", "neighborhoods": [], "longitude": 8.40257, "state": "BW", "stars": 4.0, "latitude": 49.0098, "attributes": {"Price Range": 3}, "type": "business"}
{"business_id": "aePFUnoAYbi7uij8k4KFxA", "full_address": "Kaiserstr. 52\n76133 Karlsruhe", "hours": {}, "open": true, "categories": ["Fashion", "Shopping"], "city": "Karlsruhe", "review_count": 3, "name": "C & A Mode", "neighborhoods": [], "longitude": 8.4063616, "state": "BW", "stars": 3.0, "latitude": 49.0095992, "attributes": {"Price Range": 2}, "type": "business"}
{"business_id": "q_Xd4xuUEcSga_n65SGejQ", "full_address": "Kaiserstr. 199 A\n76133 Karlsruhe", "hours": {}, "open": true, "categories": ["Hobby Shops", "Fashion", "Shopping", "Accessories"], "city": "Karlsruhe", "review_count": 4, "name": "Wmf W\u00fcrttembergische Metallwarenfabrik", "neighborhoods": [], "longitude": 8.3975624, "state": "BW", "stars": 4.0, "latitude": 49.0097223, "attributes": {}, "type": "business"}
{"business_id": "V8oiNG50dqpSlWdencpHqw", "full_address": "Karlstra\u00dfe 25\n76133 Karlsruhe", "hours": {"Monday": {"close": "18:00", "open": "10:00"}, "Tuesday": {"close": "18:00", "open": "10:00"}, "Friday": {"close": "19:00", "open": "10:00"}, "Wednesday": {"close": "18:00", "open": "10:00"}, "Thursday": {"close": "19:00", "open": "10:00"}, "Saturday": {"close": "17:00", "open": "10:30"}}, "open": true, "categories": ["Children's Clothing", "Fashion", "Shopping"], "city": "Karlsruhe", "review_count": 4, "name": "Hergard Kindermoden", "neighborhoods": [], "longitude": 8.3951634, "state": "BW", "stars": 3.5, "latitude": 49.0081634, "attributes": {"Parking": {"garage": false, "validated": false, "street": false, "lot": false, "valet": false}, "Wheelchair Accessible": false, "Price Range": 4}, "type": "business"}
{"business_id": "BGZHzaRaOuxbBPAKxmnkZw", "full_address": "Karlstra\u00dfe 82\n76137 Karlsruhe", "hours": {"Monday": {"close": "18:30", "open": "08:30"}, "Tuesday": {"close": "18:30", "open": "08:30"}, "Friday": {"close": "18:30", "open": "08:30"}, "Wednesday": {"close": "18:30", "open": "08:30"}, "Thursday": {"close": "18:30", "open": "08:30"}, "Saturday": {"close": "13:30", "open": "09:30"}}, "open": true, "categories": ["Children's Clothing", "Fashion", "Shopping", "Appliances & Repair", "Home & Garden", "Local Services", "Kitchen & Bath", "Toy Stores"], "city": "Karlsruhe", "review_count": 3, "name": "atelier B:", "neighborhoods": [], "longitude": 8.39402, "state": "BW", "stars": 4.5, "latitude": 49.0009, "attributes": {}, "type": "business"}
{"business_id": "JKPfm4KBvDoAKJwWiMz3Lg", "full_address": "Gerwigstr. 69\n76131 Karlsruhe", "hours": {}, "open": true, "categories": ["Shopping", "Fashion", "Maternity Wear", "Baby Gear & Furniture"], "city": "Karlsruhe", "review_count": 3, "name": "Baby-Center", "neighborhoods": [], "longitude": 8.43805, "state": "BW", "stars": 1.5, "latitude": 49.007, "attributes": {"Parking": {"garage": false, "validated": false, "street": false, "lot": false, "valet": false}, "Wheelchair Accessible": false, "Price Range": 3}, "type": "business"}
{"business_id": "A7Zrif-apG0Lt6ml1bXSsg", "full_address": "Eggensteiner Stra\u00dfe 52\n76297 Stutensee", "hours": {}, "open": true, "categories": ["Children's Clothing", "Fashion", "Shopping", "Mattresses", "Home & Garden", "Furniture Stores"], "city": "Stutensee", "review_count": 4, "name": "Naturversand Kirschke", "neighborhoods": [], "longitude": 8.4665991, "state": "BW", "stars": 3.5, "latitude": 49.0655226, "attributes": {}, "type": "business"}
{"business_id": "R0k3wzbxnqO6a7arCGtc-Q", "full_address": "Kaiserstr. 82a\n76133 Karlsruhe", "hours": {}, "open": true, "categories": ["Men's Clothing", "Fashion", "Shopping"], "city": "Karlsruhe", "review_count": 3, "name": "Eckerle Herrenmodenvertrieb", "neighborhoods": [], "longitude": 8.40286, "state": "BW", "stars": 3.0, "latitude": 49.0099, "attributes": {"Accepts Credit Cards": true, "Wheelchair Accessible": true, "Price Range": 3}, "type": "business"}
{"business_id": "8cfBkyIJsa3Ij25QnkDr7w", "full_address": "Kaiserstr. 170\n76133 Karlsruhe", "hours": {}, "open": true, "categories": ["Fashion", "Shopping"], "city": "Karlsruhe", "review_count": 7, "name": "XtraX", "neighborhoods": [], "longitude": 8.39249, "state": "BW", "stars": 4.5, "latitude": 49.0103, "attributes": {"Parking": {"garage": false, "validated": false, "street": false, "lot": false, "valet": false}, "Wheelchair Accessible": false, "Price Range": 3}, "type": "business"}
{"business_id": "D37k9DjJeF5h1ibjkdNTOQ", "full_address": "Herrenstr. 20\n76133 Karlsruhe", "hours": {}, "open": true, "categories": ["Fashion", "Shopping", "Shoe Stores"], "city": "Karlsruhe", "review_count": 4, "name": "Sigrun Woehr", "neighborhoods": [], "longitude": 8.39885, "state": "BW", "stars": 5.0, "latitude": 49.0096, "attributes": {"Parking": {"garage": false, "validated": false, "street": false, "lot": false, "valet": false}, "Accepts Credit Cards": true, "Price Range": 3}, "type": "business"}
{"business_id": "V2sfga9fwgmwpFELSWrQCw", "full_address": "Bahnhofstr. 5\n76356 Weingarten", "hours": {}, "open": true, "categories": ["Children's Clothing", "Fashion", "Shopping", "Food", "Chocolatiers & Shops", "Specialty Food"], "city": "Weingarten", "review_count": 4, "name": "La Casetta del Caff\u00e9", "neighborhoods": [], "longitude": 8.53132, "state": "BW", "stars": 4.0, "latitude": 49.0515, "attributes": {"Parking": {"garage": false, "validated": false, "street": false, "lot": false, "valet": false}, "Price Range": 1}, "type": "business"}
{"business_id": "y4Y_PFthmrdSZuJH6Jl9GQ", "full_address": "Kaiserstra\u00dfe 181\n76133 Karlsruhe", "hours": {}, "open": true, "categories": ["Sporting Goods", "Fashion", "Shopping", "Shoe Stores"], "city": "Karlsruhe", "review_count": 6, "name": "Foot Locker", "neighborhoods": [], "longitude": 8.3990525, "state": "BW", "stars": 4.0, "latitude": 49.0096384, "attributes": {"Wheelchair Accessible": true, "Price Range": 3}, "type": "business"}
{"business_id": "E7iw4558JRv7F2Un_CD76g", "full_address": "Kaiserstr. 175\n76133 Karlsruhe", "hours": {}, "open": true, "categories": ["Fashion", "Shopping"], "city": "Karlsruhe", "review_count": 4, "name": "H & M Hennes & Mauritz", "neighborhoods": [], "longitude": 8.3998035, "state": "BW", "stars": 5.0, "latitude": 49.0096273, "attributes": {"Parking": {"garage": false, "street": false, "validated": false, "lot": false, "valet": false}, "Accepts Credit Cards": true, "Price Range": 2}, "type": "business"}
{"business_id": "16SuskmvewU0N3J4GdgLUQ", "full_address": "Kriegsstr. 39\n76133 Karlsruhe", "hours": {}, "open": true, "categories": ["Photographers", "Bridal", "Fashion", "Shopping", "Event Planning & Services"], "city": "Karlsruhe", "review_count": 3, "name": "Bauer Portrait Atelier", "neighborhoods": [], "longitude": 8.39656, "state": "BW", "stars": 5.0, "latitude": 49.0052, "attributes": {"Price Range": 2}, "type": "business"}
{"business_id": "HgdywOlTmkSZ_7WM1foXQA", "full_address": "Kaiserstr. 217\n76133 Karlsruhe", "hours": {}, "open": true, "categories": ["Fashion", "Shopping", "Shoe Stores"], "city": "Karlsruhe", "review_count": 3, "name": "G\u00f6rtz 17", "neighborhoods": [], "longitude": 8.39476, "state": "BW", "stars": 2.5, "latitude": 49.0097, "attributes": {"Price Range": 3}, "type": "business"}
{"business_id": "1n5hiaLwfqWY9T6X8kdQCw", "full_address": "Erbprinzenstr. 26\n76133 Karlsruhe", "hours": {}, "open": true, "categories": ["Fashion", "Shopping"], "city": "Karlsruhe", "review_count": 5, "name": "Glam Fashion Store", "neighborhoods": [], "longitude": 8.39699, "state": "BW", "stars": 4.5, "latitude": 49.0091, "attributes": {"Wheelchair Accessible": true, "Price Range": 3}, "type": "business"}
{"business_id": "_PWHhThtFJRf7oEnP6w82Q", "full_address": "Karlstr. 90\n76137 Karlsruhe", "hours": {"Monday": {"close": "18:00", "open": "10:00"}, "Tuesday": {"close": "18:00", "open": "10:00"}, "Friday": {"close": "18:00", "open": "10:00"}, "Wednesday": {"close": "18:00", "open": "10:00"}, "Thursday": {"close": "18:00", "open": "10:00"}, "Saturday": {"close": "13:00", "open": "11:00"}}, "open": false, "categories": ["Used, Vintage & Consignment", "Fashion", "Shopping"], "city": "Karlsruhe", "review_count": 7, "name": "Kashka Diakonisches Werk Karlsruhe", "neighborhoods": [], "longitude": 8.39394, "state": "BW", "stars": 3.0, "latitude": 49.0004, "attributes": {"Parking": {"garage": false, "street": false, "validated": false, "lot": false, "valet": false}, "Accepts Credit Cards": false, "Price Range": 1}, "type": "business"}
{"business_id": "pTDZ9IbXXQLBPeev-Oupbg", "full_address": "Kaiserstr. 195\n76133 Karlsruhe", "hours": {}, "open": true, "categories": ["Fashion", "Shopping"], "city": "Karlsruhe", "review_count": 7, "name": "Esprit", "neighborhoods": [], "longitude": 8.3979247, "state": "BW", "stars": 3.5, "latitude": 49.0096938, "attributes": {"Price Range": 3}, "type": "business"}
{"business_id": "r79r7YC7NwxlncEMmJnffw", "full_address": "Ettlinger-Tor-Platz 1\nim Ettlinger Tor-Shopping-Center\n76133 Karlsruhe", "hours": {}, "open": true, "categories": ["Men's Clothing", "Fashion", "Shopping"], "city": "Karlsruhe", "review_count": 5, "name": "Anson's", "neighborhoods": [], "longitude": 8.40208, "state": "BW", "stars": 4.0, "latitude": 49.0067, "attributes": {"Parking": {"garage": false, "street": false, "validated": false, "lot": false, "valet": false}, "Accepts Credit Cards": true, "Wheelchair Accessible": true, "Price Range": 2}, "type": "business"}
{"business_id": "3BvclNio2VNl3aZv3JYSsQ", "full_address": "Kaiserstra\u00dfe 120\n76133 Karlsruhe", "hours": {}, "open": true, "categories": ["Fashion", "Shopping"], "city": "Karlsruhe", "review_count": 5, "name": "H&M - Men", "neighborhoods": [], "longitude": 8.40058, "state": "BW", "stars": 4.0, "latitude": 49.0098, "attributes": {}, "type": "business"}
{"business_id": "D2LF87_v_nC4sK7ZAAmQkw", "full_address": "Ettlinger-Tor-Platz 1\n76133 Karlsruhe", "hours": {}, "open": true, "categories": ["Fashion", "Shopping", "Shoe Stores"], "city": "Karlsruhe", "review_count": 3, "name": "Deichmann", "neighborhoods": [], "longitude": 8.40208, "state": "BW", "stars": 2.0, "latitude": 49.0067, "attributes": {"Accepts Credit Cards": true, "Price Range": 1}, "type": "business"}
{"business_id": "FgXSF5rB-sXvqeheZPFwZw", "full_address": "Karlstr. 56\n76133 Karlsruhe", "hours": {}, "open": true, "categories": ["Maternity Wear", "Fashion", "Shopping", "Baby Gear & Furniture"], "city": "Karlsruhe", "review_count": 3, "name": "baby-walz", "neighborhoods": [], "longitude": 8.39429, "state": "BW", "stars": 1.5, "latitude": 49.0035, "attributes": {"Price Range": 4}, "type": "business"}
{"business_id": "rJZRC9dVdsHuIeQmDdp3rA", "full_address": "Kaiserstr. 96\n76133 Karlsruhe", "hours": {"Monday": {"close": "20:00", "open": "10:00"}, "Tuesday": {"close": "20:00", "open": "10:00"}, "Friday": {"close": "20:00", "open": "10:00"}, "Wednesday": {"close": "20:00", "open": "10:00"}, "Thursday": {"close": "20:00", "open": "10:00"}, "Saturday": {"close": "20:00", "open": "10:00"}}, "open": true, "categories": ["Department Stores", "Fashion", "Shopping"], "city": "Karlsruhe", "review_count": 13, "name": "E. Breuninger", "neighborhoods": [], "longitude": 8.4005128, "state": "BW", "stars": 4.5, "latitude": 49.009768, "attributes": {"Parking": {"garage": false, "street": false, "validated": false, "lot": false, "valet": false}, "Accepts Credit Cards": true, "Wheelchair Accessible": true, "Price Range": 3}, "type": "business"}
{"business_id": "4svxTJsNoi1P6zt93_sGTg", "full_address": "Ortenbergstr. 8\n76135 Karlsruhe", "hours": {}, "open": true, "categories": ["Department Stores", "Fashion", "Shopping"], "city": "Karlsruhe", "review_count": 4, "name": "real,- SB Warenhaus", "neighborhoods": [], "longitude": 8.37562, "state": "BW", "stars": 2.5, "latitude": 48.9917, "attributes": {"Parking": {"garage": false, "street": false, "validated": false, "lot": false, "valet": false}, "Accepts Credit Cards": true, "Price Range": 2}, "type": "business"}
{"business_id": "9107Qw2zL_zIoLR9acqnag", "full_address": "Amthausstr.  7\n76227 Karlsruhe\n76227 Karlsruhe", "hours": {"Monday": {"close": "18:00", "open": "14:30"}, "Tuesday": {"close": "18:00", "open": "14:30"}, "Friday": {"close": "18:00", "open": "14:30"}, "Wednesday": {"close": "00:00", "open": "00:00"}, "Thursday": {"close": "18:00", "open": "14:30"}, "Saturday": {"close": "00:00", "open": "00:00"}}, "open": false, "categories": ["Used, Vintage & Consignment", "Fashion", "Shopping"], "city": "Karlsruhe", "review_count": 3, "name": "Kindersecondhandladen Durlach", "neighborhoods": [], "longitude": 8.4716335, "state": "BW", "stars": 3.5, "latitude": 48.9987216, "attributes": {"Accepts Credit Cards": false, "Wheelchair Accessible": false, "Parking": {"garage": false, "validated": false, "street": false, "lot": false, "valet": false}}, "type": "business"}
{"business_id": "LudeITL-wiw883I4Nqq0Fg", "full_address": "Passagehof 24\n76133 Karlsruhe", "hours": {"Monday": {"close": "19:30", "open": "10:30"}, "Tuesday": {"close": "19:30", "open": "10:30"}, "Friday": {"close": "19:30", "open": "10:30"}, "Wednesday": {"close": "19:30", "open": "10:30"}, "Thursday": {"close": "19:30", "open": "10:30"}, "Saturday": {"close": "19:30", "open": "10:30"}}, "open": true, "categories": ["Sporting Goods", "Fashion", "Shopping", "Outdoor Gear"], "city": "Karlsruhe", "review_count": 6, "name": "GRiP Boardshop Karlsruhe", "neighborhoods": [], "longitude": 8.39640182740027, "state": "BW", "stars": 5.0, "latitude": 49.0106767352139, "attributes": {"Parking": {"garage": true, "street": true, "validated": false, "lot": false, "valet": false}, "Accepts Credit Cards": true, "Price Range": 2}, "type": "business"}
{"business_id": "fPZ9g2t2HTLRh5aL8BBIAw", "full_address": "Lammstra\u00dfe 7a\nRathauspassage\n76133 Karlsruhe", "hours": {"Monday": {"close": "19:00", "open": "10:00"}, "Tuesday": {"close": "19:00", "open": "10:00"}, "Friday": {"close": "19:00", "open": "10:00"}, "Wednesday": {"close": "19:00", "open": "10:00"}, "Thursday": {"close": "19:00", "open": "10:00"}, "Saturday": {"close": "18:00", "open": "10:00"}}, "open": true, "categories": ["Children's Clothing", "Fashion", "Shopping"], "city": "Karlsruhe", "review_count": 3, "name": "Coloretti Kinder- und Schwangerschaftsmode", "neighborhoods": [], "longitude": 8.393843, "state": "BW", "stars": 4.5, "latitude": 49.0067498, "attributes": {"Parking": {"garage": false, "validated": false, "street": false, "lot": false, "valet": false}, "Accepts Credit Cards": true, "Wheelchair Accessible": true, "Price Range": 2}, "type": "business"}
{"business_id": "NOVlS5DyG-W5ryzxw5D4qA", "full_address": "Waldstr. 41 - 43\n76133 Karlsruhe", "hours": {}, "open": true, "categories": ["Used, Vintage & Consignment", "Used Bookstore", "Fashion", "Shopping"], "city": "Karlsruhe", "review_count": 3, "name": "Oxfam", "neighborhoods": [], "longitude": 8.3808372, "state": "BW", "stars": 5.0, "latitude": 49.0176507, "attributes": {}, "type": "business"}
{"business_id": "uAbMtNpZiRDqf61PRX4bDw", "full_address": "Carl-Metz-Str. 3\n76185 Karlsruhe", "hours": {"Monday": {"close": "19:00", "open": "10:00"}, "Tuesday": {"close": "19:00", "open": "10:00"}, "Friday": {"close": "19:00", "open": "10:00"}, "Wednesday": {"close": "19:00", "open": "10:00"}, "Thursday": {"close": "19:00", "open": "10:00"}, "Saturday": {"close": "18:00", "open": "10:00"}}, "open": true, "categories": ["Fashion", "Shopping", "Sporting Goods", "Local Services", "Bikes", "Sports Wear", "Bike Repair/Maintenance"], "city": "Karlsruhe", "review_count": 9, "name": "B.O.C.", "neighborhoods": [], "longitude": 8.35423, "state": "BW", "stars": 3.0, "latitude": 49.00984, "attributes": {"Parking": {"garage": false, "street": false, "validated": false, "lot": true, "valet": false}, "Accepts Credit Cards": false, "Wheelchair Accessible": true, "Price Range": 2}, "type": "business"}
{"business_id": "YWp1E5ZBJQhlbgbDhS6zcw", "full_address": "Kaiserstr. 92\n76133 Karlsruhe", "hours": {"Monday": {"close": "20:00", "open": "10:00"}, "Tuesday": {"close": "20:00", "open": "10:00"}, "Friday": {"close": "20:00", "open": "10:00"}, "Wednesday": {"close": "20:00", "open": "10:00"}, "Thursday": {"close": "20:00", "open": "10:00"}, "Saturday": {"close": "20:00", "open": "10:00"}}, "open": true, "categories": ["Department Stores", "Fashion", "Shopping"], "city": "Karlsruhe", "review_count": 5, "name": "Karstadt sports", "neighborhoods": [], "longitude": 8.3946101, "state": "BW", "stars": 2.5, "latitude": 49.0099888, "attributes": {"Accepts Credit Cards": true, "Price Range": 3}, "type": "business"}
{"business_id": "0mqni7gWoWJ1H5dN4Wwzsg", "full_address": "Ettlinger Tor Platz 1\n76133 Karlsruhe", "hours": {"Monday": {"close": "20:00", "open": "10:00"}, "Tuesday": {"close": "20:00", "open": "10:00"}, "Friday": {"close": "20:00", "open": "10:00"}, "Wednesday": {"close": "20:00", "open": "10:00"}, "Thursday": {"close": "22:00", "open": "10:00"}, "Saturday": {"close": "20:00", "open": "10:00"}}, "open": true, "categories": ["Fashion", "Shopping"], "city": "Karlsruhe", "review_count": 3, "name": "Olymp", "neighborhoods": [], "longitude": 8.4686236, "state": "BW", "stars": 2.5, "latitude": 48.9942088, "attributes": {"Accepts Credit Cards": true, "Price Range": 3}, "type": "business"}
{"business_id": "0dLjH5zWnbJDukuM3iQYvg", "full_address": "Kaiserstr. 211\n76133 Karlsruhe", "hours": {}, "open": true, "categories": ["Fashion", "Shopping", "Shoe Stores"], "city": "Karlsruhe", "review_count": 9, "name": "Humanic Filiale", "neighborhoods": [], "longitude": 8.3958862, "state": "BW", "stars": 3.5, "latitude": 49.0099485, "attributes": {"Accepts Credit Cards": true, "Price Range": 2}, "type": "business"}
{"business_id": "ll6IEuZo2hLh4PoAHjc6cA", "full_address": "Karlstr. 3-5\n76133 Karlsruhe", "hours": {"Monday": {"close": "19:00", "open": "11:00"}, "Tuesday": {"close": "19:00", "open": "11:00"}, "Friday": {"close": "19:00", "open": "11:00"}, "Wednesday": {"close": "19:00", "open": "11:00"}, "Thursday": {"close": "19:00", "open": "11:00"}, "Saturday": {"close": "19:00", "open": "11:00"}}, "open": true, "categories": ["Women's Clothing", "Fashion", "Shopping"], "city": "Karlsruhe", "review_count": 5, "name": "Kult-Industries", "neighborhoods": [], "longitude": 8.3953935, "state": "BW", "stars": 4.0, "latitude": 49.0116172, "attributes": {"Parking": {"garage": false, "validated": false, "street": false, "lot": false, "valet": false}, "Accepts Credit Cards": true, "Wheelchair Accessible": true, "Price Range": 3}, "type": "business"}
{"business_id": "Hxw62K84VXUysh1QjWZlqA", "full_address": "Printzstr. 4\n76139 Karlsruhe", "hours": {"Monday": {"close": "18:30", "open": "10:00"}, "Tuesday": {"close": "18:30", "open": "10:00"}, "Friday": {"close": "20:00", "open": "10:00"}, "Wednesday": {"close": "18:30", "open": "10:00"}, "Thursday": {"close": "20:00", "open": "10:00"}, "Saturday": {"close": "18:00", "open": "10:00"}}, "open": true, "categories": ["Fashion", "Shopping"], "city": "Karlsruhe", "review_count": 3, "name": "Big N Better", "neighborhoods": [], "longitude": 8.4625259, "state": "BW", "stars": 3.5, "latitude": 49.0215295, "attributes": {"Accepts Credit Cards": true, "Wheelchair Accessible": true, "Parking": {"garage": false, "validated": false, "street": false, "lot": false, "valet": false}}, "type": "business"}
{"business_id": "UhT3MBAwJKEBXUxui8ggrg", "full_address": "Ettlinger-Tor-Platz  1\nim Ece\n76133 Karlsruhe", "hours": {}, "open": true, "categories": ["Women's Clothing", "Fashion", "Shopping"], "city": "Karlsruhe", "review_count": 3, "name": "Noa Noa", "neighborhoods": [], "longitude": 8.40278, "state": "BW", "stars": 2.5, "latitude": 49.006, "attributes": {"Price Range": 4}, "type": "business"}
{"business_id": "WFvTk1sfSHMLCQkxzk0jlg", "full_address": "Kaiserstr. 147-159\n76133 Karlsruhe", "hours": {"Monday": {"close": "20:00", "open": "09:30"}, "Tuesday": {"close": "20:00", "open": "09:30"}, "Friday": {"close": "20:00", "open": "09:30"}, "Wednesday": {"close": "20:00", "open": "09:30"}, "Thursday": {"close": "20:00", "open": "09:30"}, "Saturday": {"close": "20:00", "open": "09:30"}}, "open": true, "categories": ["Department Stores", "Fashion", "Shopping"], "city": "Karlsruhe", "review_count": 15, "name": "Karstadt", "neighborhoods": [], "longitude": 8.40234, "state": "BW", "stars": 4.0, "latitude": 49.0095, "attributes": {"Parking": {"garage": true, "street": false, "validated": false, "lot": false, "valet": false}, "Accepts Credit Cards": true, "Wheelchair Accessible": true, "Price Range": 2}, "type": "business"}
{"business_id": "_BTySD9rDdvEH5ftVE4adQ", "full_address": "EKZ Post Galerie\nKaiserstr. 217\n76133 Karlsruhe", "hours": {"Monday": {"close": "20:00", "open": "09:00"}, "Tuesday": {"close": "20:00", "open": "09:00"}, "Friday": {"close": "20:00", "open": "09:00"}, "Wednesday": {"close": "20:00", "open": "09:00"}, "Thursday": {"close": "20:00", "open": "09:00"}, "Saturday": {"close": "20:00", "open": "09:00"}}, "open": true, "categories": ["Fashion", "Shopping"], "city": "Karlsruhe", "review_count": 8, "name": "Primark", "neighborhoods": [], "longitude": 8.39478, "state": "BW", "stars": 3.5, "latitude": 49.0097, "attributes": {"Parking": {"garage": false, "street": false, "validated": false, "lot": false, "valet": false}, "Accepts Credit Cards": true, "Price Range": 1}, "type": "business"}
{"business_id": "92bAvTJN_wKOUwygwAAlQw", "full_address": "Akademiestra\u00dfe 9-11\n76133 Karlsruhe", "hours": {}, "open": true, "categories": ["Children's Clothing", "Fashion", "Shopping"], "city": "Karlsruhe", "review_count": 3, "name": "Rasselfisch", "neighborhoods": [], "longitude": 8.39799, "state": "BW", "stars": 3.5, "latitude": 49.0118, "attributes": {"Parking": {"garage": false, "street": false, "validated": false, "lot": false, "valet": false}, "Accepts Credit Cards": true, "Price Range": 3}, "type": "business"}
{"business_id": "W2RFJg1N_MzuI8I42MQ2VA", "full_address": "Windeckstr. 15\n76135 Karlsruhe", "hours": {}, "open": true, "categories": ["Department Stores", "Fashion", "Shopping"], "city": "Karlsruhe", "review_count": 5, "name": "Heinrich Heine", "neighborhoods": [], "longitude": 8.37332, "state": "BW", "stars": 3.0, "latitude": 48.98807, "attributes": {"Price Range": 3}, "type": "business"}
{"business_id": "ePiK7IM1ZWQiwuivFwKE1Q", "full_address": "Lammstr. 4\n76133 Karlsruhe", "hours": {"Monday": {"close": "20:00", "open": "10:00"}, "Tuesday": {"close": "20:00", "open": "10:00"}, "Friday": {"close": "20:00", "open": "10:00"}, "Wednesday": {"close": "20:00", "open": "10:00"}, "Thursday": {"close": "20:00", "open": "10:00"}, "Saturday": {"close": "20:00", "open": "10:00"}}, "open": true, "categories": ["Fashion", "Shopping"], "city": "Karlsruhe", "review_count": 11, "name": "Peek & Cloppenburg", "neighborhoods": [], "longitude": 8.40257, "state": "BW", "stars": 4.0, "latitude": 49.0098, "attributes": {"Price Range": 3}, "type": "business"}
{"business_id": "aePFUnoAYbi7uij8k4KFxA", "full_address": "Kaiserstr. 52\n76133 Karlsruhe", "hours": {}, "open": true, "categories": ["Fashion", "Shopping"], "city": "Karlsruhe", "review_count": 3, "name": "C & A Mode", "neighborhoods": [], "longitude": 8.4063616, "state": "BW", "stars": 3.0, "latitude": 49.0095992, "attributes": {"Price Range": 2}, "type": "business"}
{"business_id": "q_Xd4xuUEcSga_n65SGejQ", "full_address": "Kaiserstr. 199 A\n76133 Karlsruhe", "hours": {}, "open": true, "categories": ["Hobby Shops", "Fashion", "Shopping", "Accessories"], "city": "Karlsruhe", "review_count": 4, "name": "Wmf W\u00fcrttembergische Metallwarenfabrik", "neighborhoods": [], "longitude": 8.3975624, "state": "BW", "stars": 4.0, "latitude": 49.0097223, "attributes": {}, "type": "business"}
{"business_id": "V8oiNG50dqpSlWdencpHqw", "full_address": "Karlstra\u00dfe 25\n76133 Karlsruhe", "hours": {"Monday": {"close": "18:00", "open": "10:00"}, "Tuesday": {"close": "18:00", "open": "10:00"}, "Friday": {"close": "19:00", "open": "10:00"}, "Wednesday": {"close": "18:00", "open": "10:00"}, "Thursday": {"close": "19:00", "open": "10:00"}, "Saturday": {"close": "17:00", "open": "10:30"}}, "open": true, "categories": ["Children's Clothing", "Fashion", "Shopping"], "city": "Karlsruhe", "review_count": 4, "name": "Hergard Kindermoden", "neighborhoods": [], "longitude": 8.3951634, "state": "BW", "stars": 3.5, "latitude": 49.0081634, "attributes": {"Parking": {"garage": false, "validated": false, "street": false, "lot": false, "valet": false}, "Wheelchair Accessible": false, "Price Range": 4}, "type": "business"}
{"business_id": "BGZHzaRaOuxbBPAKxmnkZw", "full_address": "Karlstra\u00dfe 82\n76137 Karlsruhe", "hours": {"Monday": {"close": "18:30", "open": "08:30"}, "Tuesday": {"close": "18:30", "open": "08:30"}, "Friday": {"close": "18:30", "open": "08:30"}, "Wednesday": {"close": "18:30", "open": "08:30"}, "Thursday": {"close": "18:30", "open": "08:30"}, "Saturday": {"close": "13:30", "open": "09:30"}}, "open": true, "categories": ["Children's Clothing", "Fashion", "Shopping", "Appliances & Repair", "Home & Garden", "Local Services", "Kitchen & Bath", "Toy Stores"], "city": "Karlsruhe", "review_count": 3, "name": "atelier B:", "neighborhoods": [], "longitude": 8.39402, "state": "BW", "stars": 4.5, "latitude": 49.0009, "attributes": {}, "type": "business"}
{"business_id": "JKPfm4KBvDoAKJwWiMz3Lg", "full_address": "Gerwigstr. 69\n76131 Karlsruhe", "hours": {}, "open": true, "categories": ["Shopping", "Fashion", "Maternity Wear", "Baby Gear & Furniture"], "city": "Karlsruhe", "review_count": 3, "name": "Baby-Center", "neighborhoods": [], "longitude": 8.43805, "state": "BW", "stars": 1.5, "latitude": 49.007, "attributes": {"Parking": {"garage": false, "validated": false, "street": false, "lot": false, "valet": false}, "Wheelchair Accessible": false, "Price Range": 3}, "type": "business"}
{"business_id": "A7Zrif-apG0Lt6ml1bXSsg", "full_address": "Eggensteiner Stra\u00dfe 52\n76297 Stutensee", "hours": {}, "open": true, "categories": ["Children's Clothing", "Fashion", "Shopping", "Mattresses", "Home & Garden", "Furniture Stores"], "city": "Stutensee", "review_count": 4, "name": "Naturversand Kirschke", "neighborhoods": [], "longitude": 8.4665991, "state": "BW", "stars": 3.5, "latitude": 49.0655226, "attributes": {}, "type": "business"}
{"business_id": "R0k3wzbxnqO6a7arCGtc-Q", "full_address": "Kaiserstr. 82a\n76133 Karlsruhe", "hours": {}, "open": true, "categories": ["Men's Clothing", "Fashion", "Shopping"], "city": "Karlsruhe", "review_count": 3, "name": "Eckerle Herrenmodenvertrieb", "neighborhoods": [], "longitude": 8.40286, "state": "BW", "stars": 3.0, "latitude": 49.0099, "attributes": {"Accepts Credit Cards": true, "Wheelchair Accessible": true, "Price Range": 3}, "type": "business"}
{"business_id": "8cfBkyIJsa3Ij25QnkDr7w", "full_address": "Kaiserstr. 170\n76133 Karlsruhe", "hours": {}, "open": true, "categories": ["Fashion", "Shopping"], "city": "Karlsruhe", "review_count": 7, "name": "XtraX", "neighborhoods": [], "longitude": 8.39249, "state": "BW", "stars": 4.5, "latitude": 49.0103, "attributes": {"Parking": {"garage": false, "validated": false, "street": false, "lot": false, "valet": false}, "Wheelchair Accessible": false, "Price Range": 3}, "type": "business"}
{"business_id": "D37k9DjJeF5h1ibjkdNTOQ", "full_address": "Herrenstr. 20\n76133 Karlsruhe", "hours": {}, "open": true, "categories": ["Fashion", "Shopping", "Shoe Stores"], "city": "Karlsruhe", "review_count": 4, "name": "Sigrun Woehr", "neighborhoods": [], "longitude": 8.39885, "state": "BW", "stars": 5.0, "latitude": 49.0096, "attributes": {"Parking": {"garage": false, "validated": false, "street": false, "lot": false, "valet": false}, "Accepts Credit Cards": true, "Price Range": 3}, "type": "business"}
{"business_id": "V2sfga9fwgmwpFELSWrQCw", "full_address": "Bahnhofstr. 5\n76356 Weingarten", "hours": {}, "open": true, "categories": ["Children's Clothing", "Fashion", "Shopping", "Food", "Chocolatiers & Shops", "Specialty Food"], "city": "Weingarten", "review_count": 4, "name": "La Casetta del Caff\u00e9", "neighborhoods": [], "longitude": 8.53132, "state": "BW", "stars": 4.0, "latitude": 49.0515, "attributes": {"Parking": {"garage": false, "validated": false, "street": false, "lot": false, "valet": false}, "Price Range": 1}, "type": "business"}
{"business_id": "y4Y_PFthmrdSZuJH6Jl9GQ", "full_address": "Kaiserstra\u00dfe 181\n76133 Karlsruhe", "hours": {}, "open": true, "categories": ["Sporting Goods", "Fashion", "Shopping", "Shoe Stores"], "city": "Karlsruhe", "review_count": 6, "name": "Foot Locker", "neighborhoods": [], "longitude": 8.3990525, "state": "BW", "stars": 4.0, "latitude": 49.0096384, "attributes": {"Wheelchair Accessible": true, "Price Range": 3}, "type": "business"}
{"business_id": "E7iw4558JRv7F2Un_CD76g", "full_address": "Kaiserstr. 175\n76133 Karlsruhe", "hours": {}, "open": true, "categories": ["Fashion", "Shopping"], "city": "Karlsruhe", "review_count": 4, "name": "H & M Hennes & Mauritz", "neighborhoods": [], "longitude": 8.3998035, "state": "BW", "stars": 5.0, "latitude": 49.0096273, "attributes": {"Parking": {"garage": false, "street": false, "validated": false, "lot": false, "valet": false}, "Accepts Credit Cards": true, "Price Range": 2}, "type": "business"}
{"business_id": "16SuskmvewU0N3J4GdgLUQ", "full_address": "Kriegsstr. 39\n76133 Karlsruhe", "hours": {}, "open": true, "categories": ["Photographers", "Bridal", "Fashion", "Shopping", "Event Planning & Services"], "city": "Karlsruhe", "review_count": 3, "name": "Bauer Portrait Atelier", "neighborhoods": [], "longitude": 8.39656, "state": "BW", "stars": 5.0, "latitude": 49.0052, "attributes": {"Price Range": 2}, "type": "business"}
{"business_id": "HgdywOlTmkSZ_7WM1foXQA", "full_address": "Kaiserstr. 217\n76133 Karlsruhe", "hours": {}, "open": true, "categories": ["Fashion", "Shopping", "Shoe Stores"], "city": "Karlsruhe", "review_count": 3, "name": "G\u00f6rtz 17", "neighborhoods": [], "longitude": 8.39476, "state": "BW", "stars": 2.5, "latitude": 49.0097, "attributes": {"Price Range": 3}, "type": "business"}
{"business_id": "1n5hiaLwfqWY9T6X8kdQCw", "full_address": "Erbprinzenstr. 26\n76133 Karlsruhe", "hours": {}, "open": true, "categories": ["Fashion", "Shopping"], "city": "Karlsruhe", "review_count": 5, "name": "Glam Fashion Store", "neighborhoods": [], "longitude": 8.39699, "state": "BW", "stars": 4.5, "latitude": 49.0091, "attributes": {"Wheelchair Accessible": true, "Price Range": 3}, "type": "business"}
{"business_id": "_PWHhThtFJRf7oEnP6w82Q", "full_address": "Karlstr. 90\n76137 Karlsruhe", "hours": {"Monday": {"close": "18:00", "open": "10:00"}, "Tuesday": {"close": "18:00", "open": "10:00"}, "Friday": {"close": "18:00", "open": "10:00"}, "Wednesday": {"close": "18:00", "open": "10:00"}, "Thursday": {"close": "18:00", "open": "10:00"}, "Saturday": {"close": "13:00", "open": "11:00"}}, "open": false, "categories": ["Used, Vintage & Consignment", "Fashion", "Shopping"], "city": "Karlsruhe", "review_count": 7, "name": "Kashka Diakonisches Werk Karlsruhe", "neighborhoods": [], "longitude": 8.39394, "state": "BW", "stars": 3.0, "latitude": 49.0004, "attributes": {"Parking": {"garage": false, "street": false, "validated": false, "lot": false, "valet": false}, "Accepts Credit Cards": false, "Price Range": 1}, "type": "business"}
{"business_id": "pTDZ9IbXXQLBPeev-Oupbg", "full_address": "Kaiserstr. 195\n76133 Karlsruhe", "hours": {}, "open": true, "categories": ["Fashion", "Shopping"], "city": "Karlsruhe", "review_count": 7, "name": "Esprit", "neighborhoods": [], "longitude": 8.3979247, "state": "BW", "stars": 3.5, "latitude": 49.0096938, "attributes": {"Price Range": 3}, "type": "business"}
{"business_id": "r79r7YC7NwxlncEMmJnffw", "full_address": "Ettlinger-Tor-Platz 1\nim Ettlinger Tor-Shopping-Center\n76133 Karlsruhe", "hours": {}, "open": true, "categories": ["Men's Clothing", "Fashion", "Shopping"], "city": "Karlsruhe", "review_count": 5, "name": "Anson's", "neighborhoods": [], "longitude": 8.40208, "state": "BW", "stars": 4.0, "latitude": 49.0067, "attributes": {"Parking": {"garage": false, "street": false, "validated": false, "lot": false, "valet": false}, "Accepts Credit Cards": true, "Wheelchair Accessible": true, "Price Range": 2}, "type": "business"}
{"business_id": "3BvclNio2VNl3aZv3JYSsQ", "full_address": "Kaiserstra\u00dfe 120\n76133 Karlsruhe", "hours": {}, "open": true, "categories": ["Fashion", "Shopping"], "city": "Karlsruhe", "review_count": 5, "name": "H&M - Men", "neighborhoods": [], "longitude": 8.40058, "state": "BW", "stars": 4.0, "latitude": 49.0098, "attributes": {}, "type": "business"}
{"business_id": "D2LF87_v_nC4sK7ZAAmQkw", "full_address": "Ettlinger-Tor-Platz 1\n76133 Karlsruhe", "hours": {}, "open": true, "categories": ["Fashion", "Shopping", "Shoe Stores"], "city": "Karlsruhe", "review_count": 3, "name": "Deichmann", "neighborhoods": [], "longitude": 8.40208, "state": "BW", "stars": 2.0, "latitude": 49.0067, "attributes": {"Accepts Credit Cards": true, "Price Range": 1}, "type": "business"}
{"business_id": "FgXSF5rB-sXvqeheZPFwZw", "full_address": "Karlstr. 56\n76133 Karlsruhe", "hours": {}, "open": true, "categories": ["Maternity Wear", "Fashion", "Shopping", "Baby Gear & Furniture"], "city": "Karlsruhe", "review_count": 3, "name": "baby-walz", "neighborhoods": [], "longitude": 8.39429, "state": "BW", "stars": 1.5, "latitude": 49.0035, "attributes": {"Price Range": 4}, "type": "business"}
{"business_id": "rJZRC9dVdsHuIeQmDdp3rA", "full_address": "Kaiserstr. 96\n76133 Karlsruhe", "hours": {"Monday": {"close": "20:00", "open": "10:00"}, "Tuesday": {"close": "20:00", "open": "10:00"}, "Friday": {"close": "20:00", "open": "10:00"}, "Wednesday": {"close": "20:00", "open": "10:00"}, "Thursday": {"close": "20:00", "open": "10:00"}, "Saturday": {"close": "20:00", "open": "10:00"}}, "open": true, "categories": ["Department Stores", "Fashion", "Shopping"], "city": "Karlsruhe", "review_count": 13, "name": "E. Breuninger", "neighborhoods": [], "longitude": 8.4005128, "state": "BW", "stars": 4.5, "latitude": 49.009768, "attributes": {"Parking": {"garage": false, "street": false, "validated": false, "lot": false, "valet": false}, "Accepts Credit Cards": true, "Wheelchair Accessible": true, "Price Range": 3}, "type": "business"}
{"business_id": "4svxTJsNoi1P6zt93_sGTg", "full_address": "Ortenbergstr. 8\n76135 Karlsruhe", "hours": {}, "open": true, "categories": ["Department Stores", "Fashion", "Shopping"], "city": "Karlsruhe", "review_count": 4, "name": "real,- SB Warenhaus", "neighborhoods": [], "longitude": 8.37562, "state": "BW", "stars": 2.5, "latitude": 48.9917, "attributes": {"Parking": {"garage": false, "street": false, "validated": false, "lot": false, "valet": false}, "Accepts Credit Cards": true, "Price Range": 2}, "type": "business"}
{"business_id": "9107Qw2zL_zIoLR9acqnag", "full_address": "Amthausstr.  7\n76227 Karlsruhe\n76227 Karlsruhe", "hours": {"Monday": {"close": "18:00", "open": "14:30"}, "Tuesday": {"close": "18:00", "open": "14:30"}, "Friday": {"close": "18:00", "open": "14:30"}, "Wednesday": {"close": "00:00", "open": "00:00"}, "Thursday": {"close": "18:00", "open": "14:30"}, "Saturday": {"close": "00:00", "open": "00:00"}}, "open": false, "categories": ["Used, Vintage & Consignment", "Fashion", "Shopping"], "city": "Karlsruhe", "review_count": 3, "name": "Kindersecondhandladen Durlach", "neighborhoods": [], "longitude": 8.4716335, "state": "BW", "stars": 3.5, "latitude": 48.9987216, "attributes": {"Accepts Credit Cards": false, "Wheelchair Accessible": false, "Parking": {"garage": false, "validated": false, "street": false, "lot": false, "valet": false}}, "type": "business"}
{"business_id": "LudeITL-wiw883I4Nqq0Fg", "full_address": "Passagehof 24\n76133 Karlsruhe", "hours": {"Monday": {"close": "19:30", "open": "10:30"}, "Tuesday": {"close": "19:30", "open": "10:30"}, "Friday": {"close": "19:30", "open": "10:30"}, "Wednesday": {"close": "19:30", "open": "10:30"}, "Thursday": {"close": "19:30", "open": "10:30"}, "Saturday": {"close": "19:30", "open": "10:30"}}, "open": true, "categories": ["Sporting Goods", "Fashion", "Shopping", "Outdoor Gear"], "city": "Karlsruhe", "review_count": 6, "name": "GRiP Boardshop Karlsruhe", "neighborhoods": [], "longitude": 8.39640182740027, "state": "BW", "stars": 5.0, "latitude": 49.0106767352139, "attributes": {"Parking": {"garage": true, "street": true, "validated": false, "lot": false, "valet": false}, "Accepts Credit Cards": true, "Price Range": 2}, "type": "business"}
{"business_id": "fPZ9g2t2HTLRh5aL8BBIAw", "full_address": "Lammstra\u00dfe 7a\nRathauspassage\n76133 Karlsruhe", "hours": {"Monday": {"close": "19:00", "open": "10:00"}, "Tuesday": {"close": "19:00", "open": "10:00"}, "Friday": {"close": "19:00", "open": "10:00"}, "Wednesday": {"close": "19:00", "open": "10:00"}, "Thursday": {"close": "19:00", "open": "10:00"}, "Saturday": {"close": "18:00", "open": "10:00"}}, "open": true, "categories": ["Children's Clothing", "Fashion", "Shopping"], "city": "Karlsruhe", "review_count": 3, "name": "Coloretti Kinder- und Schwangerschaftsmode", "neighborhoods": [], "longitude": 8.393843, "state": "BW", "stars": 4.5, "latitude": 49.0067498, "attributes": {"Parking": {"garage": false, "validated": false, "street": false, "lot": false, "valet": false}, "Accepts Credit Cards": true, "Wheelchair Accessible": true, "Price Range": 2}, "type": "business"}
{"business_id": "NOVlS5DyG-W5ryzxw5D4qA", "full_address": "Waldstr. 41 - 43\n76133 Karlsruhe", "hours": {}, "open": true, "categories": ["Used, Vintage & Consignment", "Used Bookstore", "Fashion", "Shopping"], "city": "Karlsruhe", "review_count": 3, "name": "Oxfam", "neighborhoods": [], "longitude": 8.3808372, "state": "BW", "stars": 5.0, "latitude": 49.0176507, "attributes": {}, "type": "business"}
{"business_id": "uAbMtNpZiRDqf61PRX4bDw", "full_address": "Carl-Metz-Str. 3\n76185 Karlsruhe", "hours": {"Monday": {"close": "19:00", "open": "10:00"}, "Tuesday": {"close": "19:00", "open": "10:00"}, "Friday": {"close": "19:00", "open": "10:00"}, "Wednesday": {"close": "19:00", "open": "10:00"}, "Thursday": {"close": "19:00", "open": "10:00"}, "Saturday": {"close": "18:00", "open": "10:00"}}, "open": true, "categories": ["Fashion", "Shopping", "Sporting Goods", "Local Services", "Bikes", "Sports Wear", "Bike Repair/Maintenance"], "city": "Karlsruhe", "review_count": 9, "name": "B.O.C.", "neighborhoods": [], "longitude": 8.35423, "state": "BW", "stars": 3.0, "latitude": 49.00984, "attributes": {"Parking": {"garage": false, "street": false, "validated": false, "lot": true, "valet": false}, "Accepts Credit Cards": false, "Wheelchair Accessible": true, "Price Range": 2}, "type": "business"}
{"business_id": "YWp1E5ZBJQhlbgbDhS6zcw", "full_address": "Kaiserstr. 92\n76133 Karlsruhe", "hours": {"Monday": {"close": "20:00", "open": "10:00"}, "Tuesday": {"close": "20:00", "open": "10:00"}, "Friday": {"close": "20:00", "open": "10:00"}, "Wednesday": {"close": "20:00", "open": "10:00"}, "Thursday": {"close": "20:00", "open": "10:00"}, "Saturday": {"close": "20:00", "open": "10:00"}}, "open": true, "categories": ["Department Stores", "Fashion", "Shopping"], "city": "Karlsruhe", "review_count": 5, "name": "Karstadt sports", "neighborhoods": [], "longitude": 8.3946101, "state": "BW", "stars": 2.5, "latitude": 49.0099888, "attributes": {"Accepts Credit Cards": true, "Price Range": 3}, "type": "business"}
{"business_id": "0mqni7gWoWJ1H5dN4Wwzsg", "full_address": "Ettlinger Tor Platz 1\n76133 Karlsruhe", "hours": {"Monday": {"close": "20:00", "open": "10:00"}, "Tuesday": {"close": "20:00", "open": "10:00"}, "Friday": {"close": "20:00", "open": "10:00"}, "Wednesday": {"close": "20:00", "open": "10:00"}, "Thursday": {"close": "22:00", "open": "10:00"}, "Saturday": {"close": "20:00", "open": "10:00"}}, "open": true, "categories": ["Fashion", "Shopping"], "city": "Karlsruhe", "review_count": 3, "name": "Olymp", "neighborhoods": [], "longitude": 8.4686236, "state": "BW", "stars": 2.5, "latitude": 48.9942088, "attributes": {"Accepts Credit Cards": true, "Price Range": 3}, "type": "business"}
{"business_id": "0dLjH5zWnbJDukuM3iQYvg", "full_address": "Kaiserstr. 211\n76133 Karlsruhe", "hours": {}, "open": true, "categories": ["Fashion", "Shopping", "Shoe Stores"], "city": "Karlsruhe", "review_count": 9, "name": "Humanic Filiale", "neighborhoods": [], "longitude": 8.3958862, "state": "BW", "stars": 3.5, "latitude": 49.0099485, "attributes": {"Accepts Credit Cards": true, "Price Range": 2}, "type": "business"}
{"business_id": "ll6IEuZo2hLh4PoAHjc6cA", "full_address": "Karlstr. 3-5\n76133 Karlsruhe", "hours": {"Monday": {"close": "19:00", "open": "11:00"}, "Tuesday": {"close": "19:00", "open": "11:00"}, "Friday": {"close": "19:00", "open": "11:00"}, "Wednesday": {"close": "19:00", "open": "11:00"}, "Thursday": {"close": "19:00", "open": "11:00"}, "Saturday": {"close": "19:00", "open": "11:00"}}, "open": true, "categories": ["Women's Clothing", "Fashion", "Shopping"], "city": "Karlsruhe", "review_count": 5, "name": "Kult-Industries", "neighborhoods": [], "longitude": 8.3953935, "state": "BW", "stars": 4.0, "latitude": 49.0116172, "attributes": {"Parking": {"garage": false, "validated": false, "street": false, "lot": false, "valet": false}, "Accepts Credit Cards": true, "Wheelchair Accessible": true, "Price Range": 3}, "type": "business"}
{"business_id": "Hxw62K84VXUysh1QjWZlqA", "full_address": "Printzstr. 4\n76139 Karlsruhe", "hours": {"Monday": {"close": "18:30", "open": "10:00"}, "Tuesday": {"close": "18:30", "open": "10:00"}, "Friday": {"close": "20:00", "open": "10:00"}, "Wednesday": {"close": "18:30", "open": "10:00"}, "Thursday": {"close": "20:00", "open": "10:00"}, "Saturday": {"close": "18:00", "open": "10:00"}}, "open": true, "categories": ["Fashion", "Shopping"], "city": "Karlsruhe", "review_count": 3, "name": "Big N Better", "neighborhoods": [], "longitude": 8.4625259, "state": "BW", "stars": 3.5, "latitude": 49.0215295, "attributes": {"Accepts Credit Cards": true, "Wheelchair Accessible": true, "Parking": {"garage": false, "validated": false, "street": false, "lot": false, "valet": false}}, "type": "business"}
{"business_id": "UhT3MBAwJKEBXUxui8ggrg", "full_address": "Ettlinger-Tor-Platz  1\nim Ece\n76133 Karlsruhe", "hours": {}, "open": true, "categories": ["Women's Clothing", "Fashion", "Shopping"], "city": "Karlsruhe", "review_count": 3, "name": "Noa Noa", "neighborhoods": [], "longitude": 8.40278, "state": "BW", "stars": 2.5, "latitude": 49.006, "attributes": {"Price Range": 4}, "type": "business"}
{"business_id": "WFvTk1sfSHMLCQkxzk0jlg", "full_address": "Kaiserstr. 147-159\n76133 Karlsruhe", "hours": {"Monday": {"close": "20:00", "open": "09:30"}, "Tuesday": {"close": "20:00", "open": "09:30"}, "Friday": {"close": "20:00", "open": "09:30"}, "Wednesday": {"close": "20:00", "open": "09:30"}, "Thursday": {"close": "20:00", "open": "09:30"}, "Saturday": {"close": "20:00", "open": "09:30"}}, "open": true, "categories": ["Department Stores", "Fashion", "Shopping"], "city": "Karlsruhe", "review_count": 15, "name": "Karstadt", "neighborhoods": [], "longitude": 8.40234, "state": "BW", "stars": 4.0, "latitude": 49.0095, "attributes": {"Parking": {"garage": true, "street": false, "validated": false, "lot": false, "valet": false}, "Accepts Credit Cards": true, "Wheelchair Accessible": true, "Price Range": 2}, "type": "business"}
{"business_id": "_BTySD9rDdvEH5ftVE4adQ", "full_address": "EKZ Post Galerie\nKaiserstr. 217\n76133 Karlsruhe", "hours": {"Monday": {"close": "20:00", "open": "09:00"}, "Tuesday": {"close": "20:00", "open": "09:00"}, "Friday": {"close": "20:00", "open": "09:00"}, "Wednesday": {"close": "20:00", "open": "09:00"}, "Thursday": {"close": "20:00", "open": "09:00"}, "Saturday": {"close": "20:00", "open": "09:00"}}, "open": true, "categories": ["Fashion", "Shopping"], "city": "Karlsruhe", "review_count": 8, "name": "Primark", "neighborhoods": [], "longitude": 8.39478, "state": "BW", "stars": 3.5, "latitude": 49.0097, "attributes": {"Parking": {"garage": false, "street": false, "validated": false, "lot": false, "valet": false}, "Accepts Credit Cards": true, "Price Range": 1}, "type": "business"}
{"business_id": "92bAvTJN_wKOUwygwAAlQw", "full_address": "Akademiestra\u00dfe 9-11\n76133 Karlsruhe", "hours": {}, "open": true, "categories": ["Children's Clothing", "Fashion", "Shopping"], "city": "Karlsruhe", "review_count": 3, "name": "Rasselfisch", "neighborhoods": [], "longitude": 8.39799, "state": "BW", "stars": 3.5, "latitude": 49.0118, "attributes": {"Parking": {"garage": false, "street": false, "validated": false, "lot": false, "valet": false}, "Accepts Credit Cards": true, "Price Range": 3}, "type": "business"}
