{"business_id": "V8oiNG50dqpSlWdencpHqw", "full_address": "Karlstra\u00dfe 25\n76133 Karlsruhe", "hours": {"Monday": {"close": "18:00", "open": "10:00"}, "Tuesday": {"close": "18:00", "open": "10:00"}, "Friday": {"close": "19:00", "open": "10:00"}, "Wednesday": {"close": "18:00", "open": "10:00"}, "Thursday": {"close": "19:00", "open": "10:00"}, "Saturday": {"close": "17:00", "open": "10:30"}}, "open": true, "categories": ["Children's Clothing", "Fashion", "Shopping"], "city": "Karlsruhe", "review_count": 4, "name": "Hergard Kindermoden", "neighborhoods": [], "longitude": 8.3951634, "state": "BW", "stars": 3.5, "latitude": 49.0081634, "attributes": {"Parking": {"garage": false, "validated": false, "street": false, "lot": false, "valet": false}, "Wheelchair Accessible": false, "Price Range": 4}, "type": "business"}
{"business_id": "BGZHzaRaOuxbBPAKxmnkZw", "full_address": "Karlstra\u00dfe 82\n76137 Karlsruhe", "hours": {"Monday": {"close": "18:30", "open": "08:30"}, "Tuesday": {"close": "18:30", "open": "08:30"}, "Friday": {"close": "18:30", "open": "08:30"}, "Wednesday": {"close": "18:30", "open": "08:30"}, "Thursday": {"close": "18:30", "open": "08:30"}, "Saturday": {"close": "13:30", "open": "09:30"}}, "open": true, "categories": ["Children's Clothing", "Fashion", "Shopping", "Appliances & Repair", "Home & Garden", "Local Services", "Kitchen & Bath", "Toy Stores"], "city": "Karlsruhe", "review_count": 3, "name": "atelier B:", "neighborhoods": [], "longitude": 8.39402, "state": "BW", "stars": 4.5, "latitude": 49.0009, "attributes": {}, "type": "business"}
{"business_id": "A7Zrif-apG0Lt6ml1bXSsg", "full_address": "Eggensteiner Stra\u00dfe 52\n76297 Stutensee", "hours": {}, "open": true, "categories": ["Children's Clothing", "Fashion", "Shopping", "Mattresses", "Home & Garden", "Furniture Stores"], "city": "Stutensee", "review_count": 4, "name": "Naturversand Kirschke", "neighborhoods": [], "longitude": 8.4665991, "state": "BW", "stars": 3.5, "latitude": 49.0655226, "attributes": {}, "type": "business"}
{"business_id": "V2sfga9fwgmwpFELSWrQCw", "full_address": "Bahnhofstr. 5\n76356 Weingarten", "hours": {}, "open": true, "categories": ["Children's Clothing", "Fashion", "Shopping", "Food", "Chocolatiers & Shops", "Specialty Food"], "city": "Weingarten", "review_count": 4, "name": "La Casetta del Caff\u00e9", "neighborhoods": [], "longitude": 8.53132, "state": "BW", "stars": 4.0, "latitude": 49.0515, "attributes": {"Parking": {"garage": false, "validated": false, "street": false, "lot": false, "valet": false}, "Price Range": 1}, "type": "business"}
{"business_id": "fPZ9g2t2HTLRh5aL8BBIAw", "full_address": "Lammstra\u00dfe 7a\nRathauspassage\n76133 Karlsruhe", "hours": {"Monday": {"close": "19:00", "open": "10:00"}, "Tuesday": {"close": "19:00", "open": "10:00"}, "Friday": {"close": "19:00", "open": "10:00"}, "Wednesday": {"close": "19:00", "open": "10:00"}, "Thursday": {"close": "19:00", "open": "10:00"}, "Saturday": {"close": "18:00", "open": "10:00"}}, "open": true, "categories": ["Children's Clothing", "Fashion", "Shopping"], "city": "Karlsruhe", "review_count": 3, "name": "Coloretti Kinder- und Schwangerschaftsmode", "neighborhoods": [], "longitude": 8.393843, "state": "BW", "stars": 4.5, "latitude": 49.0067498, "attributes": {"Parking": {"garage": false, "validated": false, "street": false, "lot": false, "valet": false}, "Accepts Credit Cards": true, "Wheelchair Accessible": true, "Price Range": 2}, "type": "business"}
{"business_id": "92bAvTJN_wKOUwygwAAlQw", "full_address": "Akademiestra\u00dfe 9-11\n76133 Karlsruhe", "hours": {}, "open": true, "categories": ["Children's Clothing", "Fashion", "Shopping"], "city": "Karlsruhe", "review_count": 3, "name": "Rasselfisch", "neighborhoods": [], "longitude": 8.39799, "state": "BW", "stars": 3.5, "latitude": 49.0118, "attributes": {"Parking": {"garage": false, "street": false, "validated": false, "lot": false, "valet": false}, "Accepts Credit Cards": true, "Price Range": 3}, "type": "business"}
{"business_id": "V8oiNG50dqpSlWdencpHqw", "full_address": "Karlstra\u00dfe 25\n76133 Karlsruhe", "hours": {"Monday": {"close": "18:00", "open": "10:00"}, "Tuesday": {"close": "18:00", "open": "10:00"}, "Friday": {"close": "19:00", "open": "10:00"}, "Wednesday": {"close": "18:00", "open": "10:00"}, "Thursday": {"close": "19:00", "open": "10:00"}, "Saturday": {"close": "17:00", "open": "10:30"}}, "open": true, "categories": ["Children's Clothing", "Fashion", "Shopping"], "city": "Karlsruhe", "review_count": 4, "name": "Hergard Kindermoden", "neighborhoods": [], "longitude": 8.3951634, "state": "BW", "stars": 3.5, "latitude": 49.0081634, "attributes": {"Parking": {"garage": false, "validated": false, "street": false, "lot": false, "valet": false}, "Wheelchair Accessible": false, "Price Range": 4}, "type": "business"}
{"business_id": "BGZHzaRaOuxbBPAKxmnkZw", "full_address": "Karlstra\u00dfe 82\n76137 Karlsruhe", "hours": {"Monday": {"close": "18:30", "open": "08:30"}, "Tuesday": {"close": "18:30", "open": "08:30"}, "Friday": {"close": "18:30", "open": "08:30"}, "Wednesday": {"close": "18:30", "open": "08:30"}, "Thursday": {"close": "18:30", "open": "08:30"}, "Saturday": {"close": "13:30", "open": "09:30"}}, "open": true, "categories": ["Children's Clothing", "Fashion", "Shopping", "Appliances & Repair", "Home & Garden", "Local Services", "Kitchen & Bath", "Toy Stores"], "city": "Karlsruhe", "review_count": 3, "name": "atelier B:", "neighborhoods": [], "longitude": 8.39402, "state": "BW", "stars": 4.5, "latitude": 49.0009, "attributes": {}, "type": "business"}
{"business_id": "A7Zrif-apG0Lt6ml1bXSsg", "full_address": "Eggensteiner Stra\u00dfe 52\n76297 Stutensee", "hours": {}, "open": true, "categories": ["Children's Clothing", "Fashion", "Shopping", "Mattresses", "Home & Garden", "Furniture Stores"], "city": "Stutensee", "review_count": 4, "name": "Naturversand Kirschke", "neighborhoods": [], "longitude": 8.4665991, "state": "BW", "stars": 3.5, "latitude": 49.0655226, "attributes": {}, "type": "business"}
{"business_id": "V2sfga9fwgmwpFELSWrQCw", "full_address": "Bahnhofstr. 5\n76356 Weingarten", "hours": {}, "open": true, "categories": ["Children's Clothing", "Fashion", "Shopping", "Food", "Chocolatiers & Shops", "Specialty Food"], "city": "Weingarten", "review_count": 4, "name": "La Casetta del Caff\u00e9", "neighborhoods": [], "longitude": 8.53132, "state": "BW", "stars": 4.0, "latitude": 49.0515, "attributes": {"Parking": {"garage": false, "validated": false, "street": false, "lot": false, "valet": false}, "Price Range": 1}, "type": "business"}
{"business_id": "fPZ9g2t2HTLRh5aL8BBIAw", "full_address": "Lammstra\u00dfe 7a\nRathauspassage\n76133 Karlsruhe", "hours": {"Monday": {"close": "19:00", "open": "10:00"}, "Tuesday": {"close": "19:00", "open": "10:00"}, "Friday": {"close": "19:00", "open": "10:00"}, "Wednesday": {"close": "19:00", "open": "10:00"}, "Thursday": {"close": "19:00", "open": "10:00"}, "Saturday": {"close": "18:00", "open": "10:00"}}, "open": true, "categories": ["Children's Clothing", "Fashion", "Shopping"], "city": "Karlsruhe", "review_count": 3, "name": "Coloretti Kinder- und Schwangerschaftsmode", "neighborhoods": [], "longitude": 8.393843, "state": "BW", "stars": 4.5, "latitude": 49.0067498, "attributes": {"Parking": {"garage": false, "validated": false, "street": false, "lot": false, "valet": false}, "Accepts Credit Cards": true, "Wheelchair Accessible": true, "Price Range": 2}, "type": "business"}
{"business_id": "92bAvTJN_wKOUwygwAAlQw", "full_address": "Akademiestra\u00dfe 9-11\n76133 Karlsruhe", "hours": {}, "open": true, "categories": ["Children's Clothing", "Fashion", "Shopping"], "city": "Karlsruhe", "review_count": 3, "name": "Rasselfisch", "neighborhoods": [], "longitude": 8.39799, "state": "BW", "stars": 3.5, "latitude": 49.0118, "attributes": {"Parking": {"garage": false, "street": false, "validated": false, "lot": false, "valet": false}, "Accepts Credit Cards": true, "Price Range": 3}, "type": "business"}
{"business_id": "V8oiNG50dqpSlWdencpHqw", "full_address": "Karlstra\u00dfe 25\n76133 Karlsruhe", "hours": {"Monday": {"close": "18:00", "open": "10:00"}, "Tuesday": {"close": "18:00", "open": "10:00"}, "Friday": {"close": "19:00", "open": "10:00"}, "Wednesday": {"close": "18:00", "open": "10:00"}, "Thursday": {"close": "19:00", "open": "10:00"}, "Saturday": {"close": "17:00", "open": "10:30"}}, "open": true, "categories": ["Children's Clothing", "Fashion", "Shopping"], "city": "Karlsruhe", "review_count": 4, "name": "Hergard Kindermoden", "neighborhoods": [], "longitude": 8.3951634, "state": "BW", "stars": 3.5, "latitude": 49.0081634, "attributes": {"Parking": {"garage": false, "validated": false, "street": false, "lot": false, "valet": false}, "Wheelchair Accessible": false, "Price Range": 4}, "type": "business"}
{"business_id": "BGZHzaRaOuxbBPAKxmnkZw", "full_address": "Karlstra\u00dfe 82\n76137 Karlsruhe", "hours": {"Monday": {"close": "18:30", "open": "08:30"}, "Tuesday": {"close": "18:30", "open": "08:30"}, "Friday": {"close": "18:30", "open": "08:30"}, "Wednesday": {"close": "18:30", "open": "08:30"}, "Thursday": {"close": "18:30", "open": "08:30"}, "Saturday": {"close": "13:30", "open": "09:30"}}, "open": true, "categories": ["Children's Clothing", "Fashion", "Shopping", "Appliances & Repair", "Home & Garden", "Local Services", "Kitchen & Bath", "Toy Stores"], "city": "Karlsruhe", "review_count": 3, "name": "atelier B:", "neighborhoods": [], "longitude": 8.39402, "state": "BW", "stars": 4.5, "latitude": 49.0009, "attributes": {}, "type": "business"}
{"business_id": "A7Zrif-apG0Lt6ml1bXSsg", "full_address": "Eggensteiner Stra\u00dfe 52\n76297 Stutensee", "hours": {}, "open": true, "categories": ["Children's Clothing", "Fashion", "Shopping", "Mattresses", "Home & Garden", "Furniture Stores"], "city": "Stutensee", "review_count": 4, "name": "Naturversand Kirschke", "neighborhoods": [], "longitude": 8.4665991, "state": "BW", "stars": 3.5, "latitude": 49.0655226, "attributes": {}, "type": "business"}
{"business_id": "V2sfga9fwgmwpFELSWrQCw", "full_address": "Bahnhofstr. 5\n76356 Weingarten", "hours": {}, "open": true, "categories": ["Children's Clothing", "Fashion", "Shopping", "Food", "Chocolatiers & Shops", "Specialty Food"], "city": "Weingarten", "review_count": 4, "name": "La Casetta del Caff\u00e9", "neighborhoods": [], "longitude": 8.53132, "state": "BW", "stars": 4.0, "latitude": 49.0515, "attributes": {"Parking": {"garage": false, "validated": false, "street": false, "lot": false, "valet": false}, "Price Range": 1}, "type": "business"}
{"business_id": "fPZ9g2t2HTLRh5aL8BBIAw", "full_address": "Lammstra\u00dfe 7a\nRathauspassage\n76133 Karlsruhe", "hours": {"Monday": {"close": "19:00", "open": "10:00"}, "Tuesday": {"close": "19:00", "open": "10:00"}, "Friday": {"close": "19:00", "open": "10:00"}, "Wednesday": {"close": "19:00", "open": "10:00"}, "Thursday": {"close": "19:00", "open": "10:00"}, "Saturday": {"close": "18:00", "open": "10:00"}}, "open": true, "categories": ["Children's Clothing", "Fashion", "Shopping"], "city": "Karlsruhe", "review_count": 3, "name": "Coloretti Kinder- und Schwangerschaftsmode", "neighborhoods": [], "longitude": 8.393843, "state": "BW", "stars": 4.5, "latitude": 49.0067498, "attributes": {"Parking": {"garage": false, "validated": false, "street": false, "lot": false, "valet": false}, "Accepts Credit Cards": true, "Wheelchair Accessible": true, "Price Range": 2}, "type": "business"}
{"business_id": "92bAvTJN_wKOUwygwAAlQw", "full_address": "Akademiestra\u00dfe 9-11\n76133 Karlsruhe", "hours": {}, "open": true, "categories": ["Children's Clothing", "Fashion", "Shopping"], "city": "Karlsruhe", "review_count": 3, "name": "Rasselfisch", "neighborhoods": [], "longitude": 8.39799, "state": "BW", "stars": 3.5, "latitude": 49.0118, "attributes": {"Parking": {"garage": false, "street": false, "validated": false, "lot": false, "valet": false}, "Accepts Credit Cards": true, "Price Range": 3}, "type": "business"}
{"business_id": "V8oiNG50dqpSlWdencpHqw", "full_address": "Karlstra\u00dfe 25\n76133 Karlsruhe", "hours": {"Monday": {"close": "18:00", "open": "10:00"}, "Tuesday": {"close": "18:00", "open": "10:00"}, "Friday": {"close": "19:00", "open": "10:00"}, "Wednesday": {"close": "18:00", "open": "10:00"}, "Thursday": {"close": "19:00", "open": "10:00"}, "Saturday": {"close": "17:00", "open": "10:30"}}, "open": true, "categories": ["Children's Clothing", "Fashion", "Shopping"], "city": "Karlsruhe", "review_count": 4, "name": "Hergard Kindermoden", "neighborhoods": [], "longitude": 8.3951634, "state": "BW", "stars": 3.5, "latitude": 49.0081634, "attributes": {"Parking": {"garage": false, "validated": false, "street": false, "lot": false, "valet": false}, "Wheelchair Accessible": false, "Price Range": 4}, "type": "business"}
{"business_id": "BGZHzaRaOuxbBPAKxmnkZw", "full_address": "Karlstra\u00dfe 82\n76137 Karlsruhe", "hours": {"Monday": {"close": "18:30", "open": "08:30"}, "Tuesday": {"close": "18:30", "open": "08:30"}, "Friday": {"close": "18:30", "open": "08:30"}, "Wednesday": {"close": "18:30", "open": "08:30"}, "Thursday": {"close": "18:30", "open": "08:30"}, "Saturday": {"close": "13:30", "open": "09:30"}}, "open": true, "categories": ["Children's Clothing", "Fashion", "Shopping", "Appliances & Repair", "Home & Garden", "Local Services", "Kitchen & Bath", "Toy Stores"], "city": "Karlsruhe", "review_count": 3, "name": "atelier B:", "neighborhoods": [], "longitude": 8.39402, "state": "BW", "stars": 4.5, "latitude": 49.0009, "attributes": {}, "type": "business"}
{"business_id": "A7Zrif-apG0Lt6ml1bXSsg", "full_address": "Eggensteiner Stra\u00dfe 52\n76297 Stutensee", "hours": {}, "open": true, "categories": ["Children's Clothing", "Fashion", "Shopping", "Mattresses", "Home & Garden", "Furniture Stores"], "city": "Stutensee", "review_count": 4, "name": "Naturversand Kirschke", "neighborhoods": [], "longitude": 8.4665991, "state": "BW", "stars": 3.5, "latitude": 49.0655226, "attributes": {}, "type": "business"}
{"business_id": "V2sfga9fwgmwpFELSWrQCw", "full_address": "Bahnhofstr. 5\n76356 Weingarten", "hours": {}, "open": true, "categories": ["Children's Clothing", "Fashion", "Shopping", "Food", "Chocolatiers & Shops", "Specialty Food"], "city": "Weingarten", "review_count": 4, "name": "La Casetta del Caff\u00e9", "neighborhoods": [], "longitude": 8.53132, "state": "BW", "stars": 4.0, "latitude": 49.0515, "attributes": {"Parking": {"garage": false, "validated": false, "street": false, "lot": false, "valet": false}, "Price Range": 1}, "type": "business"}
{"business_id": "fPZ9g2t2HTLRh5aL8BBIAw", "full_address": "Lammstra\u00dfe 7a\nRathauspassage\n76133 Karlsruhe", "hours": {"Monday": {"close": "19:00", "open": "10:00"}, "Tuesday": {"close": "19:00", "open": "10:00"}, "Friday": {"close": "19:00", "open": "10:00"}, "Wednesday": {"close": "19:00", "open": "10:00"}, "Thursday": {"close": "19:00", "open": "10:00"}, "Saturday": {"close": "18:00", "open": "10:00"}}, "open": true, "categories": ["Children's Clothing", "Fashion", "Shopping"], "city": "Karlsruhe", "review_count": 3, "name": "Coloretti Kinder- und Schwangerschaftsmode", "neighborhoods": [], "longitude": 8.393843, "state": "BW", "stars": 4.5, "latitude": 49.0067498, "attributes": {"Parking": {"garage": false, "validated": false, "street": false, "lot": false, "valet": false}, "Accepts Credit Cards": true, "Wheelchair Accessible": true, "Price Range": 2}, "type": "business"}
{"business_id": "92bAvTJN_wKOUwygwAAlQw", "full_address": "Akademiestra\u00dfe 9-11\n76133 Karlsruhe", "hours": {}, "open": true, "categories": ["Children's Clothing", "Fashion", "Shopping"], "city": "Karlsruhe", "review_count": 3, "name": "Rasselfisch", "neighborhoods": [], "longitude": 8.39799, "state": "BW", "stars": 3.5, "latitude": 49.0118, "attributes": {"Parking": {"garage": false, "street": false, "validated": false, "lot": false, "valet": false}, "Accepts Credit Cards": true, "Price Range": 3}, "type": "business"}
{"business_id": "V8oiNG50dqpSlWdencpHqw", "full_address": "Karlstra\u00dfe 25\n76133 Karlsruhe", "hours": {"Monday": {"close": "18:00", "open": "10:00"}, "Tuesday": {"close": "18:00", "open": "10:00"}, "Friday": {"close": "19:00", "open": "10:00"}, "Wednesday": {"close": "18:00", "open": "10:00"}, "Thursday": {"close": "19:00", "open": "10:00"}, "Saturday": {"close": "17:00", "open": "10:30"}}, "open": true, "categories": ["Children's Clothing", "Fashion", "Shopping"], "city": "Karlsruhe", "review_count": 4, "name": "Hergard Kindermoden", "neighborhoods": [], "longitude": 8.3951634, "state": "BW", "stars": 3.5, "latitude": 49.0081634, "attributes": {"Parking": {"garage": false, "validated": false, "street": false, "lot": false, "valet": false}, "Wheelchair Accessible": false, "Price Range": 4}, "type": "business"}
{"business_id": "BGZHzaRaOuxbBPAKxmnkZw", "full_address": "Karlstra\u00dfe 82\n76137 Karlsruhe", "hours": {"Monday": {"close": "18:30", "open": "08:30"}, "Tuesday": {"close": "18:30", "open": "08:30"}, "Friday": {"close": "18:30", "open": "08:30"}, "Wednesday": {"close": "18:30", "open": "08:30"}, "Thursday": {"close": "18:30", "open": "08:30"}, "Saturday": {"close": "13:30", "open": "09:30"}}, "open": true, "categories": ["Children's Clothing", "Fashion", "Shopping", "Appliances & Repair", "Home & Garden", "Local Services", "Kitchen & Bath", "Toy Stores"], "city": "Karlsruhe", "review_count": 3, "name": "atelier B:", "neighborhoods": [], "longitude": 8.39402, "state": "BW", "stars": 4.5, "latitude": 49.0009, "attributes": {}, "type": "business"}
{"business_id": "A7Zrif-apG0Lt6ml1bXSsg", "full_address": "Eggensteiner Stra\u00dfe 52\n76297 Stutensee", "hours": {}, "open": true, "categories": ["Children's Clothing", "Fashion", "Shopping", "Mattresses", "Home & Garden", "Furniture Stores"], "city": "Stutensee", "review_count": 4, "name": "Naturversand Kirschke", "neighborhoods": [], "longitude": 8.4665991, "state": "BW", "stars": 3.5, "latitude": 49.0655226, "attributes": {}, "type": "business"}
{"business_id": "V2sfga9fwgmwpFELSWrQCw", "full_address": "Bahnhofstr. 5\n76356 Weingarten", "hours": {}, "open": true, "categories": ["Children's Clothing", "Fashion", "Shopping", "Food", "Chocolatiers & Shops", "Specialty Food"], "city": "Weingarten", "review_count": 4, "name": "La Casetta del Caff\u00e9", "neighborhoods": [], "longitude": 8.53132, "state": "BW", "stars": 4.0, "latitude": 49.0515, "attributes": {"Parking": {"garage": false, "validated": false, "street": false, "lot": false, "valet": false}, "Price Range": 1}, "type": "business"}
{"business_id": "fPZ9g2t2HTLRh5aL8BBIAw", "full_address": "Lammstra\u00dfe 7a\nRathauspassage\n76133 Karlsruhe", "hours": {"Monday": {"close": "19:00", "open": "10:00"}, "Tuesday": {"close": "19:00", "open": "10:00"}, "Friday": {"close": "19:00", "open": "10:00"}, "Wednesday": {"close": "19:00", "open": "10:00"}, "Thursday": {"close": "19:00", "open": "10:00"}, "Saturday": {"close": "18:00", "open": "10:00"}}, "open": true, "categories": ["Children's Clothing", "Fashion", "Shopping"], "city": "Karlsruhe", "review_count": 3, "name": "Coloretti Kinder- und Schwangerschaftsmode", "neighborhoods": [], "longitude": 8.393843, "state": "BW", "stars": 4.5, "latitude": 49.0067498, "attributes": {"Parking": {"garage": false, "validated": false, "street": false, "lot": false, "valet": false}, "Accepts Credit Cards": true, "Wheelchair Accessible": true, "Price Range": 2}, "type": "business"}
{"business_id": "92bAvTJN_wKOUwygwAAlQw", "full_address": "Akademiestra\u00dfe 9-11\n76133 Karlsruhe", "hours": {}, "open": true, "categories": ["Children's Clothing", "Fashion", "Shopping"], "city": "Karlsruhe", "review_count": 3, "name": "Rasselfisch", "neighborhoods": [], "longitude": 8.39799, "state": "BW", "stars": 3.5, "latitude": 49.0118, "attributes": {"Parking": {"garage": false, "street": false, "validated": false, "lot": false, "valet": false}, "Accepts Credit Cards": true, "Price Range": 3}, "type": "business"}
{"business_id": "V8oiNG50dqpSlWdencpHqw", "full_address": "Karlstra\u00dfe 25\n76133 Karlsruhe", "hours": {"Monday": {"close": "18:00", "open": "10:00"}, "Tuesday": {"close": "18:00", "open": "10:00"}, "Friday": {"close": "19:00", "open": "10:00"}, "Wednesday": {"close": "18:00", "open": "10:00"}, "Thursday": {"close": "19:00", "open": "10:00"}, "Saturday": {"close": "17:00", "open": "10:30"}}, "open": true, "categories": ["Children's Clothing", "Fashion", "Shopping"], "city": "Karlsruhe", "review_count": 4, "name": "Hergard Kindermoden", "neighborhoods": [], "longitude": 8.3951634, "state": "BW", "stars": 3.5, "latitude": 49.0081634, "attributes": {"Parking": {"garage": false, "validated": false, "street": false, "lot": false, "valet": false}, "Wheelchair Accessible": false, "Price Range": 4}, "type": "business"}
{"business_id": "BGZHzaRaOuxbBPAKxmnkZw", "full_address": "Karlstra\u00dfe 82\n76137 Karlsruhe", "hours": {"Monday": {"close": "18:30", "open": "08:30"}, "Tuesday": {"close": "18:30", "open": "08:30"}, "Friday": {"close": "18:30", "open": "08:30"}, "Wednesday": {"close": "18:30", "open": "08:30"}, "Thursday": {"close": "18:30", "open": "08:30"}, "Saturday": {"close": "13:30", "open": "09:30"}}, "open": true, "categories": ["Children's Clothing", "Fashion", "Shopping", "Appliances & Repair", "Home & Garden", "Local Services", "Kitchen & Bath", "Toy Stores"], "city": "Karlsruhe", "review_count": 3, "name": "atelier B:", "neighborhoods": [], "longitude": 8.39402, "state": "BW", "stars": 4.5, "latitude": 49.0009, "attributes": {}, "type": "business"}
{"business_id": "A7Zrif-apG0Lt6ml1bXSsg", "full_address": "Eggensteiner Stra\u00dfe 52\n76297 Stutensee", "hours": {}, "open": true, "categories": ["Children's Clothing", "Fashion", "Shopping", "Mattresses", "Home & Garden", "Furniture Stores"], "city": "Stutensee", "review_count": 4, "name": "Naturversand Kirschke", "neighborhoods": [], "longitude": 8.4665991, "state": "BW", "stars": 3.5, "latitude": 49.0655226, "attributes": {}, "type": "business"}
{"business_id": "V2sfga9fwgmwpFELSWrQCw", "full_address": "Bahnhofstr. 5\n76356 Weingarten", "hours": {}, "open": true, "categories": ["Children's Clothing", "Fashion", "Shopping", "Food", "Chocolatiers & Shops", "Specialty Food"], "city": "Weingarten", "review_count": 4, "name": "La Casetta del Caff\u00e9", "neighborhoods": [], "longitude": 8.53132, "state": "BW", "stars": 4.0, "latitude": 49.0515, "attributes": {"Parking": {"garage": false, "validated": false, "street": false, "lot": false, "valet": false}, "Price Range": 1}, "type": "business"}
{"business_id": "fPZ9g2t2HTLRh5aL8BBIAw", "full_address": "Lammstra\u00dfe 7a\nRathauspassage\n76133 Karlsruhe", "hours": {"Monday": {"close": "19:00", "open": "10:00"}, "Tuesday": {"close": "19:00", "open": "10:00"}, "Friday": {"close": "19:00", "open": "10:00"}, "Wednesday": {"close": "19:00", "open": "10:00"}, "Thursday": {"close": "19:00", "open": "10:00"}, "Saturday": {"close": "18:00", "open": "10:00"}}, "open": true, "categories": ["Children's Clothing", "Fashion", "Shopping"], "city": "Karlsruhe", "review_count": 3, "name": "Coloretti Kinder- und Schwangerschaftsmode", "neighborhoods": [], "longitude": 8.393843, "state": "BW", "stars": 4.5, "latitude": 49.0067498, "attributes": {"Parking": {"garage": false, "validated": false, "street": false, "lot": false, "valet": false}, "Accepts Credit Cards": true, "Wheelchair Accessible": true, "Price Range": 2}, "type": "business"}
{"business_id": "92bAvTJN_wKOUwygwAAlQw", "full_address": "Akademiestra\u00dfe 9-11\n76133 Karlsruhe", "hours": {}, "open": true, "categories": ["Children's Clothing", "Fashion", "Shopping"], "city": "Karlsruhe", "review_count": 3, "name": "Rasselfisch", "neighborhoods": [], "longitude": 8.39799, "state": "BW", "stars": 3.5, "latitude": 49.0118, "attributes": {"Parking": {"garage": false, "street": false, "validated": false, "lot": false, "valet": false}, "Accepts Credit Cards": true, "Price Range": 3}, "type": "business"}
