{"business_id": "0nrEqOgqxqV00HLjnLuRIg", "full_address": "Tullastr. 71\n76131 Karlsruhe", "hours": {}, "open": true, "categories": ["Hotels & Travel", "Public Transportation", "Transportation"], "city": "Karlsruhe", "review_count": 11, "name": "Karlsruher Verkehrsverbund KVV", "neighborhoods": [], "longitude": 8.432, "state": "BW", "stars": 3.0, "latitude": 49.00754, "attributes": {"Accepts Credit Cards": false, "Price Range": 3}, "type": "business"}
{"business_id": "4lMdi_QR1JZ1PqEWVWQ0oA", "full_address": "Rintheimer Querallee 6\n76131 Karlsruhe", "hours": {}, "open": true, "categories": ["Hotels & Travel", "Transportation"], "city": "Karlsruhe", "review_count": 3, "name": "DFS Deutsche Flugsicherung", "neighborhoods": [], "longitude": 8.42705, "state": "BW", "stars": 3.0, "latitude": 49.02429, "attributes": {"Price Range": 3}, "type": "business"}
{"business_id": "7sXsHuRzSFWoo6ajkk-ZsA", "full_address": "Kriegsstr.\n76133 Karlsruhe", "hours": {}, "open": true, "categories": ["Hotels & Travel", "Public Transportation", "Transportation"], "city": "Karlsruhe", "review_count": 5, "name": "K-Punkt Kombil\u00f6sung Infopavillon", "neighborhoods": [], "longitude": 8.40442836284637, "state": "BW", "stars": 1.5, "latitude": 49.0050744797271, "attributes": {"Price Range": 4}, "type": "business"}
{"business_id": "o7ITdXYbYHI8cY7kKi3RqA", "full_address": "L556\nAm Ende der Stra\u00dfe\n76287 Rheinstetten", "hours": {}, "open": true, "categories": ["Hotels & Travel", "Transportation", "Ferries"], "city": "Rheinstetten", "review_count": 5, "name": "Rheinf\u00e4hre", "neighborhoods": [], "longitude": 8.25678, "state": "BW", "stars": 4.0, "latitude": 48.9773, "attributes": {"Parking": {"garage": false, "validated": false, "street": false, "lot": false, "valet": false}, "Accepts Credit Cards": false, "Price Range": 2}, "type": "business"}
{"business_id": "loHbUdrPuno1drdYgm2tdQ", "full_address": "76227 Karlsruhe", "hours": {}, "open": true, "categories": ["Hotels & Travel", "Public Transportation", "Transportation"], "city": "Karlsruhe", "review_count": 4, "name": "Turmbergbahn", "neighborhoods": [], "longitude": 8.48114, "state": "BW", "stars": 5.0, "latitude": 48.9984, "attributes": {"Parking": {"garage": false, "validated": false, "street": false, "lot": false, "valet": false}, "Wheelchair Accessible": false, "Price Range": 1}, "type": "business"}
{"business_id": "0nrEqOgqxqV00HLjnLuRIg", "full_address": "Tullastr. 71\n76131 Karlsruhe", "hours": {}, "open": true, "categories": ["Hotels & Travel", "Public Transportation", "Transportation"], "city": "Karlsruhe", "review_count": 11, "name": "Karlsruher Verkehrsverbund KVV", "neighborhoods": [], "longitude": 8.432, "state": "BW", "stars": 3.0, "latitude": 49.00754, "attributes": {"Accepts Credit Cards": false, "Price Range": 3}, "type": "business"}
{"business_id": "4lMdi_QR1JZ1PqEWVWQ0oA", "full_address": "Rintheimer Querallee 6\n76131 Karlsruhe", "hours": {}, "open": true, "categories": ["Hotels & Travel", "Transportation"], "city": "Karlsruhe", "review_count": 3, "name": "DFS Deutsche Flugsicherung", "neighborhoods": [], "longitude": 8.42705, "state": "BW", "stars": 3.0, "latitude": 49.02429, "attributes": {"Price Range": 3}, "type": "business"}
{"business_id": "7sXsHuRzSFWoo6ajkk-ZsA", "full_address": "Kriegsstr.\n76133 Karlsruhe", "hours": {}, "open": true, "categories": ["Hotels & Travel", "Public Transportation", "Transportation"], "city": "Karlsruhe", "review_count": 5, "name": "K-Punkt Kombil\u00f6sung Infopavillon", "neighborhoods": [], "longitude": 8.40442836284637, "state": "BW", "stars": 1.5, "latitude": 49.0050744797271, "attributes": {"Price Range": 4}, "type": "business"}
{"business_id": "o7ITdXYbYHI8cY7kKi3RqA", "full_address": "L556\nAm Ende der Stra\u00dfe\n76287 Rheinstetten", "hours": {}, "open": true, "categories": ["Hotels & Travel", "Transportation", "Ferries"], "city": "Rheinstetten", "review_count": 5, "name": "Rheinf\u00e4hre", "neighborhoods": [], "longitude": 8.25678, "state": "BW", "stars": 4.0, "latitude": 48.9773, "attributes": {"Parking": {"garage": false, "validated": false, "street": false, "lot": false, "valet": false}, "Accepts Credit Cards": false, "Price Range": 2}, "type": "business"}
{"business_id": "loHbUdrPuno1drdYgm2tdQ", "full_address": "76227 Karlsruhe", "hours": {}, "open": true, "categories": ["Hotels & Travel", "Public Transportation", "Transportation"], "city": "Karlsruhe", "review_count": 4, "name": "Turmbergbahn", "neighborhoods": [], "longitude": 8.48114, "state": "BW", "stars": 5.0, "latitude": 48.9984, "attributes": {"Parking": {"garage": false, "validated": false, "street": false, "lot": false, "valet": false}, "Wheelchair Accessible": false, "Price Range": 1}, "type": "business"}
{"business_id": "0nrEqOgqxqV00HLjnLuRIg", "full_address": "Tullastr. 71\n76131 Karlsruhe", "hours": {}, "open": true, "categories": ["Hotels & Travel", "Public Transportation", "Transportation"], "city": "Karlsruhe", "review_count": 11, "name": "Karlsruher Verkehrsverbund KVV", "neighborhoods": [], "longitude": 8.432, "state": "BW", "stars": 3.0, "latitude": 49.00754, "attributes": {"Accepts Credit Cards": false, "Price Range": 3}, "type": "business"}
{"business_id": "4lMdi_QR1JZ1PqEWVWQ0oA", "full_address": "Rintheimer Querallee 6\n76131 Karlsruhe", "hours": {}, "open": true, "categories": ["Hotels & Travel", "Transportation"], "city": "Karlsruhe", "review_count": 3, "name": "DFS Deutsche Flugsicherung", "neighborhoods": [], "longitude": 8.42705, "state": "BW", "stars": 3.0, "latitude": 49.02429, "attributes": {"Price Range": 3}, "type": "business"}
{"business_id": "7sXsHuRzSFWoo6ajkk-ZsA", "full_address": "Kriegsstr.\n76133 Karlsruhe", "hours": {}, "open": true, "categories": ["Hotels & Travel", "Public Transportation", "Transportation"], "city": "Karlsruhe", "review_count": 5, "name": "K-Punkt Kombil\u00f6sung Infopavillon", "neighborhoods": [], "longitude": 8.40442836284637, "state": "BW", "stars": 1.5, "latitude": 49.0050744797271, "attributes": {"Price Range": 4}, "type": "business"}
{"business_id": "o7ITdXYbYHI8cY7kKi3RqA", "full_address": "L556\nAm Ende der Stra\u00dfe\n76287 Rheinstetten", "hours": {}, "open": true, "categories": ["Hotels & Travel", "Transportation", "Ferries"], "city": "Rheinstetten", "review_count": 5, "name": "Rheinf\u00e4hre", "neighborhoods": [], "longitude": 8.25678, "state": "BW", "stars": 4.0, "latitude": 48.9773, "attributes": {"Parking": {"garage": false, "validated": false, "street": false, "lot": false, "valet": false}, "Accepts Credit Cards": false, "Price Range": 2}, "type": "business"}
{"business_id": "loHbUdrPuno1drdYgm2tdQ", "full_address": "76227 Karlsruhe", "hours": {}, "open": true, "categories": ["Hotels & Travel", "Public Transportation", "Transportation"], "city": "Karlsruhe", "review_count": 4, "name": "Turmbergbahn", "neighborhoods": [], "longitude": 8.48114, "state": "BW", "stars": 5.0, "latitude": 48.9984, "attributes": {"Parking": {"garage": false, "validated": false, "street": false, "lot": false, "valet": false}, "Wheelchair Accessible": false, "Price Range": 1}, "type": "business"}
{"business_id": "0nrEqOgqxqV00HLjnLuRIg", "full_address": "Tullastr. 71\n76131 Karlsruhe", "hours": {}, "open": true, "categories": ["Hotels & Travel", "Public Transportation", "Transportation"], "city": "Karlsruhe", "review_count": 11, "name": "Karlsruher Verkehrsverbund KVV", "neighborhoods": [], "longitude": 8.432, "state": "BW", "stars": 3.0, "latitude": 49.00754, "attributes": {"Accepts Credit Cards": false, "Price Range": 3}, "type": "business"}
{"business_id": "4lMdi_QR1JZ1PqEWVWQ0oA", "full_address": "Rintheimer Querallee 6\n76131 Karlsruhe", "hours": {}, "open": true, "categories": ["Hotels & Travel", "Transportation"], "city": "Karlsruhe", "review_count": 3, "name": "DFS Deutsche Flugsicherung", "neighborhoods": [], "longitude": 8.42705, "state": "BW", "stars": 3.0, "latitude": 49.02429, "attributes": {"Price Range": 3}, "type": "business"}
{"business_id": "7sXsHuRzSFWoo6ajkk-ZsA", "full_address": "Kriegsstr.\n76133 Karlsruhe", "hours": {}, "open": true, "categories": ["Hotels & Travel", "Public Transportation", "Transportation"], "city": "Karlsruhe", "review_count": 5, "name": "K-Punkt Kombil\u00f6sung Infopavillon", "neighborhoods": [], "longitude": 8.40442836284637, "state": "BW", "stars": 1.5, "latitude": 49.0050744797271, "attributes": {"Price Range": 4}, "type": "business"}
{"business_id": "o7ITdXYbYHI8cY7kKi3RqA", "full_address": "L556\nAm Ende der Stra\u00dfe\n76287 Rheinstetten", "hours": {}, "open": true, "categories": ["Hotels & Travel", "Transportation", "Ferries"], "city": "Rheinstetten", "review_count": 5, "name": "Rheinf\u00e4hre", "neighborhoods": [], "longitude": 8.25678, "state": "BW", "stars": 4.0, "latitude": 48.9773, "attributes": {"Parking": {"garage": false, "validated": false, "street": false, "lot": false, "valet": false}, "Accepts Credit Cards": false, "Price Range": 2}, "type": "business"}
{"business_id": "loHbUdrPuno1drdYgm2tdQ", "full_address": "76227 Karlsruhe", "hours": {}, "open": true, "categories": ["Hotels & Travel", "Public Transportation", "Transportation"], "city": "Karlsruhe", "review_count": 4, "name": "Turmbergbahn", "neighborhoods": [], "longitude": 8.48114, "state": "BW", "stars": 5.0, "latitude": 48.9984, "attributes": {"Parking": {"garage": false, "validated": false, "street": false, "lot": false, "valet": false}, "Wheelchair Accessible": false, "Price Range": 1}, "type": "business"}
{"business_id": "0nrEqOgqxqV00HLjnLuRIg", "full_address": "Tullastr. 71\n76131 Karlsruhe", "hours": {}, "open": true, "categories": ["Hotels & Travel", "Public Transportation", "Transportation"], "city": "Karlsruhe", "review_count": 11, "name": "Karlsruher Verkehrsverbund KVV", "neighborhoods": [], "longitude": 8.432, "state": "BW", "stars": 3.0, "latitude": 49.00754, "attributes": {"Accepts Credit Cards": false, "Price Range": 3}, "type": "business"}
{"business_id": "4lMdi_QR1JZ1PqEWVWQ0oA", "full_address": "Rintheimer Querallee 6\n76131 Karlsruhe", "hours": {}, "open": true, "categories": ["Hotels & Travel", "Transportation"], "city": "Karlsruhe", "review_count": 3, "name": "DFS Deutsche Flugsicherung", "neighborhoods": [], "longitude": 8.42705, "state": "BW", "stars": 3.0, "latitude": 49.02429, "attributes": {"Price Range": 3}, "type": "business"}
{"business_id": "7sXsHuRzSFWoo6ajkk-ZsA", "full_address": "Kriegsstr.\n76133 Karlsruhe", "hours": {}, "open": true, "categories": ["Hotels & Travel", "Public Transportation", "Transportation"], "city": "Karlsruhe", "review_count": 5, "name": "K-Punkt Kombil\u00f6sung Infopavillon", "neighborhoods": [], "longitude": 8.40442836284637, "state": "BW", "stars": 1.5, "latitude": 49.0050744797271, "attributes": {"Price Range": 4}, "type": "business"}
{"business_id": "o7ITdXYbYHI8cY7kKi3RqA", "full_address": "L556\nAm Ende der Stra\u00dfe\n76287 Rheinstetten", "hours": {}, "open": true, "categories": ["Hotels & Travel", "Transportation", "Ferries"], "city": "Rheinstetten", "review_count": 5, "name": "Rheinf\u00e4hre", "neighborhoods": [], "longitude": 8.25678, "state": "BW", "stars": 4.0, "latitude": 48.9773, "attributes": {"Parking": {"garage": false, "validated": false, "street": false, "lot": false, "valet": false}, "Accepts Credit Cards": false, "Price Range": 2}, "type": "business"}
{"business_id": "loHbUdrPuno1drdYgm2tdQ", "full_address": "76227 Karlsruhe", "hours": {}, "open": true, "categories": ["Hotels & Travel", "Public Transportation", "Transportation"], "city": "Karlsruhe", "review_count": 4, "name": "Turmbergbahn", "neighborhoods": [], "longitude": 8.48114, "state": "BW", "stars": 5.0, "latitude": 48.9984, "attributes": {"Parking": {"garage": false, "validated": false, "street": false, "lot": false, "valet": false}, "Wheelchair Accessible": false, "Price Range": 1}, "type": "business"}
{"business_id": "0nrEqOgqxqV00HLjnLuRIg", "full_address": "Tullastr. 71\n76131 Karlsruhe", "hours": {}, "open": true, "categories": ["Hotels & Travel", "Public Transportation", "Transportation"], "city": "Karlsruhe", "review_count": 11, "name": "Karlsruher Verkehrsverbund KVV", "neighborhoods": [], "longitude": 8.432, "state": "BW", "stars": 3.0, "latitude": 49.00754, "attributes": {"Accepts Credit Cards": false, "Price Range": 3}, "type": "business"}
{"business_id": "4lMdi_QR1JZ1PqEWVWQ0oA", "full_address": "Rintheimer Querallee 6\n76131 Karlsruhe", "hours": {}, "open": true, "categories": ["Hotels & Travel", "Transportation"], "city": "Karlsruhe", "review_count": 3, "name": "DFS Deutsche Flugsicherung", "neighborhoods": [], "longitude": 8.42705, "state": "BW", "stars": 3.0, "latitude": 49.02429, "attributes": {"Price Range": 3}, "type": "business"}
{"business_id": "7sXsHuRzSFWoo6ajkk-ZsA", "full_address": "Kriegsstr.\n76133 Karlsruhe", "hours": {}, "open": true, "categories": ["Hotels & Travel", "Public Transportation", "Transportation"], "city": "Karlsruhe", "review_count": 5, "name": "K-Punkt Kombil\u00f6sung Infopavillon", "neighborhoods": [], "longitude": 8.40442836284637, "state": "BW", "stars": 1.5, "latitude": 49.0050744797271, "attributes": {"Price Range": 4}, "type": "business"}
{"business_id": "o7ITdXYbYHI8cY7kKi3RqA", "full_address": "L556\nAm Ende der Stra\u00dfe\n76287 Rheinstetten", "hours": {}, "open": true, "categories": ["Hotels & Travel", "Transportation", "Ferries"], "city": "Rheinstetten", "review_count": 5, "name": "Rheinf\u00e4hre", "neighborhoods": [], "longitude": 8.25678, "state": "BW", "stars": 4.0, "latitude": 48.9773, "attributes": {"Parking": {"garage": false, "validated": false, "street": false, "lot": false, "valet": false}, "Accepts Credit Cards": false, "Price Range": 2}, "type": "business"}
{"business_id": "loHbUdrPuno1drdYgm2tdQ", "full_address": "76227 Karlsruhe", "hours": {}, "open": true, "categories": ["Hotels & Travel", "Public Transportation", "Transportation"], "city": "Karlsruhe", "review_count": 4, "name": "Turmbergbahn", "neighborhoods": [], "longitude": 8.48114, "state": "BW", "stars": 5.0, "latitude": 48.9984, "attributes": {"Parking": {"garage": false, "validated": false, "street": false, "lot": false, "valet": false}, "Wheelchair Accessible": false, "Price Range": 1}, "type": "business"}
