{"business_id": "frvS-8am51BA9b4G1cbX9Q", "full_address": "Ritterstr. 5\n76133 Karlsruhe", "hours": {}, "open": false, "categories": ["Shopping", "Toy Stores"], "city": "Karlsruhe", "review_count": 4, "name": "Doering Spielwaren GmbH", "neighborhoods": [], "longitude": 8.40115, "state": "BW", "stars": 4.5, "latitude": 49.0092, "attributes": {"Parking": {"garage": false, "validated": false, "street": false, "lot": false, "valet": false}, "Accepts Credit Cards": true, "Wheelchair Accessible": true, "Price Range": 2}, "type": "business"}
{"business_id": "BGZHzaRaOuxbBPAKxmnkZw", "full_address": "Karlstra\u00dfe 82\n76137 Karlsruhe", "hours": {"Monday": {"close": "18:30", "open": "08:30"}, "Tuesday": {"close": "18:30", "open": "08:30"}, "Friday": {"close": "18:30", "open": "08:30"}, "Wednesday": {"close": "18:30", "open": "08:30"}, "Thursday": {"close": "18:30", "open": "08:30"}, "Saturday": {"close": "13:30", "open": "09:30"}}, "open": true, "categories": ["Children's Clothing", "Fashion", "Shopping", "Appliances & Repair", "Home & Garden", "Local Services", "Kitchen & Bath", "Toy Stores"], "city": "Karlsruhe", "review_count": 3, "name": "atelier B:", "neighborhoods": [], "longitude": 8.39402, "state": "BW", "stars": 4.5, "latitude": 49.0009, "attributes": {}, "type": "business"}
{"business_id": "IoqDDDjJNLBD0IW9AYbYnA", "full_address": "Erbprinzenstra\u00dfe 28\n76133 Karlsruhe", "hours": {"Monday": {"close": "18:30", "open": "10:00"}, "Tuesday": {"close": "18:30", "open": "10:00"}, "Friday": {"close": "18:30", "open": "10:00"}, "Wednesday": {"close": "18:30", "open": "10:00"}, "Thursday": {"close": "18:30", "open": "10:00"}, "Saturday": {"close": "18:00", "open": "10:00"}}, "open": true, "categories": ["Shopping", "Toy Stores"], "city": "Karlsruhe", "review_count": 4, "name": "Kindergl\u00fcck", "neighborhoods": [], "longitude": 8.3972025, "state": "BW", "stars": 4.0, "latitude": 49.0089945, "attributes": {"Accepts Credit Cards": true, "Wheelchair Accessible": true, "Price Range": 2}, "type": "business"}
{"business_id": "emjlzT7V_g-k80oyJqSnXA", "full_address": "Industriestr. 17\n76287 Rheinstetten", "hours": {}, "open": true, "categories": ["Shopping", "Toy Stores"], "city": "Rheinstetten", "review_count": 4, "name": "Rofu Kinderland Spielwarenhandelsges. mbH", "neighborhoods": [], "longitude": 8.30283, "state": "BW", "stars": 4.5, "latitude": 48.9606, "attributes": {"Accepts Credit Cards": true, "Wheelchair Accessible": true, "Price Range": 3}, "type": "business"}
{"business_id": "frvS-8am51BA9b4G1cbX9Q", "full_address": "Ritterstr. 5\n76133 Karlsruhe", "hours": {}, "open": false, "categories": ["Shopping", "Toy Stores"], "city": "Karlsruhe", "review_count": 4, "name": "Doering Spielwaren GmbH", "neighborhoods": [], "longitude": 8.40115, "state": "BW", "stars": 4.5, "latitude": 49.0092, "attributes": {"Parking": {"garage": false, "validated": false, "street": false, "lot": false, "valet": false}, "Accepts Credit Cards": true, "Wheelchair Accessible": true, "Price Range": 2}, "type": "business"}
{"business_id": "BGZHzaRaOuxbBPAKxmnkZw", "full_address": "Karlstra\u00dfe 82\n76137 Karlsruhe", "hours": {"Monday": {"close": "18:30", "open": "08:30"}, "Tuesday": {"close": "18:30", "open": "08:30"}, "Friday": {"close": "18:30", "open": "08:30"}, "Wednesday": {"close": "18:30", "open": "08:30"}, "Thursday": {"close": "18:30", "open": "08:30"}, "Saturday": {"close": "13:30", "open": "09:30"}}, "open": true, "categories": ["Children's Clothing", "Fashion", "Shopping", "Appliances & Repair", "Home & Garden", "Local Services", "Kitchen & Bath", "Toy Stores"], "city": "Karlsruhe", "review_count": 3, "name": "atelier B:", "neighborhoods": [], "longitude": 8.39402, "state": "BW", "stars": 4.5, "latitude": 49.0009, "attributes": {}, "type": "business"}
{"business_id": "IoqDDDjJNLBD0IW9AYbYnA", "full_address": "Erbprinzenstra\u00dfe 28\n76133 Karlsruhe", "hours": {"Monday": {"close": "18:30", "open": "10:00"}, "Tuesday": {"close": "18:30", "open": "10:00"}, "Friday": {"close": "18:30", "open": "10:00"}, "Wednesday": {"close": "18:30", "open": "10:00"}, "Thursday": {"close": "18:30", "open": "10:00"}, "Saturday": {"close": "18:00", "open": "10:00"}}, "open": true, "categories": ["Shopping", "Toy Stores"], "city": "Karlsruhe", "review_count": 4, "name": "Kindergl\u00fcck", "neighborhoods": [], "longitude": 8.3972025, "state": "BW", "stars": 4.0, "latitude": 49.0089945, "attributes": {"Accepts Credit Cards": true, "Wheelchair Accessible": true, "Price Range": 2}, "type": "business"}
{"business_id": "emjlzT7V_g-k80oyJqSnXA", "full_address": "Industriestr. 17\n76287 Rheinstetten", "hours": {}, "open": true, "categories": ["Shopping", "Toy Stores"], "city": "Rheinstetten", "review_count": 4, "name": "Rofu Kinderland Spielwarenhandelsges. mbH", "neighborhoods": [], "longitude": 8.30283, "state": "BW", "stars": 4.5, "latitude": 48.9606, "attributes": {"Accepts Credit Cards": true, "Wheelchair Accessible": true, "Price Range": 3}, "type": "business"}
{"business_id": "frvS-8am51BA9b4G1cbX9Q", "full_address": "Ritterstr. 5\n76133 Karlsruhe", "hours": {}, "open": false, "categories": ["Shopping", "Toy Stores"], "city": "Karlsruhe", "review_count": 4, "name": "Doering Spielwaren GmbH", "neighborhoods": [], "longitude": 8.40115, "state": "BW", "stars": 4.5, "latitude": 49.0092, "attributes": {"Parking": {"garage": false, "validated": false, "street": false, "lot": false, "valet": false}, "Accepts Credit Cards": true, "Wheelchair Accessible": true, "Price Range": 2}, "type": "business"}
{"business_id": "BGZHzaRaOuxbBPAKxmnkZw", "full_address": "Karlstra\u00dfe 82\n76137 Karlsruhe", "hours": {"Monday": {"close": "18:30", "open": "08:30"}, "Tuesday": {"close": "18:30", "open": "08:30"}, "Friday": {"close": "18:30", "open": "08:30"}, "Wednesday": {"close": "18:30", "open": "08:30"}, "Thursday": {"close": "18:30", "open": "08:30"}, "Saturday": {"close": "13:30", "open": "09:30"}}, "open": true, "categories": ["Children's Clothing", "Fashion", "Shopping", "Appliances & Repair", "Home & Garden", "Local Services", "Kitchen & Bath", "Toy Stores"], "city": "Karlsruhe", "review_count": 3, "name": "atelier B:", "neighborhoods": [], "longitude": 8.39402, "state": "BW", "stars": 4.5, "latitude": 49.0009, "attributes": {}, "type": "business"}
{"business_id": "IoqDDDjJNLBD0IW9AYbYnA", "full_address": "Erbprinzenstra\u00dfe 28\n76133 Karlsruhe", "hours": {"Monday": {"close": "18:30", "open": "10:00"}, "Tuesday": {"close": "18:30", "open": "10:00"}, "Friday": {"close": "18:30", "open": "10:00"}, "Wednesday": {"close": "18:30", "open": "10:00"}, "Thursday": {"close": "18:30", "open": "10:00"}, "Saturday": {"close": "18:00", "open": "10:00"}}, "open": true, "categories": ["Shopping", "Toy Stores"], "city": "Karlsruhe", "review_count": 4, "name": "Kindergl\u00fcck", "neighborhoods": [], "longitude": 8.3972025, "state": "BW", "stars": 4.0, "latitude": 49.0089945, "attributes": {"Accepts Credit Cards": true, "Wheelchair Accessible": true, "Price Range": 2}, "type": "business"}
{"business_id": "emjlzT7V_g-k80oyJqSnXA", "full_address": "Industriestr. 17\n76287 Rheinstetten", "hours": {}, "open": true, "categories": ["Shopping", "Toy Stores"], "city": "Rheinstetten", "review_count": 4, "name": "Rofu Kinderland Spielwarenhandelsges. mbH", "neighborhoods": [], "longitude": 8.30283, "state": "BW", "stars": 4.5, "latitude": 48.9606, "attributes": {"Accepts Credit Cards": true, "Wheelchair Accessible": true, "Price Range": 3}, "type": "business"}
{"business_id": "frvS-8am51BA9b4G1cbX9Q", "full_address": "Ritterstr. 5\n76133 Karlsruhe", "hours": {}, "open": false, "categories": ["Shopping", "Toy Stores"], "city": "Karlsruhe", "review_count": 4, "name": "Doering Spielwaren GmbH", "neighborhoods": [], "longitude": 8.40115, "state": "BW", "stars": 4.5, "latitude": 49.0092, "attributes": {"Parking": {"garage": false, "validated": false, "street": false, "lot": false, "valet": false}, "Accepts Credit Cards": true, "Wheelchair Accessible": true, "Price Range": 2}, "type": "business"}
{"business_id": "BGZHzaRaOuxbBPAKxmnkZw", "full_address": "Karlstra\u00dfe 82\n76137 Karlsruhe", "hours": {"Monday": {"close": "18:30", "open": "08:30"}, "Tuesday": {"close": "18:30", "open": "08:30"}, "Friday": {"close": "18:30", "open": "08:30"}, "Wednesday": {"close": "18:30", "open": "08:30"}, "Thursday": {"close": "18:30", "open": "08:30"}, "Saturday": {"close": "13:30", "open": "09:30"}}, "open": true, "categories": ["Children's Clothing", "Fashion", "Shopping", "Appliances & Repair", "Home & Garden", "Local Services", "Kitchen & Bath", "Toy Stores"], "city": "Karlsruhe", "review_count": 3, "name": "atelier B:", "neighborhoods": [], "longitude": 8.39402, "state": "BW", "stars": 4.5, "latitude": 49.0009, "attributes": {}, "type": "business"}
{"business_id": "IoqDDDjJNLBD0IW9AYbYnA", "full_address": "Erbprinzenstra\u00dfe 28\n76133 Karlsruhe", "hours": {"Monday": {"close": "18:30", "open": "10:00"}, "Tuesday": {"close": "18:30", "open": "10:00"}, "Friday": {"close": "18:30", "open": "10:00"}, "Wednesday": {"close": "18:30", "open": "10:00"}, "Thursday": {"close": "18:30", "open": "10:00"}, "Saturday": {"close": "18:00", "open": "10:00"}}, "open": true, "categories": ["Shopping", "Toy Stores"], "city": "Karlsruhe", "review_count": 4, "name": "Kindergl\u00fcck", "neighborhoods": [], "longitude": 8.3972025, "state": "BW", "stars": 4.0, "latitude": 49.0089945, "attributes": {"Accepts Credit Cards": true, "Wheelchair Accessible": true, "Price Range": 2}, "type": "business"}
{"business_id": "emjlzT7V_g-k80oyJqSnXA", "full_address": "Industriestr. 17\n76287 Rheinstetten", "hours": {}, "open": true, "categories": ["Shopping", "Toy Stores"], "city": "Rheinstetten", "review_count": 4, "name": "Rofu Kinderland Spielwarenhandelsges. mbH", "neighborhoods": [], "longitude": 8.30283, "state": "BW", "stars": 4.5, "latitude": 48.9606, "attributes": {"Accepts Credit Cards": true, "Wheelchair Accessible": true, "Price Range": 3}, "type": "business"}
{"business_id": "frvS-8am51BA9b4G1cbX9Q", "full_address": "Ritterstr. 5\n76133 Karlsruhe", "hours": {}, "open": false, "categories": ["Shopping", "Toy Stores"], "city": "Karlsruhe", "review_count": 4, "name": "Doering Spielwaren GmbH", "neighborhoods": [], "longitude": 8.40115, "state": "BW", "stars": 4.5, "latitude": 49.0092, "attributes": {"Parking": {"garage": false, "validated": false, "street": false, "lot": false, "valet": false}, "Accepts Credit Cards": true, "Wheelchair Accessible": true, "Price Range": 2}, "type": "business"}
{"business_id": "BGZHzaRaOuxbBPAKxmnkZw", "full_address": "Karlstra\u00dfe 82\n76137 Karlsruhe", "hours": {"Monday": {"close": "18:30", "open": "08:30"}, "Tuesday": {"close": "18:30", "open": "08:30"}, "Friday": {"close": "18:30", "open": "08:30"}, "Wednesday": {"close": "18:30", "open": "08:30"}, "Thursday": {"close": "18:30", "open": "08:30"}, "Saturday": {"close": "13:30", "open": "09:30"}}, "open": true, "categories": ["Children's Clothing", "Fashion", "Shopping", "Appliances & Repair", "Home & Garden", "Local Services", "Kitchen & Bath", "Toy Stores"], "city": "Karlsruhe", "review_count": 3, "name": "atelier B:", "neighborhoods": [], "longitude": 8.39402, "state": "BW", "stars": 4.5, "latitude": 49.0009, "attributes": {}, "type": "business"}
{"business_id": "IoqDDDjJNLBD0IW9AYbYnA", "full_address": "Erbprinzenstra\u00dfe 28\n76133 Karlsruhe", "hours": {"Monday": {"close": "18:30", "open": "10:00"}, "Tuesday": {"close": "18:30", "open": "10:00"}, "Friday": {"close": "18:30", "open": "10:00"}, "Wednesday": {"close": "18:30", "open": "10:00"}, "Thursday": {"close": "18:30", "open": "10:00"}, "Saturday": {"close": "18:00", "open": "10:00"}}, "open": true, "categories": ["Shopping", "Toy Stores"], "city": "Karlsruhe", "review_count": 4, "name": "Kindergl\u00fcck", "neighborhoods": [], "longitude": 8.3972025, "state": "BW", "stars": 4.0, "latitude": 49.0089945, "attributes": {"Accepts Credit Cards": true, "Wheelchair Accessible": true, "Price Range": 2}, "type": "business"}
{"business_id": "emjlzT7V_g-k80oyJqSnXA", "full_address": "Industriestr. 17\n76287 Rheinstetten", "hours": {}, "open": true, "categories": ["Shopping", "Toy Stores"], "city": "Rheinstetten", "review_count": 4, "name": "Rofu Kinderland Spielwarenhandelsges. mbH", "neighborhoods": [], "longitude": 8.30283, "state": "BW", "stars": 4.5, "latitude": 48.9606, "attributes": {"Accepts Credit Cards": true, "Wheelchair Accessible": true, "Price Range": 3}, "type": "business"}
{"business_id": "frvS-8am51BA9b4G1cbX9Q", "full_address": "Ritterstr. 5\n76133 Karlsruhe", "hours": {}, "open": false, "categories": ["Shopping", "Toy Stores"], "city": "Karlsruhe", "review_count": 4, "name": "Doering Spielwaren GmbH", "neighborhoods": [], "longitude": 8.40115, "state": "BW", "stars": 4.5, "latitude": 49.0092, "attributes": {"Parking": {"garage": false, "validated": false, "street": false, "lot": false, "valet": false}, "Accepts Credit Cards": true, "Wheelchair Accessible": true, "Price Range": 2}, "type": "business"}
{"business_id": "BGZHzaRaOuxbBPAKxmnkZw", "full_address": "Karlstra\u00dfe 82\n76137 Karlsruhe", "hours": {"Monday": {"close": "18:30", "open": "08:30"}, "Tuesday": {"close": "18:30", "open": "08:30"}, "Friday": {"close": "18:30", "open": "08:30"}, "Wednesday": {"close": "18:30", "open": "08:30"}, "Thursday": {"close": "18:30", "open": "08:30"}, "Saturday": {"close": "13:30", "open": "09:30"}}, "open": true, "categories": ["Children's Clothing", "Fashion", "Shopping", "Appliances & Repair", "Home & Garden", "Local Services", "Kitchen & Bath", "Toy Stores"], "city": "Karlsruhe", "review_count": 3, "name": "atelier B:", "neighborhoods": [], "longitude": 8.39402, "state": "BW", "stars": 4.5, "latitude": 49.0009, "attributes": {}, "type": "business"}
{"business_id": "IoqDDDjJNLBD0IW9AYbYnA", "full_address": "Erbprinzenstra\u00dfe 28\n76133 Karlsruhe", "hours": {"Monday": {"close": "18:30", "open": "10:00"}, "Tuesday": {"close": "18:30", "open": "10:00"}, "Friday": {"close": "18:30", "open": "10:00"}, "Wednesday": {"close": "18:30", "open": "10:00"}, "Thursday": {"close": "18:30", "open": "10:00"}, "Saturday": {"close": "18:00", "open": "10:00"}}, "open": true, "categories": ["Shopping", "Toy Stores"], "city": "Karlsruhe", "review_count": 4, "name": "Kindergl\u00fcck", "neighborhoods": [], "longitude": 8.3972025, "state": "BW", "stars": 4.0, "latitude": 49.0089945, "attributes": {"Accepts Credit Cards": true, "Wheelchair Accessible": true, "Price Range": 2}, "type": "business"}
{"business_id": "emjlzT7V_g-k80oyJqSnXA", "full_address": "Industriestr. 17\n76287 Rheinstetten", "hours": {}, "open": true, "categories": ["Shopping", "Toy Stores"], "city": "Rheinstetten", "review_count": 4, "name": "Rofu Kinderland Spielwarenhandelsges. mbH", "neighborhoods": [], "longitude": 8.30283, "state": "BW", "stars": 4.5, "latitude": 48.9606, "attributes": {"Accepts Credit Cards": true, "Wheelchair Accessible": true, "Price Range": 3}, "type": "business"}
