{"business_id": "lZdaEd0x4nCPtOgkBeKDFA", "full_address": "Ferdinand-Porsche-Stra\u00dfe 7\n76275 Ettlingen", "hours": {}, "open": true, "categories": ["Professional Services", "Matchmakers", "Home Services", "Internet Service Providers"], "city": "Ettlingen", "review_count": 3, "name": "Knuddels - knuddels.de", "neighborhoods": [], "longitude": 8.38447, "state": "BW", "stars": 1.5, "latitude": 48.93762, "attributes": {}, "type": "business"}
{"business_id": "rKLqywVES-dgjQ08mnqIGA", "full_address": "Kaiserstr. 88\n76133 Karlsruhe", "hours": {"Monday": {"close": "18:00", "open": "10:00"}, "Tuesday": {"close": "18:00", "open": "10:00"}, "Friday": {"close": "18:00", "open": "10:00"}, "Wednesday": {"close": "18:00", "open": "10:00"}, "Thursday": {"close": "18:00", "open": "10:00"}, "Saturday": {"close": "18:00", "open": "10:00"}}, "open": true, "categories": ["Professional Services", "Home Services", "Shopping", "Mobile Phones", "Internet Service Providers"], "city": "Karlsruhe", "review_count": 4, "name": "Telekom Shop", "neighborhoods": [], "longitude": 8.40201, "state": "BW", "stars": 2.5, "latitude": 49.0098, "attributes": {"Price Range": 2}, "type": "business"}
{"business_id": "lZdaEd0x4nCPtOgkBeKDFA", "full_address": "Ferdinand-Porsche-Stra\u00dfe 7\n76275 Ettlingen", "hours": {}, "open": true, "categories": ["Professional Services", "Matchmakers", "Home Services", "Internet Service Providers"], "city": "Ettlingen", "review_count": 3, "name": "Knuddels - knuddels.de", "neighborhoods": [], "longitude": 8.38447, "state": "BW", "stars": 1.5, "latitude": 48.93762, "attributes": {}, "type": "business"}
{"business_id": "rKLqywVES-dgjQ08mnqIGA", "full_address": "Kaiserstr. 88\n76133 Karlsruhe", "hours": {"Monday": {"close": "18:00", "open": "10:00"}, "Tuesday": {"close": "18:00", "open": "10:00"}, "Friday": {"close": "18:00", "open": "10:00"}, "Wednesday": {"close": "18:00", "open": "10:00"}, "Thursday": {"close": "18:00", "open": "10:00"}, "Saturday": {"close": "18:00", "open": "10:00"}}, "open": true, "categories": ["Professional Services", "Home Services", "Shopping", "Mobile Phones", "Internet Service Providers"], "city": "Karlsruhe", "review_count": 4, "name": "Telekom Shop", "neighborhoods": [], "longitude": 8.40201, "state": "BW", "stars": 2.5, "latitude": 49.0098, "attributes": {"Price Range": 2}, "type": "business"}
{"business_id": "lZdaEd0x4nCPtOgkBeKDFA", "full_address": "Ferdinand-Porsche-Stra\u00dfe 7\n76275 Ettlingen", "hours": {}, "open": true, "categories": ["Professional Services", "Matchmakers", "Home Services", "Internet Service Providers"], "city": "Ettlingen", "review_count": 3, "name": "Knuddels - knuddels.de", "neighborhoods": [], "longitude": 8.38447, "state": "BW", "stars": 1.5, "latitude": 48.93762, "attributes": {}, "type": "business"}
{"business_id": "rKLqywVES-dgjQ08mnqIGA", "full_address": "Kaiserstr. 88\n76133 Karlsruhe", "hours": {"Monday": {"close": "18:00", "open": "10:00"}, "Tuesday": {"close": "18:00", "open": "10:00"}, "Friday": {"close": "18:00", "open": "10:00"}, "Wednesday": {"close": "18:00", "open": "10:00"}, "Thursday": {"close": "18:00", "open": "10:00"}, "Saturday": {"close": "18:00", "open": "10:00"}}, "open": true, "categories": ["Professional Services", "Home Services", "Shopping", "Mobile Phones", "Internet Service Providers"], "city": "Karlsruhe", "review_count": 4, "name": "Telekom Shop", "neighborhoods": [], "longitude": 8.40201, "state": "BW", "stars": 2.5, "latitude": 49.0098, "attributes": {"Price Range": 2}, "type": "business"}
{"business_id": "lZdaEd0x4nCPtOgkBeKDFA", "full_address": "Ferdinand-Porsche-Stra\u00dfe 7\n76275 Ettlingen", "hours": {}, "open": true, "categories": ["Professional Services", "Matchmakers", "Home Services", "Internet Service Providers"], "city": "Ettlingen", "review_count": 3, "name": "Knuddels - knuddels.de", "neighborhoods": [], "longitude": 8.38447, "state": "BW", "stars": 1.5, "latitude": 48.93762, "attributes": {}, "type": "business"}
{"business_id": "rKLqywVES-dgjQ08mnqIGA", "full_address": "Kaiserstr. 88\n76133 Karlsruhe", "hours": {"Monday": {"close": "18:00", "open": "10:00"}, "Tuesday": {"close": "18:00", "open": "10:00"}, "Friday": {"close": "18:00", "open": "10:00"}, "Wednesday": {"close": "18:00", "open": "10:00"}, "Thursday": {"close": "18:00", "open": "10:00"}, "Saturday": {"close": "18:00", "open": "10:00"}}, "open": true, "categories": ["Professional Services", "Home Services", "Shopping", "Mobile Phones", "Internet Service Providers"], "city": "Karlsruhe", "review_count": 4, "name": "Telekom Shop", "neighborhoods": [], "longitude": 8.40201, "state": "BW", "stars": 2.5, "latitude": 49.0098, "attributes": {"Price Range": 2}, "type": "business"}
{"business_id": "lZdaEd0x4nCPtOgkBeKDFA", "full_address": "Ferdinand-Porsche-Stra\u00dfe 7\n76275 Ettlingen", "hours": {}, "open": true, "categories": ["Professional Services", "Matchmakers", "Home Services", "Internet Service Providers"], "city": "Ettlingen", "review_count": 3, "name": "Knuddels - knuddels.de", "neighborhoods": [], "longitude": 8.38447, "state": "BW", "stars": 1.5, "latitude": 48.93762, "attributes": {}, "type": "business"}
{"business_id": "rKLqywVES-dgjQ08mnqIGA", "full_address": "Kaiserstr. 88\n76133 Karlsruhe", "hours": {"Monday": {"close": "18:00", "open": "10:00"}, "Tuesday": {"close": "18:00", "open": "10:00"}, "Friday": {"close": "18:00", "open": "10:00"}, "Wednesday": {"close": "18:00", "open": "10:00"}, "Thursday": {"close": "18:00", "open": "10:00"}, "Saturday": {"close": "18:00", "open": "10:00"}}, "open": true, "categories": ["Professional Services", "Home Services", "Shopping", "Mobile Phones", "Internet Service Providers"], "city": "Karlsruhe", "review_count": 4, "name": "Telekom Shop", "neighborhoods": [], "longitude": 8.40201, "state": "BW", "stars": 2.5, "latitude": 49.0098, "attributes": {"Price Range": 2}, "type": "business"}
{"business_id": "lZdaEd0x4nCPtOgkBeKDFA", "full_address": "Ferdinand-Porsche-Stra\u00dfe 7\n76275 Ettlingen", "hours": {}, "open": true, "categories": ["Professional Services", "Matchmakers", "Home Services", "Internet Service Providers"], "city": "Ettlingen", "review_count": 3, "name": "Knuddels - knuddels.de", "neighborhoods": [], "longitude": 8.38447, "state": "BW", "stars": 1.5, "latitude": 48.93762, "attributes": {}, "type": "business"}
{"business_id": "rKLqywVES-dgjQ08mnqIGA", "full_address": "Kaiserstr. 88\n76133 Karlsruhe", "hours": {"Monday": {"close": "18:00", "open": "10:00"}, "Tuesday": {"close": "18:00", "open": "10:00"}, "Friday": {"close": "18:00", "open": "10:00"}, "Wednesday": {"close": "18:00", "open": "10:00"}, "Thursday": {"close": "18:00", "open": "10:00"}, "Saturday": {"close": "18:00", "open": "10:00"}}, "open": true, "categories": ["Professional Services", "Home Services", "Shopping", "Mobile Phones", "Internet Service Providers"], "city": "Karlsruhe", "review_count": 4, "name": "Telekom Shop", "neighborhoods": [], "longitude": 8.40201, "state": "BW", "stars": 2.5, "latitude": 49.0098, "attributes": {"Price Range": 2}, "type": "business"}
