{"business_id": "Tm3w1r_ysQSxu-hnV9BetA", "full_address": "Industriestr. 6\n76467 Bietigheim", "hours": {}, "open": true, "categories": ["Bakeries", "Grocery", "Food", "Cafes", "Coffee & Tea", "Restaurants"], "city": "Bietigheim", "review_count": 3, "name": "F\u00f6ry B\u00e4ckerei und Caf\u00e9", "neighborhoods": [], "longitude": 8.25536, "state": "BW", "stars": 5.0, "latitude": 48.9109, "attributes": {"Price Range": 2}, "type": "business"}
{"business_id": "va1Mky2PWLHnRNWn8DKkkw", "full_address": "Degenfeldstr. 1\n76131 Karlsruhe", "hours": {}, "open": false, "categories": ["Food", "Grocery", "Cafes", "Coffee & Tea", "Restaurants"], "city": "Karlsruhe", "review_count": 3, "name": "Caf\u00e9 Sani", "neighborhoods": [], "longitude": 8.42112, "state": "BW", "stars": 3.0, "latitude": 49.0081, "attributes": {"Take-out": false, "Delivery": false, "Dogs Allowed": false, "Outdoor Seating": true, "Parking": {"garage": false, "street": false, "validated": false, "lot": false, "valet": false}, "Smoking": "no", "Accepts Credit Cards": false}, "type": "business"}
{"business_id": "7NGxiZ5ya3FYIncTCU4jIA", "full_address": "Kriegsstra\u00dfe 5\nBeim Renaissance Hotel\n76131 Karlsruhe", "hours": {}, "open": true, "categories": ["Hair Salons", "Food", "Grocery", "Beauty & Spas"], "city": "Karlsruhe", "review_count": 7, "name": "Erna", "neighborhoods": [], "longitude": 8.4303821, "state": "BW", "stars": 4.5, "latitude": 49.0116951, "attributes": {"Parking": {"garage": false, "validated": false, "street": false, "lot": false, "valet": false}, "Accepts Credit Cards": false, "Wheelchair Accessible": true, "Price Range": 3}, "type": "business"}
{"business_id": "QRTW1rfw1KKjsSHbboCaJQ", "full_address": "Richard-Wagner-Str. 27\n76275 Ettlingen", "hours": {}, "open": true, "categories": ["Bakeries", "Grocery", "Shopping", "Food", "Post Offices", "Butcher", "Public Services & Government"], "city": "Ettlingen", "review_count": 5, "name": "CAP-Markt", "neighborhoods": [], "longitude": 8.36592, "state": "BW", "stars": 4.5, "latitude": 48.9246, "attributes": {"Price Range": 3}, "type": "business"}
{"business_id": "bhwbuKiu0f6FdhAx6_hgVQ", "full_address": "Theodorf-Rehbockstr. 11\n76131 Karlsruhe", "hours": {"Monday": {"close": "22:00", "open": "07:00"}, "Tuesday": {"close": "22:00", "open": "07:00"}, "Friday": {"close": "22:00", "open": "07:00"}, "Wednesday": {"close": "22:00", "open": "07:00"}, "Thursday": {"close": "22:00", "open": "07:00"}, "Saturday": {"close": "22:00", "open": "07:00"}}, "open": true, "categories": ["Food", "Grocery", "Beverage Store"], "city": "Karlsruhe", "review_count": 4, "name": "REWE", "neighborhoods": [], "longitude": 8.43855, "state": "BW", "stars": 3.5, "latitude": 49.00982, "attributes": {"Parking": {"garage": false, "street": false, "validated": false, "lot": false, "valet": false}, "Accepts Credit Cards": true, "Price Range": 2}, "type": "business"}
{"business_id": "kgVAfgnBMaiumvKnz5FShQ", "full_address": "Carl-Metz-Str. 7\n76185 Karlsruhe", "hours": {"Monday": {"close": "22:00", "open": "07:00"}, "Tuesday": {"close": "22:00", "open": "07:00"}, "Friday": {"close": "00:00", "open": "07:00"}, "Wednesday": {"close": "22:00", "open": "07:00"}, "Thursday": {"close": "00:00", "open": "07:00"}, "Saturday": {"close": "23:30", "open": "07:00"}}, "open": true, "categories": ["Food", "Grocery"], "city": "Karlsruhe", "review_count": 3, "name": "Kaufland", "neighborhoods": [], "longitude": 8.35220572516567, "state": "BW", "stars": 3.5, "latitude": 49.0096804340542, "attributes": {"Parking": {"garage": false, "street": false, "validated": false, "lot": false, "valet": false}, "Accepts Credit Cards": true, "Price Range": 2}, "type": "business"}
{"business_id": "a1LTUTyHEe4z63KGiaSuog", "full_address": "R\u00fcppurrer Str. 1\n76137 Karlsruhe", "hours": {}, "open": true, "categories": ["Food", "Grocery"], "city": "Karlsruhe", "review_count": 24, "name": "Scheck- in Center", "neighborhoods": [], "longitude": 8.4106836, "state": "BW", "stars": 4.5, "latitude": 49.0053857, "attributes": {"Parking": {"garage": true, "street": false, "validated": false, "lot": false, "valet": false}, "Accepts Credit Cards": true, "Wheelchair Accessible": true, "Price Range": 3}, "type": "business"}
{"business_id": "tTy1Mm_nvhs_9XV8QuUXDg", "full_address": "Gr\u00fcnhutstr. 1\n76187 Karlsruhe", "hours": {"Monday": {"close": "21:00", "open": "08:00"}, "Tuesday": {"close": "21:00", "open": "08:00"}, "Friday": {"close": "21:00", "open": "08:00"}, "Wednesday": {"close": "21:00", "open": "08:00"}, "Thursday": {"close": "21:00", "open": "08:00"}, "Saturday": {"close": "21:00", "open": "08:00"}}, "open": true, "categories": ["Food", "Grocery"], "city": "Karlsruhe", "review_count": 3, "name": "Edeka", "neighborhoods": [], "longitude": 8.3521696, "state": "BW", "stars": 3.0, "latitude": 49.0366323, "attributes": {"Price Range": 2}, "type": "business"}
{"business_id": "YTnPEttnoV_syCBU_oqP4w", "full_address": "Kaiserallee 37-39\n76133 Karlsruhe", "hours": {"Monday": {"close": "20:00", "open": "08:00"}, "Tuesday": {"close": "20:00", "open": "08:00"}, "Friday": {"close": "20:00", "open": "08:00"}, "Wednesday": {"close": "20:00", "open": "08:00"}, "Thursday": {"close": "20:00", "open": "08:00"}, "Saturday": {"close": "20:00", "open": "08:00"}}, "open": true, "categories": ["Food", "Grocery"], "city": "Karlsruhe", "review_count": 4, "name": "CAP", "neighborhoods": [], "longitude": 8.3793, "state": "BW", "stars": 5.0, "latitude": 49.01021, "attributes": {"Parking": {"garage": false, "street": false, "validated": false, "lot": false, "valet": false}, "Accepts Credit Cards": false, "Price Range": 2}, "type": "business"}
{"business_id": "4aPi5_R5cu2OLnsB0v7e-Q", "full_address": "Durlacher Allee 111\n76137 Karlsruhe", "hours": {"Monday": {"close": "22:00", "open": "07:00"}, "Tuesday": {"close": "22:00", "open": "07:00"}, "Friday": {"close": "22:00", "open": "07:00"}, "Wednesday": {"close": "22:00", "open": "07:00"}, "Thursday": {"close": "22:00", "open": "07:00"}, "Saturday": {"close": "22:00", "open": "07:00"}}, "open": true, "categories": ["Food", "Grocery"], "city": "Karlsruhe", "review_count": 9, "name": "real,- SB Warenhaus", "neighborhoods": [], "longitude": 8.44789624214172, "state": "BW", "stars": 3.0, "latitude": 49.0044340146416, "attributes": {"Parking": {"garage": false, "street": false, "validated": false, "lot": true, "valet": false}, "Accepts Credit Cards": true, "Wheelchair Accessible": true, "Price Range": 2}, "type": "business"}
{"business_id": "CDjAcUDYcvYCFvMYE3L4Pg", "full_address": "Georg-Friedrich-Str. 9\n76131 Karlsruhe", "hours": {"Monday": {"close": "22:00", "open": "07:00"}, "Tuesday": {"close": "22:00", "open": "07:00"}, "Friday": {"close": "22:00", "open": "07:00"}, "Wednesday": {"close": "22:00", "open": "07:00"}, "Thursday": {"close": "22:00", "open": "07:00"}, "Saturday": {"close": "22:00", "open": "07:00"}}, "open": true, "categories": ["Food", "Grocery", "Beverage Store"], "city": "Karlsruhe", "review_count": 3, "name": "REWE City", "neighborhoods": [], "longitude": 8.4237798, "state": "BW", "stars": 1.5, "latitude": 49.0097022, "attributes": {"Parking": {}, "Accepts Credit Cards": true, "Price Range": 2}, "type": "business"}
{"business_id": "XOzf-Nn9W_TIT7YlSTQpnQ", "full_address": "Fritz-Erler-Str. 1-3\n76133 Karlsruhe", "hours": {"Monday": {"close": "21:00", "open": "08:30"}, "Tuesday": {"close": "21:00", "open": "08:30"}, "Friday": {"close": "21:00", "open": "08:30"}, "Wednesday": {"close": "21:00", "open": "08:30"}, "Thursday": {"close": "21:00", "open": "08:30"}, "Saturday": {"close": "21:00", "open": "08:00"}}, "open": true, "categories": ["Food", "Grocery"], "city": "Karlsruhe", "review_count": 4, "name": "Edeka", "neighborhoods": [], "longitude": 8.41037747627912, "state": "BW", "stars": 3.5, "latitude": 49.0091470416241, "attributes": {"Parking": {"garage": false, "street": false, "validated": false, "lot": false, "valet": false}, "Accepts Credit Cards": true, "Wheelchair Accessible": true, "Price Range": 2}, "type": "business"}
{"business_id": "qjK0z9LZCJa8p4JljmC11w", "full_address": "Eisenstockstra\u00dfe 18\nStadtteil Ettlingenweier\n76275 Ettlingen", "hours": {}, "open": false, "categories": ["Food", "Grocery"], "city": "Ettlingen", "review_count": 3, "name": "T.I.M.O. Italienischer Einkaufsmarkt GmbH", "neighborhoods": [], "longitude": 8.37438, "state": "BW", "stars": 3.5, "latitude": 48.9204, "attributes": {"Parking": {"garage": false, "street": false, "validated": false, "lot": false, "valet": false}, "Price Range": 3}, "type": "business"}
{"business_id": "yZpwR6FB0jSd8TlfoX3LaA", "full_address": "Bannwaldallee 42\n76185 Karlsruhe", "hours": {"Monday": {"close": "21:00", "open": "07:00"}, "Tuesday": {"close": "21:00", "open": "07:00"}, "Friday": {"close": "21:00", "open": "07:00"}, "Wednesday": {"close": "21:00", "open": "07:00"}, "Thursday": {"close": "21:00", "open": "07:00"}, "Saturday": {"close": "20:00", "open": "07:00"}}, "open": true, "categories": ["Food", "Grocery"], "city": "Karlsruhe", "review_count": 5, "name": "Metro", "neighborhoods": [], "longitude": 8.36951, "state": "BW", "stars": 3.5, "latitude": 48.9996, "attributes": {"Parking": {"garage": false, "street": false, "validated": false, "lot": false, "valet": false}, "Accepts Credit Cards": true, "Price Range": 2}, "type": "business"}
{"business_id": "YiGyXgA9lAFFZcu_JkP0qw", "full_address": "Zehntwiesenstr. 47\n76275 Ettlingen", "hours": {}, "open": true, "categories": ["Food", "Grocery"], "city": "Ettlingen", "review_count": 3, "name": "real,-", "neighborhoods": [], "longitude": 8.3894149, "state": "BW", "stars": 3.5, "latitude": 48.9454278, "attributes": {}, "type": "business"}
{"business_id": "Tm3w1r_ysQSxu-hnV9BetA", "full_address": "Industriestr. 6\n76467 Bietigheim", "hours": {}, "open": true, "categories": ["Bakeries", "Grocery", "Food", "Cafes", "Coffee & Tea", "Restaurants"], "city": "Bietigheim", "review_count": 3, "name": "F\u00f6ry B\u00e4ckerei und Caf\u00e9", "neighborhoods": [], "longitude": 8.25536, "state": "BW", "stars": 5.0, "latitude": 48.9109, "attributes": {"Price Range": 2}, "type": "business"}
{"business_id": "va1Mky2PWLHnRNWn8DKkkw", "full_address": "Degenfeldstr. 1\n76131 Karlsruhe", "hours": {}, "open": false, "categories": ["Food", "Grocery", "Cafes", "Coffee & Tea", "Restaurants"], "city": "Karlsruhe", "review_count": 3, "name": "Caf\u00e9 Sani", "neighborhoods": [], "longitude": 8.42112, "state": "BW", "stars": 3.0, "latitude": 49.0081, "attributes": {"Take-out": false, "Delivery": false, "Dogs Allowed": false, "Outdoor Seating": true, "Parking": {"garage": false, "street": false, "validated": false, "lot": false, "valet": false}, "Smoking": "no", "Accepts Credit Cards": false}, "type": "business"}
{"business_id": "7NGxiZ5ya3FYIncTCU4jIA", "full_address": "Kriegsstra\u00dfe 5\nBeim Renaissance Hotel\n76131 Karlsruhe", "hours": {}, "open": true, "categories": ["Hair Salons", "Food", "Grocery", "Beauty & Spas"], "city": "Karlsruhe", "review_count": 7, "name": "Erna", "neighborhoods": [], "longitude": 8.4303821, "state": "BW", "stars": 4.5, "latitude": 49.0116951, "attributes": {"Parking": {"garage": false, "validated": false, "street": false, "lot": false, "valet": false}, "Accepts Credit Cards": false, "Wheelchair Accessible": true, "Price Range": 3}, "type": "business"}
{"business_id": "QRTW1rfw1KKjsSHbboCaJQ", "full_address": "Richard-Wagner-Str. 27\n76275 Ettlingen", "hours": {}, "open": true, "categories": ["Bakeries", "Grocery", "Shopping", "Food", "Post Offices", "Butcher", "Public Services & Government"], "city": "Ettlingen", "review_count": 5, "name": "CAP-Markt", "neighborhoods": [], "longitude": 8.36592, "state": "BW", "stars": 4.5, "latitude": 48.9246, "attributes": {"Price Range": 3}, "type": "business"}
{"business_id": "bhwbuKiu0f6FdhAx6_hgVQ", "full_address": "Theodorf-Rehbockstr. 11\n76131 Karlsruhe", "hours": {"Monday": {"close": "22:00", "open": "07:00"}, "Tuesday": {"close": "22:00", "open": "07:00"}, "Friday": {"close": "22:00", "open": "07:00"}, "Wednesday": {"close": "22:00", "open": "07:00"}, "Thursday": {"close": "22:00", "open": "07:00"}, "Saturday": {"close": "22:00", "open": "07:00"}}, "open": true, "categories": ["Food", "Grocery", "Beverage Store"], "city": "Karlsruhe", "review_count": 4, "name": "REWE", "neighborhoods": [], "longitude": 8.43855, "state": "BW", "stars": 3.5, "latitude": 49.00982, "attributes": {"Parking": {"garage": false, "street": false, "validated": false, "lot": false, "valet": false}, "Accepts Credit Cards": true, "Price Range": 2}, "type": "business"}
{"business_id": "kgVAfgnBMaiumvKnz5FShQ", "full_address": "Carl-Metz-Str. 7\n76185 Karlsruhe", "hours": {"Monday": {"close": "22:00", "open": "07:00"}, "Tuesday": {"close": "22:00", "open": "07:00"}, "Friday": {"close": "00:00", "open": "07:00"}, "Wednesday": {"close": "22:00", "open": "07:00"}, "Thursday": {"close": "00:00", "open": "07:00"}, "Saturday": {"close": "23:30", "open": "07:00"}}, "open": true, "categories": ["Food", "Grocery"], "city": "Karlsruhe", "review_count": 3, "name": "Kaufland", "neighborhoods": [], "longitude": 8.35220572516567, "state": "BW", "stars": 3.5, "latitude": 49.0096804340542, "attributes": {"Parking": {"garage": false, "street": false, "validated": false, "lot": false, "valet": false}, "Accepts Credit Cards": true, "Price Range": 2}, "type": "business"}
{"business_id": "a1LTUTyHEe4z63KGiaSuog", "full_address": "R\u00fcppurrer Str. 1\n76137 Karlsruhe", "hours": {}, "open": true, "categories": ["Food", "Grocery"], "city": "Karlsruhe", "review_count": 24, "name": "Scheck- in Center", "neighborhoods": [], "longitude": 8.4106836, "state": "BW", "stars": 4.5, "latitude": 49.0053857, "attributes": {"Parking": {"garage": true, "street": false, "validated": false, "lot": false, "valet": false}, "Accepts Credit Cards": true, "Wheelchair Accessible": true, "Price Range": 3}, "type": "business"}
{"business_id": "tTy1Mm_nvhs_9XV8QuUXDg", "full_address": "Gr\u00fcnhutstr. 1\n76187 Karlsruhe", "hours": {"Monday": {"close": "21:00", "open": "08:00"}, "Tuesday": {"close": "21:00", "open": "08:00"}, "Friday": {"close": "21:00", "open": "08:00"}, "Wednesday": {"close": "21:00", "open": "08:00"}, "Thursday": {"close": "21:00", "open": "08:00"}, "Saturday": {"close": "21:00", "open": "08:00"}}, "open": true, "categories": ["Food", "Grocery"], "city": "Karlsruhe", "review_count": 3, "name": "Edeka", "neighborhoods": [], "longitude": 8.3521696, "state": "BW", "stars": 3.0, "latitude": 49.0366323, "attributes": {"Price Range": 2}, "type": "business"}
{"business_id": "YTnPEttnoV_syCBU_oqP4w", "full_address": "Kaiserallee 37-39\n76133 Karlsruhe", "hours": {"Monday": {"close": "20:00", "open": "08:00"}, "Tuesday": {"close": "20:00", "open": "08:00"}, "Friday": {"close": "20:00", "open": "08:00"}, "Wednesday": {"close": "20:00", "open": "08:00"}, "Thursday": {"close": "20:00", "open": "08:00"}, "Saturday": {"close": "20:00", "open": "08:00"}}, "open": true, "categories": ["Food", "Grocery"], "city": "Karlsruhe", "review_count": 4, "name": "CAP", "neighborhoods": [], "longitude": 8.3793, "state": "BW", "stars": 5.0, "latitude": 49.01021, "attributes": {"Parking": {"garage": false, "street": false, "validated": false, "lot": false, "valet": false}, "Accepts Credit Cards": false, "Price Range": 2}, "type": "business"}
{"business_id": "4aPi5_R5cu2OLnsB0v7e-Q", "full_address": "Durlacher Allee 111\n76137 Karlsruhe", "hours": {"Monday": {"close": "22:00", "open": "07:00"}, "Tuesday": {"close": "22:00", "open": "07:00"}, "Friday": {"close": "22:00", "open": "07:00"}, "Wednesday": {"close": "22:00", "open": "07:00"}, "Thursday": {"close": "22:00", "open": "07:00"}, "Saturday": {"close": "22:00", "open": "07:00"}}, "open": true, "categories": ["Food", "Grocery"], "city": "Karlsruhe", "review_count": 9, "name": "real,- SB Warenhaus", "neighborhoods": [], "longitude": 8.44789624214172, "state": "BW", "stars": 3.0, "latitude": 49.0044340146416, "attributes": {"Parking": {"garage": false, "street": false, "validated": false, "lot": true, "valet": false}, "Accepts Credit Cards": true, "Wheelchair Accessible": true, "Price Range": 2}, "type": "business"}
{"business_id": "CDjAcUDYcvYCFvMYE3L4Pg", "full_address": "Georg-Friedrich-Str. 9\n76131 Karlsruhe", "hours": {"Monday": {"close": "22:00", "open": "07:00"}, "Tuesday": {"close": "22:00", "open": "07:00"}, "Friday": {"close": "22:00", "open": "07:00"}, "Wednesday": {"close": "22:00", "open": "07:00"}, "Thursday": {"close": "22:00", "open": "07:00"}, "Saturday": {"close": "22:00", "open": "07:00"}}, "open": true, "categories": ["Food", "Grocery", "Beverage Store"], "city": "Karlsruhe", "review_count": 3, "name": "REWE City", "neighborhoods": [], "longitude": 8.4237798, "state": "BW", "stars": 1.5, "latitude": 49.0097022, "attributes": {"Parking": {}, "Accepts Credit Cards": true, "Price Range": 2}, "type": "business"}
{"business_id": "XOzf-Nn9W_TIT7YlSTQpnQ", "full_address": "Fritz-Erler-Str. 1-3\n76133 Karlsruhe", "hours": {"Monday": {"close": "21:00", "open": "08:30"}, "Tuesday": {"close": "21:00", "open": "08:30"}, "Friday": {"close": "21:00", "open": "08:30"}, "Wednesday": {"close": "21:00", "open": "08:30"}, "Thursday": {"close": "21:00", "open": "08:30"}, "Saturday": {"close": "21:00", "open": "08:00"}}, "open": true, "categories": ["Food", "Grocery"], "city": "Karlsruhe", "review_count": 4, "name": "Edeka", "neighborhoods": [], "longitude": 8.41037747627912, "state": "BW", "stars": 3.5, "latitude": 49.0091470416241, "attributes": {"Parking": {"garage": false, "street": false, "validated": false, "lot": false, "valet": false}, "Accepts Credit Cards": true, "Wheelchair Accessible": true, "Price Range": 2}, "type": "business"}
{"business_id": "qjK0z9LZCJa8p4JljmC11w", "full_address": "Eisenstockstra\u00dfe 18\nStadtteil Ettlingenweier\n76275 Ettlingen", "hours": {}, "open": false, "categories": ["Food", "Grocery"], "city": "Ettlingen", "review_count": 3, "name": "T.I.M.O. Italienischer Einkaufsmarkt GmbH", "neighborhoods": [], "longitude": 8.37438, "state": "BW", "stars": 3.5, "latitude": 48.9204, "attributes": {"Parking": {"garage": false, "street": false, "validated": false, "lot": false, "valet": false}, "Price Range": 3}, "type": "business"}
{"business_id": "yZpwR6FB0jSd8TlfoX3LaA", "full_address": "Bannwaldallee 42\n76185 Karlsruhe", "hours": {"Monday": {"close": "21:00", "open": "07:00"}, "Tuesday": {"close": "21:00", "open": "07:00"}, "Friday": {"close": "21:00", "open": "07:00"}, "Wednesday": {"close": "21:00", "open": "07:00"}, "Thursday": {"close": "21:00", "open": "07:00"}, "Saturday": {"close": "20:00", "open": "07:00"}}, "open": true, "categories": ["Food", "Grocery"], "city": "Karlsruhe", "review_count": 5, "name": "Metro", "neighborhoods": [], "longitude": 8.36951, "state": "BW", "stars": 3.5, "latitude": 48.9996, "attributes": {"Parking": {"garage": false, "street": false, "validated": false, "lot": false, "valet": false}, "Accepts Credit Cards": true, "Price Range": 2}, "type": "business"}
{"business_id": "YiGyXgA9lAFFZcu_JkP0qw", "full_address": "Zehntwiesenstr. 47\n76275 Ettlingen", "hours": {}, "open": true, "categories": ["Food", "Grocery"], "city": "Ettlingen", "review_count": 3, "name": "real,-", "neighborhoods": [], "longitude": 8.3894149, "state": "BW", "stars": 3.5, "latitude": 48.9454278, "attributes": {}, "type": "business"}
{"business_id": "Tm3w1r_ysQSxu-hnV9BetA", "full_address": "Industriestr. 6\n76467 Bietigheim", "hours": {}, "open": true, "categories": ["Bakeries", "Grocery", "Food", "Cafes", "Coffee & Tea", "Restaurants"], "city": "Bietigheim", "review_count": 3, "name": "F\u00f6ry B\u00e4ckerei und Caf\u00e9", "neighborhoods": [], "longitude": 8.25536, "state": "BW", "stars": 5.0, "latitude": 48.9109, "attributes": {"Price Range": 2}, "type": "business"}
{"business_id": "va1Mky2PWLHnRNWn8DKkkw", "full_address": "Degenfeldstr. 1\n76131 Karlsruhe", "hours": {}, "open": false, "categories": ["Food", "Grocery", "Cafes", "Coffee & Tea", "Restaurants"], "city": "Karlsruhe", "review_count": 3, "name": "Caf\u00e9 Sani", "neighborhoods": [], "longitude": 8.42112, "state": "BW", "stars": 3.0, "latitude": 49.0081, "attributes": {"Take-out": false, "Delivery": false, "Dogs Allowed": false, "Outdoor Seating": true, "Parking": {"garage": false, "street": false, "validated": false, "lot": false, "valet": false}, "Smoking": "no", "Accepts Credit Cards": false}, "type": "business"}
{"business_id": "7NGxiZ5ya3FYIncTCU4jIA", "full_address": "Kriegsstra\u00dfe 5\nBeim Renaissance Hotel\n76131 Karlsruhe", "hours": {}, "open": true, "categories": ["Hair Salons", "Food", "Grocery", "Beauty & Spas"], "city": "Karlsruhe", "review_count": 7, "name": "Erna", "neighborhoods": [], "longitude": 8.4303821, "state": "BW", "stars": 4.5, "latitude": 49.0116951, "attributes": {"Parking": {"garage": false, "validated": false, "street": false, "lot": false, "valet": false}, "Accepts Credit Cards": false, "Wheelchair Accessible": true, "Price Range": 3}, "type": "business"}
{"business_id": "QRTW1rfw1KKjsSHbboCaJQ", "full_address": "Richard-Wagner-Str. 27\n76275 Ettlingen", "hours": {}, "open": true, "categories": ["Bakeries", "Grocery", "Shopping", "Food", "Post Offices", "Butcher", "Public Services & Government"], "city": "Ettlingen", "review_count": 5, "name": "CAP-Markt", "neighborhoods": [], "longitude": 8.36592, "state": "BW", "stars": 4.5, "latitude": 48.9246, "attributes": {"Price Range": 3}, "type": "business"}
{"business_id": "bhwbuKiu0f6FdhAx6_hgVQ", "full_address": "Theodorf-Rehbockstr. 11\n76131 Karlsruhe", "hours": {"Monday": {"close": "22:00", "open": "07:00"}, "Tuesday": {"close": "22:00", "open": "07:00"}, "Friday": {"close": "22:00", "open": "07:00"}, "Wednesday": {"close": "22:00", "open": "07:00"}, "Thursday": {"close": "22:00", "open": "07:00"}, "Saturday": {"close": "22:00", "open": "07:00"}}, "open": true, "categories": ["Food", "Grocery", "Beverage Store"], "city": "Karlsruhe", "review_count": 4, "name": "REWE", "neighborhoods": [], "longitude": 8.43855, "state": "BW", "stars": 3.5, "latitude": 49.00982, "attributes": {"Parking": {"garage": false, "street": false, "validated": false, "lot": false, "valet": false}, "Accepts Credit Cards": true, "Price Range": 2}, "type": "business"}
{"business_id": "kgVAfgnBMaiumvKnz5FShQ", "full_address": "Carl-Metz-Str. 7\n76185 Karlsruhe", "hours": {"Monday": {"close": "22:00", "open": "07:00"}, "Tuesday": {"close": "22:00", "open": "07:00"}, "Friday": {"close": "00:00", "open": "07:00"}, "Wednesday": {"close": "22:00", "open": "07:00"}, "Thursday": {"close": "00:00", "open": "07:00"}, "Saturday": {"close": "23:30", "open": "07:00"}}, "open": true, "categories": ["Food", "Grocery"], "city": "Karlsruhe", "review_count": 3, "name": "Kaufland", "neighborhoods": [], "longitude": 8.35220572516567, "state": "BW", "stars": 3.5, "latitude": 49.0096804340542, "attributes": {"Parking": {"garage": false, "street": false, "validated": false, "lot": false, "valet": false}, "Accepts Credit Cards": true, "Price Range": 2}, "type": "business"}
{"business_id": "a1LTUTyHEe4z63KGiaSuog", "full_address": "R\u00fcppurrer Str. 1\n76137 Karlsruhe", "hours": {}, "open": true, "categories": ["Food", "Grocery"], "city": "Karlsruhe", "review_count": 24, "name": "Scheck- in Center", "neighborhoods": [], "longitude": 8.4106836, "state": "BW", "stars": 4.5, "latitude": 49.0053857, "attributes": {"Parking": {"garage": true, "street": false, "validated": false, "lot": false, "valet": false}, "Accepts Credit Cards": true, "Wheelchair Accessible": true, "Price Range": 3}, "type": "business"}
{"business_id": "tTy1Mm_nvhs_9XV8QuUXDg", "full_address": "Gr\u00fcnhutstr. 1\n76187 Karlsruhe", "hours": {"Monday": {"close": "21:00", "open": "08:00"}, "Tuesday": {"close": "21:00", "open": "08:00"}, "Friday": {"close": "21:00", "open": "08:00"}, "Wednesday": {"close": "21:00", "open": "08:00"}, "Thursday": {"close": "21:00", "open": "08:00"}, "Saturday": {"close": "21:00", "open": "08:00"}}, "open": true, "categories": ["Food", "Grocery"], "city": "Karlsruhe", "review_count": 3, "name": "Edeka", "neighborhoods": [], "longitude": 8.3521696, "state": "BW", "stars": 3.0, "latitude": 49.0366323, "attributes": {"Price Range": 2}, "type": "business"}
{"business_id": "YTnPEttnoV_syCBU_oqP4w", "full_address": "Kaiserallee 37-39\n76133 Karlsruhe", "hours": {"Monday": {"close": "20:00", "open": "08:00"}, "Tuesday": {"close": "20:00", "open": "08:00"}, "Friday": {"close": "20:00", "open": "08:00"}, "Wednesday": {"close": "20:00", "open": "08:00"}, "Thursday": {"close": "20:00", "open": "08:00"}, "Saturday": {"close": "20:00", "open": "08:00"}}, "open": true, "categories": ["Food", "Grocery"], "city": "Karlsruhe", "review_count": 4, "name": "CAP", "neighborhoods": [], "longitude": 8.3793, "state": "BW", "stars": 5.0, "latitude": 49.01021, "attributes": {"Parking": {"garage": false, "street": false, "validated": false, "lot": false, "valet": false}, "Accepts Credit Cards": false, "Price Range": 2}, "type": "business"}
{"business_id": "4aPi5_R5cu2OLnsB0v7e-Q", "full_address": "Durlacher Allee 111\n76137 Karlsruhe", "hours": {"Monday": {"close": "22:00", "open": "07:00"}, "Tuesday": {"close": "22:00", "open": "07:00"}, "Friday": {"close": "22:00", "open": "07:00"}, "Wednesday": {"close": "22:00", "open": "07:00"}, "Thursday": {"close": "22:00", "open": "07:00"}, "Saturday": {"close": "22:00", "open": "07:00"}}, "open": true, "categories": ["Food", "Grocery"], "city": "Karlsruhe", "review_count": 9, "name": "real,- SB Warenhaus", "neighborhoods": [], "longitude": 8.44789624214172, "state": "BW", "stars": 3.0, "latitude": 49.0044340146416, "attributes": {"Parking": {"garage": false, "street": false, "validated": false, "lot": true, "valet": false}, "Accepts Credit Cards": true, "Wheelchair Accessible": true, "Price Range": 2}, "type": "business"}
{"business_id": "CDjAcUDYcvYCFvMYE3L4Pg", "full_address": "Georg-Friedrich-Str. 9\n76131 Karlsruhe", "hours": {"Monday": {"close": "22:00", "open": "07:00"}, "Tuesday": {"close": "22:00", "open": "07:00"}, "Friday": {"close": "22:00", "open": "07:00"}, "Wednesday": {"close": "22:00", "open": "07:00"}, "Thursday": {"close": "22:00", "open": "07:00"}, "Saturday": {"close": "22:00", "open": "07:00"}}, "open": true, "categories": ["Food", "Grocery", "Beverage Store"], "city": "Karlsruhe", "review_count": 3, "name": "REWE City", "neighborhoods": [], "longitude": 8.4237798, "state": "BW", "stars": 1.5, "latitude": 49.0097022, "attributes": {"Parking": {}, "Accepts Credit Cards": true, "Price Range": 2}, "type": "business"}
{"business_id": "XOzf-Nn9W_TIT7YlSTQpnQ", "full_address": "Fritz-Erler-Str. 1-3\n76133 Karlsruhe", "hours": {"Monday": {"close": "21:00", "open": "08:30"}, "Tuesday": {"close": "21:00", "open": "08:30"}, "Friday": {"close": "21:00", "open": "08:30"}, "Wednesday": {"close": "21:00", "open": "08:30"}, "Thursday": {"close": "21:00", "open": "08:30"}, "Saturday": {"close": "21:00", "open": "08:00"}}, "open": true, "categories": ["Food", "Grocery"], "city": "Karlsruhe", "review_count": 4, "name": "Edeka", "neighborhoods": [], "longitude": 8.41037747627912, "state": "BW", "stars": 3.5, "latitude": 49.0091470416241, "attributes": {"Parking": {"garage": false, "street": false, "validated": false, "lot": false, "valet": false}, "Accepts Credit Cards": true, "Wheelchair Accessible": true, "Price Range": 2}, "type": "business"}
{"business_id": "qjK0z9LZCJa8p4JljmC11w", "full_address": "Eisenstockstra\u00dfe 18\nStadtteil Ettlingenweier\n76275 Ettlingen", "hours": {}, "open": false, "categories": ["Food", "Grocery"], "city": "Ettlingen", "review_count": 3, "name": "T.I.M.O. Italienischer Einkaufsmarkt GmbH", "neighborhoods": [], "longitude": 8.37438, "state": "BW", "stars": 3.5, "latitude": 48.9204, "attributes": {"Parking": {"garage": false, "street": false, "validated": false, "lot": false, "valet": false}, "Price Range": 3}, "type": "business"}
{"business_id": "yZpwR6FB0jSd8TlfoX3LaA", "full_address": "Bannwaldallee 42\n76185 Karlsruhe", "hours": {"Monday": {"close": "21:00", "open": "07:00"}, "Tuesday": {"close": "21:00", "open": "07:00"}, "Friday": {"close": "21:00", "open": "07:00"}, "Wednesday": {"close": "21:00", "open": "07:00"}, "Thursday": {"close": "21:00", "open": "07:00"}, "Saturday": {"close": "20:00", "open": "07:00"}}, "open": true, "categories": ["Food", "Grocery"], "city": "Karlsruhe", "review_count": 5, "name": "Metro", "neighborhoods": [], "longitude": 8.36951, "state": "BW", "stars": 3.5, "latitude": 48.9996, "attributes": {"Parking": {"garage": false, "street": false, "validated": false, "lot": false, "valet": false}, "Accepts Credit Cards": true, "Price Range": 2}, "type": "business"}
{"business_id": "YiGyXgA9lAFFZcu_JkP0qw", "full_address": "Zehntwiesenstr. 47\n76275 Ettlingen", "hours": {}, "open": true, "categories": ["Food", "Grocery"], "city": "Ettlingen", "review_count": 3, "name": "real,-", "neighborhoods": [], "longitude": 8.3894149, "state": "BW", "stars": 3.5, "latitude": 48.9454278, "attributes": {}, "type": "business"}
{"business_id": "Tm3w1r_ysQSxu-hnV9BetA", "full_address": "Industriestr. 6\n76467 Bietigheim", "hours": {}, "open": true, "categories": ["Bakeries", "Grocery", "Food", "Cafes", "Coffee & Tea", "Restaurants"], "city": "Bietigheim", "review_count": 3, "name": "F\u00f6ry B\u00e4ckerei und Caf\u00e9", "neighborhoods": [], "longitude": 8.25536, "state": "BW", "stars": 5.0, "latitude": 48.9109, "attributes": {"Price Range": 2}, "type": "business"}
{"business_id": "va1Mky2PWLHnRNWn8DKkkw", "full_address": "Degenfeldstr. 1\n76131 Karlsruhe", "hours": {}, "open": false, "categories": ["Food", "Grocery", "Cafes", "Coffee & Tea", "Restaurants"], "city": "Karlsruhe", "review_count": 3, "name": "Caf\u00e9 Sani", "neighborhoods": [], "longitude": 8.42112, "state": "BW", "stars": 3.0, "latitude": 49.0081, "attributes": {"Take-out": false, "Delivery": false, "Dogs Allowed": false, "Outdoor Seating": true, "Parking": {"garage": false, "street": false, "validated": false, "lot": false, "valet": false}, "Smoking": "no", "Accepts Credit Cards": false}, "type": "business"}
{"business_id": "7NGxiZ5ya3FYIncTCU4jIA", "full_address": "Kriegsstra\u00dfe 5\nBeim Renaissance Hotel\n76131 Karlsruhe", "hours": {}, "open": true, "categories": ["Hair Salons", "Food", "Grocery", "Beauty & Spas"], "city": "Karlsruhe", "review_count": 7, "name": "Erna", "neighborhoods": [], "longitude": 8.4303821, "state": "BW", "stars": 4.5, "latitude": 49.0116951, "attributes": {"Parking": {"garage": false, "validated": false, "street": false, "lot": false, "valet": false}, "Accepts Credit Cards": false, "Wheelchair Accessible": true, "Price Range": 3}, "type": "business"}
{"business_id": "QRTW1rfw1KKjsSHbboCaJQ", "full_address": "Richard-Wagner-Str. 27\n76275 Ettlingen", "hours": {}, "open": true, "categories": ["Bakeries", "Grocery", "Shopping", "Food", "Post Offices", "Butcher", "Public Services & Government"], "city": "Ettlingen", "review_count": 5, "name": "CAP-Markt", "neighborhoods": [], "longitude": 8.36592, "state": "BW", "stars": 4.5, "latitude": 48.9246, "attributes": {"Price Range": 3}, "type": "business"}
{"business_id": "bhwbuKiu0f6FdhAx6_hgVQ", "full_address": "Theodorf-Rehbockstr. 11\n76131 Karlsruhe", "hours": {"Monday": {"close": "22:00", "open": "07:00"}, "Tuesday": {"close": "22:00", "open": "07:00"}, "Friday": {"close": "22:00", "open": "07:00"}, "Wednesday": {"close": "22:00", "open": "07:00"}, "Thursday": {"close": "22:00", "open": "07:00"}, "Saturday": {"close": "22:00", "open": "07:00"}}, "open": true, "categories": ["Food", "Grocery", "Beverage Store"], "city": "Karlsruhe", "review_count": 4, "name": "REWE", "neighborhoods": [], "longitude": 8.43855, "state": "BW", "stars": 3.5, "latitude": 49.00982, "attributes": {"Parking": {"garage": false, "street": false, "validated": false, "lot": false, "valet": false}, "Accepts Credit Cards": true, "Price Range": 2}, "type": "business"}
{"business_id": "kgVAfgnBMaiumvKnz5FShQ", "full_address": "Carl-Metz-Str. 7\n76185 Karlsruhe", "hours": {"Monday": {"close": "22:00", "open": "07:00"}, "Tuesday": {"close": "22:00", "open": "07:00"}, "Friday": {"close": "00:00", "open": "07:00"}, "Wednesday": {"close": "22:00", "open": "07:00"}, "Thursday": {"close": "00:00", "open": "07:00"}, "Saturday": {"close": "23:30", "open": "07:00"}}, "open": true, "categories": ["Food", "Grocery"], "city": "Karlsruhe", "review_count": 3, "name": "Kaufland", "neighborhoods": [], "longitude": 8.35220572516567, "state": "BW", "stars": 3.5, "latitude": 49.0096804340542, "attributes": {"Parking": {"garage": false, "street": false, "validated": false, "lot": false, "valet": false}, "Accepts Credit Cards": true, "Price Range": 2}, "type": "business"}
{"business_id": "a1LTUTyHEe4z63KGiaSuog", "full_address": "R\u00fcppurrer Str. 1\n76137 Karlsruhe", "hours": {}, "open": true, "categories": ["Food", "Grocery"], "city": "Karlsruhe", "review_count": 24, "name": "Scheck- in Center", "neighborhoods": [], "longitude": 8.4106836, "state": "BW", "stars": 4.5, "latitude": 49.0053857, "attributes": {"Parking": {"garage": true, "street": false, "validated": false, "lot": false, "valet": false}, "Accepts Credit Cards": true, "Wheelchair Accessible": true, "Price Range": 3}, "type": "business"}
{"business_id": "tTy1Mm_nvhs_9XV8QuUXDg", "full_address": "Gr\u00fcnhutstr. 1\n76187 Karlsruhe", "hours": {"Monday": {"close": "21:00", "open": "08:00"}, "Tuesday": {"close": "21:00", "open": "08:00"}, "Friday": {"close": "21:00", "open": "08:00"}, "Wednesday": {"close": "21:00", "open": "08:00"}, "Thursday": {"close": "21:00", "open": "08:00"}, "Saturday": {"close": "21:00", "open": "08:00"}}, "open": true, "categories": ["Food", "Grocery"], "city": "Karlsruhe", "review_count": 3, "name": "Edeka", "neighborhoods": [], "longitude": 8.3521696, "state": "BW", "stars": 3.0, "latitude": 49.0366323, "attributes": {"Price Range": 2}, "type": "business"}
{"business_id": "YTnPEttnoV_syCBU_oqP4w", "full_address": "Kaiserallee 37-39\n76133 Karlsruhe", "hours": {"Monday": {"close": "20:00", "open": "08:00"}, "Tuesday": {"close": "20:00", "open": "08:00"}, "Friday": {"close": "20:00", "open": "08:00"}, "Wednesday": {"close": "20:00", "open": "08:00"}, "Thursday": {"close": "20:00", "open": "08:00"}, "Saturday": {"close": "20:00", "open": "08:00"}}, "open": true, "categories": ["Food", "Grocery"], "city": "Karlsruhe", "review_count": 4, "name": "CAP", "neighborhoods": [], "longitude": 8.3793, "state": "BW", "stars": 5.0, "latitude": 49.01021, "attributes": {"Parking": {"garage": false, "street": false, "validated": false, "lot": false, "valet": false}, "Accepts Credit Cards": false, "Price Range": 2}, "type": "business"}
{"business_id": "4aPi5_R5cu2OLnsB0v7e-Q", "full_address": "Durlacher Allee 111\n76137 Karlsruhe", "hours": {"Monday": {"close": "22:00", "open": "07:00"}, "Tuesday": {"close": "22:00", "open": "07:00"}, "Friday": {"close": "22:00", "open": "07:00"}, "Wednesday": {"close": "22:00", "open": "07:00"}, "Thursday": {"close": "22:00", "open": "07:00"}, "Saturday": {"close": "22:00", "open": "07:00"}}, "open": true, "categories": ["Food", "Grocery"], "city": "Karlsruhe", "review_count": 9, "name": "real,- SB Warenhaus", "neighborhoods": [], "longitude": 8.44789624214172, "state": "BW", "stars": 3.0, "latitude": 49.0044340146416, "attributes": {"Parking": {"garage": false, "street": false, "validated": false, "lot": true, "valet": false}, "Accepts Credit Cards": true, "Wheelchair Accessible": true, "Price Range": 2}, "type": "business"}
{"business_id": "CDjAcUDYcvYCFvMYE3L4Pg", "full_address": "Georg-Friedrich-Str. 9\n76131 Karlsruhe", "hours": {"Monday": {"close": "22:00", "open": "07:00"}, "Tuesday": {"close": "22:00", "open": "07:00"}, "Friday": {"close": "22:00", "open": "07:00"}, "Wednesday": {"close": "22:00", "open": "07:00"}, "Thursday": {"close": "22:00", "open": "07:00"}, "Saturday": {"close": "22:00", "open": "07:00"}}, "open": true, "categories": ["Food", "Grocery", "Beverage Store"], "city": "Karlsruhe", "review_count": 3, "name": "REWE City", "neighborhoods": [], "longitude": 8.4237798, "state": "BW", "stars": 1.5, "latitude": 49.0097022, "attributes": {"Parking": {}, "Accepts Credit Cards": true, "Price Range": 2}, "type": "business"}
{"business_id": "XOzf-Nn9W_TIT7YlSTQpnQ", "full_address": "Fritz-Erler-Str. 1-3\n76133 Karlsruhe", "hours": {"Monday": {"close": "21:00", "open": "08:30"}, "Tuesday": {"close": "21:00", "open": "08:30"}, "Friday": {"close": "21:00", "open": "08:30"}, "Wednesday": {"close": "21:00", "open": "08:30"}, "Thursday": {"close": "21:00", "open": "08:30"}, "Saturday": {"close": "21:00", "open": "08:00"}}, "open": true, "categories": ["Food", "Grocery"], "city": "Karlsruhe", "review_count": 4, "name": "Edeka", "neighborhoods": [], "longitude": 8.41037747627912, "state": "BW", "stars": 3.5, "latitude": 49.0091470416241, "attributes": {"Parking": {"garage": false, "street": false, "validated": false, "lot": false, "valet": false}, "Accepts Credit Cards": true, "Wheelchair Accessible": true, "Price Range": 2}, "type": "business"}
{"business_id": "qjK0z9LZCJa8p4JljmC11w", "full_address": "Eisenstockstra\u00dfe 18\nStadtteil Ettlingenweier\n76275 Ettlingen", "hours": {}, "open": false, "categories": ["Food", "Grocery"], "city": "Ettlingen", "review_count": 3, "name": "T.I.M.O. Italienischer Einkaufsmarkt GmbH", "neighborhoods": [], "longitude": 8.37438, "state": "BW", "stars": 3.5, "latitude": 48.9204, "attributes": {"Parking": {"garage": false, "street": false, "validated": false, "lot": false, "valet": false}, "Price Range": 3}, "type": "business"}
{"business_id": "yZpwR6FB0jSd8TlfoX3LaA", "full_address": "Bannwaldallee 42\n76185 Karlsruhe", "hours": {"Monday": {"close": "21:00", "open": "07:00"}, "Tuesday": {"close": "21:00", "open": "07:00"}, "Friday": {"close": "21:00", "open": "07:00"}, "Wednesday": {"close": "21:00", "open": "07:00"}, "Thursday": {"close": "21:00", "open": "07:00"}, "Saturday": {"close": "20:00", "open": "07:00"}}, "open": true, "categories": ["Food", "Grocery"], "city": "Karlsruhe", "review_count": 5, "name": "Metro", "neighborhoods": [], "longitude": 8.36951, "state": "BW", "stars": 3.5, "latitude": 48.9996, "attributes": {"Parking": {"garage": false, "street": false, "validated": false, "lot": false, "valet": false}, "Accepts Credit Cards": true, "Price Range": 2}, "type": "business"}
{"business_id": "YiGyXgA9lAFFZcu_JkP0qw", "full_address": "Zehntwiesenstr. 47\n76275 Ettlingen", "hours": {}, "open": true, "categories": ["Food", "Grocery"], "city": "Ettlingen", "review_count": 3, "name": "real,-", "neighborhoods": [], "longitude": 8.3894149, "state": "BW", "stars": 3.5, "latitude": 48.9454278, "attributes": {}, "type": "business"}
{"business_id": "Tm3w1r_ysQSxu-hnV9BetA", "full_address": "Industriestr. 6\n76467 Bietigheim", "hours": {}, "open": true, "categories": ["Bakeries", "Grocery", "Food", "Cafes", "Coffee & Tea", "Restaurants"], "city": "Bietigheim", "review_count": 3, "name": "F\u00f6ry B\u00e4ckerei und Caf\u00e9", "neighborhoods": [], "longitude": 8.25536, "state": "BW", "stars": 5.0, "latitude": 48.9109, "attributes": {"Price Range": 2}, "type": "business"}
{"business_id": "va1Mky2PWLHnRNWn8DKkkw", "full_address": "Degenfeldstr. 1\n76131 Karlsruhe", "hours": {}, "open": false, "categories": ["Food", "Grocery", "Cafes", "Coffee & Tea", "Restaurants"], "city": "Karlsruhe", "review_count": 3, "name": "Caf\u00e9 Sani", "neighborhoods": [], "longitude": 8.42112, "state": "BW", "stars": 3.0, "latitude": 49.0081, "attributes": {"Take-out": false, "Delivery": false, "Dogs Allowed": false, "Outdoor Seating": true, "Parking": {"garage": false, "street": false, "validated": false, "lot": false, "valet": false}, "Smoking": "no", "Accepts Credit Cards": false}, "type": "business"}
{"business_id": "7NGxiZ5ya3FYIncTCU4jIA", "full_address": "Kriegsstra\u00dfe 5\nBeim Renaissance Hotel\n76131 Karlsruhe", "hours": {}, "open": true, "categories": ["Hair Salons", "Food", "Grocery", "Beauty & Spas"], "city": "Karlsruhe", "review_count": 7, "name": "Erna", "neighborhoods": [], "longitude": 8.4303821, "state": "BW", "stars": 4.5, "latitude": 49.0116951, "attributes": {"Parking": {"garage": false, "validated": false, "street": false, "lot": false, "valet": false}, "Accepts Credit Cards": false, "Wheelchair Accessible": true, "Price Range": 3}, "type": "business"}
{"business_id": "QRTW1rfw1KKjsSHbboCaJQ", "full_address": "Richard-Wagner-Str. 27\n76275 Ettlingen", "hours": {}, "open": true, "categories": ["Bakeries", "Grocery", "Shopping", "Food", "Post Offices", "Butcher", "Public Services & Government"], "city": "Ettlingen", "review_count": 5, "name": "CAP-Markt", "neighborhoods": [], "longitude": 8.36592, "state": "BW", "stars": 4.5, "latitude": 48.9246, "attributes": {"Price Range": 3}, "type": "business"}
{"business_id": "bhwbuKiu0f6FdhAx6_hgVQ", "full_address": "Theodorf-Rehbockstr. 11\n76131 Karlsruhe", "hours": {"Monday": {"close": "22:00", "open": "07:00"}, "Tuesday": {"close": "22:00", "open": "07:00"}, "Friday": {"close": "22:00", "open": "07:00"}, "Wednesday": {"close": "22:00", "open": "07:00"}, "Thursday": {"close": "22:00", "open": "07:00"}, "Saturday": {"close": "22:00", "open": "07:00"}}, "open": true, "categories": ["Food", "Grocery", "Beverage Store"], "city": "Karlsruhe", "review_count": 4, "name": "REWE", "neighborhoods": [], "longitude": 8.43855, "state": "BW", "stars": 3.5, "latitude": 49.00982, "attributes": {"Parking": {"garage": false, "street": false, "validated": false, "lot": false, "valet": false}, "Accepts Credit Cards": true, "Price Range": 2}, "type": "business"}
{"business_id": "kgVAfgnBMaiumvKnz5FShQ", "full_address": "Carl-Metz-Str. 7\n76185 Karlsruhe", "hours": {"Monday": {"close": "22:00", "open": "07:00"}, "Tuesday": {"close": "22:00", "open": "07:00"}, "Friday": {"close": "00:00", "open": "07:00"}, "Wednesday": {"close": "22:00", "open": "07:00"}, "Thursday": {"close": "00:00", "open": "07:00"}, "Saturday": {"close": "23:30", "open": "07:00"}}, "open": true, "categories": ["Food", "Grocery"], "city": "Karlsruhe", "review_count": 3, "name": "Kaufland", "neighborhoods": [], "longitude": 8.35220572516567, "state": "BW", "stars": 3.5, "latitude": 49.0096804340542, "attributes": {"Parking": {"garage": false, "street": false, "validated": false, "lot": false, "valet": false}, "Accepts Credit Cards": true, "Price Range": 2}, "type": "business"}
{"business_id": "a1LTUTyHEe4z63KGiaSuog", "full_address": "R\u00fcppurrer Str. 1\n76137 Karlsruhe", "hours": {}, "open": true, "categories": ["Food", "Grocery"], "city": "Karlsruhe", "review_count": 24, "name": "Scheck- in Center", "neighborhoods": [], "longitude": 8.4106836, "state": "BW", "stars": 4.5, "latitude": 49.0053857, "attributes": {"Parking": {"garage": true, "street": false, "validated": false, "lot": false, "valet": false}, "Accepts Credit Cards": true, "Wheelchair Accessible": true, "Price Range": 3}, "type": "business"}
{"business_id": "tTy1Mm_nvhs_9XV8QuUXDg", "full_address": "Gr\u00fcnhutstr. 1\n76187 Karlsruhe", "hours": {"Monday": {"close": "21:00", "open": "08:00"}, "Tuesday": {"close": "21:00", "open": "08:00"}, "Friday": {"close": "21:00", "open": "08:00"}, "Wednesday": {"close": "21:00", "open": "08:00"}, "Thursday": {"close": "21:00", "open": "08:00"}, "Saturday": {"close": "21:00", "open": "08:00"}}, "open": true, "categories": ["Food", "Grocery"], "city": "Karlsruhe", "review_count": 3, "name": "Edeka", "neighborhoods": [], "longitude": 8.3521696, "state": "BW", "stars": 3.0, "latitude": 49.0366323, "attributes": {"Price Range": 2}, "type": "business"}
{"business_id": "YTnPEttnoV_syCBU_oqP4w", "full_address": "Kaiserallee 37-39\n76133 Karlsruhe", "hours": {"Monday": {"close": "20:00", "open": "08:00"}, "Tuesday": {"close": "20:00", "open": "08:00"}, "Friday": {"close": "20:00", "open": "08:00"}, "Wednesday": {"close": "20:00", "open": "08:00"}, "Thursday": {"close": "20:00", "open": "08:00"}, "Saturday": {"close": "20:00", "open": "08:00"}}, "open": true, "categories": ["Food", "Grocery"], "city": "Karlsruhe", "review_count": 4, "name": "CAP", "neighborhoods": [], "longitude": 8.3793, "state": "BW", "stars": 5.0, "latitude": 49.01021, "attributes": {"Parking": {"garage": false, "street": false, "validated": false, "lot": false, "valet": false}, "Accepts Credit Cards": false, "Price Range": 2}, "type": "business"}
{"business_id": "4aPi5_R5cu2OLnsB0v7e-Q", "full_address": "Durlacher Allee 111\n76137 Karlsruhe", "hours": {"Monday": {"close": "22:00", "open": "07:00"}, "Tuesday": {"close": "22:00", "open": "07:00"}, "Friday": {"close": "22:00", "open": "07:00"}, "Wednesday": {"close": "22:00", "open": "07:00"}, "Thursday": {"close": "22:00", "open": "07:00"}, "Saturday": {"close": "22:00", "open": "07:00"}}, "open": true, "categories": ["Food", "Grocery"], "city": "Karlsruhe", "review_count": 9, "name": "real,- SB Warenhaus", "neighborhoods": [], "longitude": 8.44789624214172, "state": "BW", "stars": 3.0, "latitude": 49.0044340146416, "attributes": {"Parking": {"garage": false, "street": false, "validated": false, "lot": true, "valet": false}, "Accepts Credit Cards": true, "Wheelchair Accessible": true, "Price Range": 2}, "type": "business"}
{"business_id": "CDjAcUDYcvYCFvMYE3L4Pg", "full_address": "Georg-Friedrich-Str. 9\n76131 Karlsruhe", "hours": {"Monday": {"close": "22:00", "open": "07:00"}, "Tuesday": {"close": "22:00", "open": "07:00"}, "Friday": {"close": "22:00", "open": "07:00"}, "Wednesday": {"close": "22:00", "open": "07:00"}, "Thursday": {"close": "22:00", "open": "07:00"}, "Saturday": {"close": "22:00", "open": "07:00"}}, "open": true, "categories": ["Food", "Grocery", "Beverage Store"], "city": "Karlsruhe", "review_count": 3, "name": "REWE City", "neighborhoods": [], "longitude": 8.4237798, "state": "BW", "stars": 1.5, "latitude": 49.0097022, "attributes": {"Parking": {}, "Accepts Credit Cards": true, "Price Range": 2}, "type": "business"}
{"business_id": "XOzf-Nn9W_TIT7YlSTQpnQ", "full_address": "Fritz-Erler-Str. 1-3\n76133 Karlsruhe", "hours": {"Monday": {"close": "21:00", "open": "08:30"}, "Tuesday": {"close": "21:00", "open": "08:30"}, "Friday": {"close": "21:00", "open": "08:30"}, "Wednesday": {"close": "21:00", "open": "08:30"}, "Thursday": {"close": "21:00", "open": "08:30"}, "Saturday": {"close": "21:00", "open": "08:00"}}, "open": true, "categories": ["Food", "Grocery"], "city": "Karlsruhe", "review_count": 4, "name": "Edeka", "neighborhoods": [], "longitude": 8.41037747627912, "state": "BW", "stars": 3.5, "latitude": 49.0091470416241, "attributes": {"Parking": {"garage": false, "street": false, "validated": false, "lot": false, "valet": false}, "Accepts Credit Cards": true, "Wheelchair Accessible": true, "Price Range": 2}, "type": "business"}
{"business_id": "qjK0z9LZCJa8p4JljmC11w", "full_address": "Eisenstockstra\u00dfe 18\nStadtteil Ettlingenweier\n76275 Ettlingen", "hours": {}, "open": false, "categories": ["Food", "Grocery"], "city": "Ettlingen", "review_count": 3, "name": "T.I.M.O. Italienischer Einkaufsmarkt GmbH", "neighborhoods": [], "longitude": 8.37438, "state": "BW", "stars": 3.5, "latitude": 48.9204, "attributes": {"Parking": {"garage": false, "street": false, "validated": false, "lot": false, "valet": false}, "Price Range": 3}, "type": "business"}
{"business_id": "yZpwR6FB0jSd8TlfoX3LaA", "full_address": "Bannwaldallee 42\n76185 Karlsruhe", "hours": {"Monday": {"close": "21:00", "open": "07:00"}, "Tuesday": {"close": "21:00", "open": "07:00"}, "Friday": {"close": "21:00", "open": "07:00"}, "Wednesday": {"close": "21:00", "open": "07:00"}, "Thursday": {"close": "21:00", "open": "07:00"}, "Saturday": {"close": "20:00", "open": "07:00"}}, "open": true, "categories": ["Food", "Grocery"], "city": "Karlsruhe", "review_count": 5, "name": "Metro", "neighborhoods": [], "longitude": 8.36951, "state": "BW", "stars": 3.5, "latitude": 48.9996, "attributes": {"Parking": {"garage": false, "street": false, "validated": false, "lot": false, "valet": false}, "Accepts Credit Cards": true, "Price Range": 2}, "type": "business"}
{"business_id": "YiGyXgA9lAFFZcu_JkP0qw", "full_address": "Zehntwiesenstr. 47\n76275 Ettlingen", "hours": {}, "open": true, "categories": ["Food", "Grocery"], "city": "Ettlingen", "review_count": 3, "name": "real,-", "neighborhoods": [], "longitude": 8.3894149, "state": "BW", "stars": 3.5, "latitude": 48.9454278, "attributes": {}, "type": "business"}
{"business_id": "Tm3w1r_ysQSxu-hnV9BetA", "full_address": "Industriestr. 6\n76467 Bietigheim", "hours": {}, "open": true, "categories": ["Bakeries", "Grocery", "Food", "Cafes", "Coffee & Tea", "Restaurants"], "city": "Bietigheim", "review_count": 3, "name": "F\u00f6ry B\u00e4ckerei und Caf\u00e9", "neighborhoods": [], "longitude": 8.25536, "state": "BW", "stars": 5.0, "latitude": 48.9109, "attributes": {"Price Range": 2}, "type": "business"}
{"business_id": "va1Mky2PWLHnRNWn8DKkkw", "full_address": "Degenfeldstr. 1\n76131 Karlsruhe", "hours": {}, "open": false, "categories": ["Food", "Grocery", "Cafes", "Coffee & Tea", "Restaurants"], "city": "Karlsruhe", "review_count": 3, "name": "Caf\u00e9 Sani", "neighborhoods": [], "longitude": 8.42112, "state": "BW", "stars": 3.0, "latitude": 49.0081, "attributes": {"Take-out": false, "Delivery": false, "Dogs Allowed": false, "Outdoor Seating": true, "Parking": {"garage": false, "street": false, "validated": false, "lot": false, "valet": false}, "Smoking": "no", "Accepts Credit Cards": false}, "type": "business"}
{"business_id": "7NGxiZ5ya3FYIncTCU4jIA", "full_address": "Kriegsstra\u00dfe 5\nBeim Renaissance Hotel\n76131 Karlsruhe", "hours": {}, "open": true, "categories": ["Hair Salons", "Food", "Grocery", "Beauty & Spas"], "city": "Karlsruhe", "review_count": 7, "name": "Erna", "neighborhoods": [], "longitude": 8.4303821, "state": "BW", "stars": 4.5, "latitude": 49.0116951, "attributes": {"Parking": {"garage": false, "validated": false, "street": false, "lot": false, "valet": false}, "Accepts Credit Cards": false, "Wheelchair Accessible": true, "Price Range": 3}, "type": "business"}
{"business_id": "QRTW1rfw1KKjsSHbboCaJQ", "full_address": "Richard-Wagner-Str. 27\n76275 Ettlingen", "hours": {}, "open": true, "categories": ["Bakeries", "Grocery", "Shopping", "Food", "Post Offices", "Butcher", "Public Services & Government"], "city": "Ettlingen", "review_count": 5, "name": "CAP-Markt", "neighborhoods": [], "longitude": 8.36592, "state": "BW", "stars": 4.5, "latitude": 48.9246, "attributes": {"Price Range": 3}, "type": "business"}
{"business_id": "bhwbuKiu0f6FdhAx6_hgVQ", "full_address": "Theodorf-Rehbockstr. 11\n76131 Karlsruhe", "hours": {"Monday": {"close": "22:00", "open": "07:00"}, "Tuesday": {"close": "22:00", "open": "07:00"}, "Friday": {"close": "22:00", "open": "07:00"}, "Wednesday": {"close": "22:00", "open": "07:00"}, "Thursday": {"close": "22:00", "open": "07:00"}, "Saturday": {"close": "22:00", "open": "07:00"}}, "open": true, "categories": ["Food", "Grocery", "Beverage Store"], "city": "Karlsruhe", "review_count": 4, "name": "REWE", "neighborhoods": [], "longitude": 8.43855, "state": "BW", "stars": 3.5, "latitude": 49.00982, "attributes": {"Parking": {"garage": false, "street": false, "validated": false, "lot": false, "valet": false}, "Accepts Credit Cards": true, "Price Range": 2}, "type": "business"}
{"business_id": "kgVAfgnBMaiumvKnz5FShQ", "full_address": "Carl-Metz-Str. 7\n76185 Karlsruhe", "hours": {"Monday": {"close": "22:00", "open": "07:00"}, "Tuesday": {"close": "22:00", "open": "07:00"}, "Friday": {"close": "00:00", "open": "07:00"}, "Wednesday": {"close": "22:00", "open": "07:00"}, "Thursday": {"close": "00:00", "open": "07:00"}, "Saturday": {"close": "23:30", "open": "07:00"}}, "open": true, "categories": ["Food", "Grocery"], "city": "Karlsruhe", "review_count": 3, "name": "Kaufland", "neighborhoods": [], "longitude": 8.35220572516567, "state": "BW", "stars": 3.5, "latitude": 49.0096804340542, "attributes": {"Parking": {"garage": false, "street": false, "validated": false, "lot": false, "valet": false}, "Accepts Credit Cards": true, "Price Range": 2}, "type": "business"}
{"business_id": "a1LTUTyHEe4z63KGiaSuog", "full_address": "R\u00fcppurrer Str. 1\n76137 Karlsruhe", "hours": {}, "open": true, "categories": ["Food", "Grocery"], "city": "Karlsruhe", "review_count": 24, "name": "Scheck- in Center", "neighborhoods": [], "longitude": 8.4106836, "state": "BW", "stars": 4.5, "latitude": 49.0053857, "attributes": {"Parking": {"garage": true, "street": false, "validated": false, "lot": false, "valet": false}, "Accepts Credit Cards": true, "Wheelchair Accessible": true, "Price Range": 3}, "type": "business"}
{"business_id": "tTy1Mm_nvhs_9XV8QuUXDg", "full_address": "Gr\u00fcnhutstr. 1\n76187 Karlsruhe", "hours": {"Monday": {"close": "21:00", "open": "08:00"}, "Tuesday": {"close": "21:00", "open": "08:00"}, "Friday": {"close": "21:00", "open": "08:00"}, "Wednesday": {"close": "21:00", "open": "08:00"}, "Thursday": {"close": "21:00", "open": "08:00"}, "Saturday": {"close": "21:00", "open": "08:00"}}, "open": true, "categories": ["Food", "Grocery"], "city": "Karlsruhe", "review_count": 3, "name": "Edeka", "neighborhoods": [], "longitude": 8.3521696, "state": "BW", "stars": 3.0, "latitude": 49.0366323, "attributes": {"Price Range": 2}, "type": "business"}
{"business_id": "YTnPEttnoV_syCBU_oqP4w", "full_address": "Kaiserallee 37-39\n76133 Karlsruhe", "hours": {"Monday": {"close": "20:00", "open": "08:00"}, "Tuesday": {"close": "20:00", "open": "08:00"}, "Friday": {"close": "20:00", "open": "08:00"}, "Wednesday": {"close": "20:00", "open": "08:00"}, "Thursday": {"close": "20:00", "open": "08:00"}, "Saturday": {"close": "20:00", "open": "08:00"}}, "open": true, "categories": ["Food", "Grocery"], "city": "Karlsruhe", "review_count": 4, "name": "CAP", "neighborhoods": [], "longitude": 8.3793, "state": "BW", "stars": 5.0, "latitude": 49.01021, "attributes": {"Parking": {"garage": false, "street": false, "validated": false, "lot": false, "valet": false}, "Accepts Credit Cards": false, "Price Range": 2}, "type": "business"}
{"business_id": "4aPi5_R5cu2OLnsB0v7e-Q", "full_address": "Durlacher Allee 111\n76137 Karlsruhe", "hours": {"Monday": {"close": "22:00", "open": "07:00"}, "Tuesday": {"close": "22:00", "open": "07:00"}, "Friday": {"close": "22:00", "open": "07:00"}, "Wednesday": {"close": "22:00", "open": "07:00"}, "Thursday": {"close": "22:00", "open": "07:00"}, "Saturday": {"close": "22:00", "open": "07:00"}}, "open": true, "categories": ["Food", "Grocery"], "city": "Karlsruhe", "review_count": 9, "name": "real,- SB Warenhaus", "neighborhoods": [], "longitude": 8.44789624214172, "state": "BW", "stars": 3.0, "latitude": 49.0044340146416, "attributes": {"Parking": {"garage": false, "street": false, "validated": false, "lot": true, "valet": false}, "Accepts Credit Cards": true, "Wheelchair Accessible": true, "Price Range": 2}, "type": "business"}
{"business_id": "CDjAcUDYcvYCFvMYE3L4Pg", "full_address": "Georg-Friedrich-Str. 9\n76131 Karlsruhe", "hours": {"Monday": {"close": "22:00", "open": "07:00"}, "Tuesday": {"close": "22:00", "open": "07:00"}, "Friday": {"close": "22:00", "open": "07:00"}, "Wednesday": {"close": "22:00", "open": "07:00"}, "Thursday": {"close": "22:00", "open": "07:00"}, "Saturday": {"close": "22:00", "open": "07:00"}}, "open": true, "categories": ["Food", "Grocery", "Beverage Store"], "city": "Karlsruhe", "review_count": 3, "name": "REWE City", "neighborhoods": [], "longitude": 8.4237798, "state": "BW", "stars": 1.5, "latitude": 49.0097022, "attributes": {"Parking": {}, "Accepts Credit Cards": true, "Price Range": 2}, "type": "business"}
{"business_id": "XOzf-Nn9W_TIT7YlSTQpnQ", "full_address": "Fritz-Erler-Str. 1-3\n76133 Karlsruhe", "hours": {"Monday": {"close": "21:00", "open": "08:30"}, "Tuesday": {"close": "21:00", "open": "08:30"}, "Friday": {"close": "21:00", "open": "08:30"}, "Wednesday": {"close": "21:00", "open": "08:30"}, "Thursday": {"close": "21:00", "open": "08:30"}, "Saturday": {"close": "21:00", "open": "08:00"}}, "open": true, "categories": ["Food", "Grocery"], "city": "Karlsruhe", "review_count": 4, "name": "Edeka", "neighborhoods": [], "longitude": 8.41037747627912, "state": "BW", "stars": 3.5, "latitude": 49.0091470416241, "attributes": {"Parking": {"garage": false, "street": false, "validated": false, "lot": false, "valet": false}, "Accepts Credit Cards": true, "Wheelchair Accessible": true, "Price Range": 2}, "type": "business"}
{"business_id": "qjK0z9LZCJa8p4JljmC11w", "full_address": "Eisenstockstra\u00dfe 18\nStadtteil Ettlingenweier\n76275 Ettlingen", "hours": {}, "open": false, "categories": ["Food", "Grocery"], "city": "Ettlingen", "review_count": 3, "name": "T.I.M.O. Italienischer Einkaufsmarkt GmbH", "neighborhoods": [], "longitude": 8.37438, "state": "BW", "stars": 3.5, "latitude": 48.9204, "attributes": {"Parking": {"garage": false, "street": false, "validated": false, "lot": false, "valet": false}, "Price Range": 3}, "type": "business"}
{"business_id": "yZpwR6FB0jSd8TlfoX3LaA", "full_address": "Bannwaldallee 42\n76185 Karlsruhe", "hours": {"Monday": {"close": "21:00", "open": "07:00"}, "Tuesday": {"close": "21:00", "open": "07:00"}, "Friday": {"close": "21:00", "open": "07:00"}, "Wednesday": {"close": "21:00", "open": "07:00"}, "Thursday": {"close": "21:00", "open": "07:00"}, "Saturday": {"close": "20:00", "open": "07:00"}}, "open": true, "categories": ["Food", "Grocery"], "city": "Karlsruhe", "review_count": 5, "name": "Metro", "neighborhoods": [], "longitude": 8.36951, "state": "BW", "stars": 3.5, "latitude": 48.9996, "attributes": {"Parking": {"garage": false, "street": false, "validated": false, "lot": false, "valet": false}, "Accepts Credit Cards": true, "Price Range": 2}, "type": "business"}
{"business_id": "YiGyXgA9lAFFZcu_JkP0qw", "full_address": "Zehntwiesenstr. 47\n76275 Ettlingen", "hours": {}, "open": true, "categories": ["Food", "Grocery"], "city": "Ettlingen", "review_count": 3, "name": "real,-", "neighborhoods": [], "longitude": 8.3894149, "state": "BW", "stars": 3.5, "latitude": 48.9454278, "attributes": {}, "type": "business"}
