{"business_id": "VEa1bofX2Lx1Tucw0zEg3Q", "full_address": "Klauprechtstr. 25\n76137 Karlsruhe", "hours": {"Tuesday": {"close": "18:30", "open": "15:00"}, "Friday": {"close": "18:30", "open": "15:00"}, "Wednesday": {"close": "18:30", "open": "15:00"}, "Thursday": {"close": "18:30", "open": "15:00"}, "Saturday": {"close": "12:30", "open": "07:30"}}, "open": true, "categories": ["Food", "Specialty Food", "Caterers", "Meat Shops", "Event Planning & Services"], "city": "Karlsruhe", "review_count": 13, "name": "Metzgerei Heiko Brath", "neighborhoods": [], "longitude": 8.39112, "state": "BW", "stars": 5.0, "latitude": 49.0009, "attributes": {"Accepts Credit Cards": false, "Price Range": 2}, "type": "business"}
{"business_id": "kGQojQzVBP39GrQAN6fN7A", "full_address": "Sachsenstra\u00dfe 17\n76137 Karlsruhe", "hours": {}, "open": true, "categories": ["Food", "Bed & Breakfast", "Caterers", "Event Planning & Services", "Hotels & Travel", "Hotels"], "city": "Karlsruhe", "review_count": 4, "name": "Elite Hotel Garni", "neighborhoods": [], "longitude": 8.39155, "state": "BW", "stars": 4.5, "latitude": 48.99654, "attributes": {"Parking": {"garage": false, "validated": false, "street": false, "lot": false, "valet": false}, "Accepts Credit Cards": true, "Wheelchair Accessible": true, "Wi-Fi": "free", "Price Range": 2}, "type": "business"}
{"business_id": "GApmMso82MaAbCWWin3d5A", "full_address": "Adenauerring 17\n76131 Karlsruhe", "hours": {"Tuesday": {"close": "23:00", "open": "11:00"}, "Friday": {"close": "23:00", "open": "11:00"}, "Wednesday": {"close": "23:00", "open": "11:00"}, "Thursday": {"close": "23:00", "open": "11:00"}, "Sunday": {"close": "23:00", "open": "11:00"}, "Saturday": {"close": "23:00", "open": "11:00"}}, "open": true, "categories": ["Caterers", "Greek", "Event Planning & Services", "Active Life", "Sports Clubs", "Restaurants"], "city": "Karlsruhe", "review_count": 6, "name": " KSC-Clubhaus", "neighborhoods": [], "longitude": 8.41481, "state": "BW", "stars": 3.0, "latitude": 49.0206, "attributes": {"Take-out": false, "Delivery": false, "Dogs Allowed": false, "Outdoor Seating": true, "Parking": {"garage": false, "street": false, "validated": false, "lot": false, "valet": false}, "Smoking": "no", "Accepts Credit Cards": false, "Price Range": 3}, "type": "business"}
{"business_id": "rI-zKwYMA6ET1TK_oybZlA", "full_address": "Marienstr. 107\n76137 Karlsruhe", "hours": {}, "open": true, "categories": ["Food Delivery Services", "Food", "Caterers", "Event Planning & Services", "Italian", "Restaurants"], "city": "Karlsruhe", "review_count": 5, "name": "Pizza Heimservice Exzellent", "neighborhoods": [], "longitude": 8.40859, "state": "BW", "stars": 2.5, "latitude": 48.9964, "attributes": {"Delivery": true, "Price Range": 2}, "type": "business"}
{"business_id": "dSRFd9z_EpnW0-CCqmpPsg", "full_address": "Lorenzstr. 19\n76135 Karlsruhe", "hours": {}, "open": true, "categories": ["Bars", "Food", "Cafes", "Coffee & Tea", "Caterers", "Nightlife", "Event Planning & Services", "Restaurants"], "city": "Karlsruhe", "review_count": 6, "name": "ZetKaeM Restaurant, Bar, Caf\u00e9", "neighborhoods": [], "longitude": 8.38312, "state": "BW", "stars": 3.0, "latitude": 49.0018, "attributes": {"Parking": {"garage": false, "validated": false, "street": false, "lot": false, "valet": false}, "Price Range": 3}, "type": "business"}
{"business_id": "6FAJctqkP0uwTWfSV3lDSQ", "full_address": "Lange Str. 1\n76199 Karlsruhe", "hours": {}, "open": true, "categories": ["Caterers", "Event Planning & Services", "Austrian", "Hotels & Travel", "Hotels", "Restaurants"], "city": "Karlsruhe", "review_count": 14, "name": "Kofflers Heuriger", "neighborhoods": [], "longitude": 8.403436, "state": "BW", "stars": 3.0, "latitude": 48.9722843, "attributes": {"Take-out": false, "Good For": {"dessert": false, "latenight": false, "lunch": false, "dinner": false, "breakfast": false, "brunch": false}, "Takes Reservations": true, "Parking": {"garage": false, "validated": false, "street": false, "lot": false, "valet": false}, "Has TV": false, "Outdoor Seating": true, "Attire": "casual", "Alcohol": "beer_and_wine", "Smoking": "outdoor", "Accepts Credit Cards": true, "Good for Kids": true, "Good For Groups": true, "Price Range": 2}, "type": "business"}
{"business_id": "QX4eqLqfkmBVPGQana7Y4g", "full_address": "Am Rathausplatz 3\n76356 Weingarten", "hours": {}, "open": true, "categories": ["Food", "Specialty Food", "Caterers", "Meat Shops", "Event Planning & Services"], "city": "Weingarten", "review_count": 7, "name": "Metzgerei Kunzmann", "neighborhoods": [], "longitude": 8.53058, "state": "BW", "stars": 4.5, "latitude": 49.052, "attributes": {"Wheelchair Accessible": true, "Price Range": 4}, "type": "business"}
{"business_id": "FCgjMGPgKIEvvtquzEtjPQ", "full_address": "Albert-Nestler-Str.  10\n76131 Karlsruhe", "hours": {"Friday": {"close": "14:00", "open": "11:30"}, "Tuesday": {"close": "14:00", "open": "11:30"}, "Thursday": {"close": "14:00", "open": "11:30"}, "Wednesday": {"close": "14:00", "open": "11:30"}, "Monday": {"close": "14:00", "open": "11:30"}}, "open": true, "categories": ["Event Planning & Services", "Caterers"], "city": "Karlsruhe", "review_count": 3, "name": "Casino im Technologiepark", "neighborhoods": [], "longitude": 8.44139, "state": "BW", "stars": 2.5, "latitude": 49.0204, "attributes": {"Wi-Fi": "no", "Good For": {"dessert": false, "latenight": false, "lunch": false, "dinner": false, "breakfast": false, "brunch": false}, "Takes Reservations": false, "Wheelchair Accessible": true, "Outdoor Seating": true, "Parking": {"garage": false, "validated": false, "street": false, "lot": false, "valet": false}, "Alcohol": "none", "Smoking": "outdoor", "Accepts Credit Cards": false, "Good For Groups": true, "Price Range": 3}, "type": "business"}
{"business_id": "VEa1bofX2Lx1Tucw0zEg3Q", "full_address": "Klauprechtstr. 25\n76137 Karlsruhe", "hours": {"Tuesday": {"close": "18:30", "open": "15:00"}, "Friday": {"close": "18:30", "open": "15:00"}, "Wednesday": {"close": "18:30", "open": "15:00"}, "Thursday": {"close": "18:30", "open": "15:00"}, "Saturday": {"close": "12:30", "open": "07:30"}}, "open": true, "categories": ["Food", "Specialty Food", "Caterers", "Meat Shops", "Event Planning & Services"], "city": "Karlsruhe", "review_count": 13, "name": "Metzgerei Heiko Brath", "neighborhoods": [], "longitude": 8.39112, "state": "BW", "stars": 5.0, "latitude": 49.0009, "attributes": {"Accepts Credit Cards": false, "Price Range": 2}, "type": "business"}
{"business_id": "kGQojQzVBP39GrQAN6fN7A", "full_address": "Sachsenstra\u00dfe 17\n76137 Karlsruhe", "hours": {}, "open": true, "categories": ["Food", "Bed & Breakfast", "Caterers", "Event Planning & Services", "Hotels & Travel", "Hotels"], "city": "Karlsruhe", "review_count": 4, "name": "Elite Hotel Garni", "neighborhoods": [], "longitude": 8.39155, "state": "BW", "stars": 4.5, "latitude": 48.99654, "attributes": {"Parking": {"garage": false, "validated": false, "street": false, "lot": false, "valet": false}, "Accepts Credit Cards": true, "Wheelchair Accessible": true, "Wi-Fi": "free", "Price Range": 2}, "type": "business"}
{"business_id": "GApmMso82MaAbCWWin3d5A", "full_address": "Adenauerring 17\n76131 Karlsruhe", "hours": {"Tuesday": {"close": "23:00", "open": "11:00"}, "Friday": {"close": "23:00", "open": "11:00"}, "Wednesday": {"close": "23:00", "open": "11:00"}, "Thursday": {"close": "23:00", "open": "11:00"}, "Sunday": {"close": "23:00", "open": "11:00"}, "Saturday": {"close": "23:00", "open": "11:00"}}, "open": true, "categories": ["Caterers", "Greek", "Event Planning & Services", "Active Life", "Sports Clubs", "Restaurants"], "city": "Karlsruhe", "review_count": 6, "name": " KSC-Clubhaus", "neighborhoods": [], "longitude": 8.41481, "state": "BW", "stars": 3.0, "latitude": 49.0206, "attributes": {"Take-out": false, "Delivery": false, "Dogs Allowed": false, "Outdoor Seating": true, "Parking": {"garage": false, "street": false, "validated": false, "lot": false, "valet": false}, "Smoking": "no", "Accepts Credit Cards": false, "Price Range": 3}, "type": "business"}
{"business_id": "rI-zKwYMA6ET1TK_oybZlA", "full_address": "Marienstr. 107\n76137 Karlsruhe", "hours": {}, "open": true, "categories": ["Food Delivery Services", "Food", "Caterers", "Event Planning & Services", "Italian", "Restaurants"], "city": "Karlsruhe", "review_count": 5, "name": "Pizza Heimservice Exzellent", "neighborhoods": [], "longitude": 8.40859, "state": "BW", "stars": 2.5, "latitude": 48.9964, "attributes": {"Delivery": true, "Price Range": 2}, "type": "business"}
{"business_id": "dSRFd9z_EpnW0-CCqmpPsg", "full_address": "Lorenzstr. 19\n76135 Karlsruhe", "hours": {}, "open": true, "categories": ["Bars", "Food", "Cafes", "Coffee & Tea", "Caterers", "Nightlife", "Event Planning & Services", "Restaurants"], "city": "Karlsruhe", "review_count": 6, "name": "ZetKaeM Restaurant, Bar, Caf\u00e9", "neighborhoods": [], "longitude": 8.38312, "state": "BW", "stars": 3.0, "latitude": 49.0018, "attributes": {"Parking": {"garage": false, "validated": false, "street": false, "lot": false, "valet": false}, "Price Range": 3}, "type": "business"}
{"business_id": "6FAJctqkP0uwTWfSV3lDSQ", "full_address": "Lange Str. 1\n76199 Karlsruhe", "hours": {}, "open": true, "categories": ["Caterers", "Event Planning & Services", "Austrian", "Hotels & Travel", "Hotels", "Restaurants"], "city": "Karlsruhe", "review_count": 14, "name": "Kofflers Heuriger", "neighborhoods": [], "longitude": 8.403436, "state": "BW", "stars": 3.0, "latitude": 48.9722843, "attributes": {"Take-out": false, "Good For": {"dessert": false, "latenight": false, "lunch": false, "dinner": false, "breakfast": false, "brunch": false}, "Takes Reservations": true, "Parking": {"garage": false, "validated": false, "street": false, "lot": false, "valet": false}, "Has TV": false, "Outdoor Seating": true, "Attire": "casual", "Alcohol": "beer_and_wine", "Smoking": "outdoor", "Accepts Credit Cards": true, "Good for Kids": true, "Good For Groups": true, "Price Range": 2}, "type": "business"}
{"business_id": "QX4eqLqfkmBVPGQana7Y4g", "full_address": "Am Rathausplatz 3\n76356 Weingarten", "hours": {}, "open": true, "categories": ["Food", "Specialty Food", "Caterers", "Meat Shops", "Event Planning & Services"], "city": "Weingarten", "review_count": 7, "name": "Metzgerei Kunzmann", "neighborhoods": [], "longitude": 8.53058, "state": "BW", "stars": 4.5, "latitude": 49.052, "attributes": {"Wheelchair Accessible": true, "Price Range": 4}, "type": "business"}
{"business_id": "FCgjMGPgKIEvvtquzEtjPQ", "full_address": "Albert-Nestler-Str.  10\n76131 Karlsruhe", "hours": {"Friday": {"close": "14:00", "open": "11:30"}, "Tuesday": {"close": "14:00", "open": "11:30"}, "Thursday": {"close": "14:00", "open": "11:30"}, "Wednesday": {"close": "14:00", "open": "11:30"}, "Monday": {"close": "14:00", "open": "11:30"}}, "open": true, "categories": ["Event Planning & Services", "Caterers"], "city": "Karlsruhe", "review_count": 3, "name": "Casino im Technologiepark", "neighborhoods": [], "longitude": 8.44139, "state": "BW", "stars": 2.5, "latitude": 49.0204, "attributes": {"Wi-Fi": "no", "Good For": {"dessert": false, "latenight": false, "lunch": false, "dinner": false, "breakfast": false, "brunch": false}, "Takes Reservations": false, "Wheelchair Accessible": true, "Outdoor Seating": true, "Parking": {"garage": false, "validated": false, "street": false, "lot": false, "valet": false}, "Alcohol": "none", "Smoking": "outdoor", "Accepts Credit Cards": false, "Good For Groups": true, "Price Range": 3}, "type": "business"}
{"business_id": "VEa1bofX2Lx1Tucw0zEg3Q", "full_address": "Klauprechtstr. 25\n76137 Karlsruhe", "hours": {"Tuesday": {"close": "18:30", "open": "15:00"}, "Friday": {"close": "18:30", "open": "15:00"}, "Wednesday": {"close": "18:30", "open": "15:00"}, "Thursday": {"close": "18:30", "open": "15:00"}, "Saturday": {"close": "12:30", "open": "07:30"}}, "open": true, "categories": ["Food", "Specialty Food", "Caterers", "Meat Shops", "Event Planning & Services"], "city": "Karlsruhe", "review_count": 13, "name": "Metzgerei Heiko Brath", "neighborhoods": [], "longitude": 8.39112, "state": "BW", "stars": 5.0, "latitude": 49.0009, "attributes": {"Accepts Credit Cards": false, "Price Range": 2}, "type": "business"}
{"business_id": "kGQojQzVBP39GrQAN6fN7A", "full_address": "Sachsenstra\u00dfe 17\n76137 Karlsruhe", "hours": {}, "open": true, "categories": ["Food", "Bed & Breakfast", "Caterers", "Event Planning & Services", "Hotels & Travel", "Hotels"], "city": "Karlsruhe", "review_count": 4, "name": "Elite Hotel Garni", "neighborhoods": [], "longitude": 8.39155, "state": "BW", "stars": 4.5, "latitude": 48.99654, "attributes": {"Parking": {"garage": false, "validated": false, "street": false, "lot": false, "valet": false}, "Accepts Credit Cards": true, "Wheelchair Accessible": true, "Wi-Fi": "free", "Price Range": 2}, "type": "business"}
{"business_id": "GApmMso82MaAbCWWin3d5A", "full_address": "Adenauerring 17\n76131 Karlsruhe", "hours": {"Tuesday": {"close": "23:00", "open": "11:00"}, "Friday": {"close": "23:00", "open": "11:00"}, "Wednesday": {"close": "23:00", "open": "11:00"}, "Thursday": {"close": "23:00", "open": "11:00"}, "Sunday": {"close": "23:00", "open": "11:00"}, "Saturday": {"close": "23:00", "open": "11:00"}}, "open": true, "categories": ["Caterers", "Greek", "Event Planning & Services", "Active Life", "Sports Clubs", "Restaurants"], "city": "Karlsruhe", "review_count": 6, "name": " KSC-Clubhaus", "neighborhoods": [], "longitude": 8.41481, "state": "BW", "stars": 3.0, "latitude": 49.0206, "attributes": {"Take-out": false, "Delivery": false, "Dogs Allowed": false, "Outdoor Seating": true, "Parking": {"garage": false, "street": false, "validated": false, "lot": false, "valet": false}, "Smoking": "no", "Accepts Credit Cards": false, "Price Range": 3}, "type": "business"}
{"business_id": "rI-zKwYMA6ET1TK_oybZlA", "full_address": "Marienstr. 107\n76137 Karlsruhe", "hours": {}, "open": true, "categories": ["Food Delivery Services", "Food", "Caterers", "Event Planning & Services", "Italian", "Restaurants"], "city": "Karlsruhe", "review_count": 5, "name": "Pizza Heimservice Exzellent", "neighborhoods": [], "longitude": 8.40859, "state": "BW", "stars": 2.5, "latitude": 48.9964, "attributes": {"Delivery": true, "Price Range": 2}, "type": "business"}
{"business_id": "dSRFd9z_EpnW0-CCqmpPsg", "full_address": "Lorenzstr. 19\n76135 Karlsruhe", "hours": {}, "open": true, "categories": ["Bars", "Food", "Cafes", "Coffee & Tea", "Caterers", "Nightlife", "Event Planning & Services", "Restaurants"], "city": "Karlsruhe", "review_count": 6, "name": "ZetKaeM Restaurant, Bar, Caf\u00e9", "neighborhoods": [], "longitude": 8.38312, "state": "BW", "stars": 3.0, "latitude": 49.0018, "attributes": {"Parking": {"garage": false, "validated": false, "street": false, "lot": false, "valet": false}, "Price Range": 3}, "type": "business"}
{"business_id": "6FAJctqkP0uwTWfSV3lDSQ", "full_address": "Lange Str. 1\n76199 Karlsruhe", "hours": {}, "open": true, "categories": ["Caterers", "Event Planning & Services", "Austrian", "Hotels & Travel", "Hotels", "Restaurants"], "city": "Karlsruhe", "review_count": 14, "name": "Kofflers Heuriger", "neighborhoods": [], "longitude": 8.403436, "state": "BW", "stars": 3.0, "latitude": 48.9722843, "attributes": {"Take-out": false, "Good For": {"dessert": false, "latenight": false, "lunch": false, "dinner": false, "breakfast": false, "brunch": false}, "Takes Reservations": true, "Parking": {"garage": false, "validated": false, "street": false, "lot": false, "valet": false}, "Has TV": false, "Outdoor Seating": true, "Attire": "casual", "Alcohol": "beer_and_wine", "Smoking": "outdoor", "Accepts Credit Cards": true, "Good for Kids": true, "Good For Groups": true, "Price Range": 2}, "type": "business"}
{"business_id": "QX4eqLqfkmBVPGQana7Y4g", "full_address": "Am Rathausplatz 3\n76356 Weingarten", "hours": {}, "open": true, "categories": ["Food", "Specialty Food", "Caterers", "Meat Shops", "Event Planning & Services"], "city": "Weingarten", "review_count": 7, "name": "Metzgerei Kunzmann", "neighborhoods": [], "longitude": 8.53058, "state": "BW", "stars": 4.5, "latitude": 49.052, "attributes": {"Wheelchair Accessible": true, "Price Range": 4}, "type": "business"}
{"business_id": "FCgjMGPgKIEvvtquzEtjPQ", "full_address": "Albert-Nestler-Str.  10\n76131 Karlsruhe", "hours": {"Friday": {"close": "14:00", "open": "11:30"}, "Tuesday": {"close": "14:00", "open": "11:30"}, "Thursday": {"close": "14:00", "open": "11:30"}, "Wednesday": {"close": "14:00", "open": "11:30"}, "Monday": {"close": "14:00", "open": "11:30"}}, "open": true, "categories": ["Event Planning & Services", "Caterers"], "city": "Karlsruhe", "review_count": 3, "name": "Casino im Technologiepark", "neighborhoods": [], "longitude": 8.44139, "state": "BW", "stars": 2.5, "latitude": 49.0204, "attributes": {"Wi-Fi": "no", "Good For": {"dessert": false, "latenight": false, "lunch": false, "dinner": false, "breakfast": false, "brunch": false}, "Takes Reservations": false, "Wheelchair Accessible": true, "Outdoor Seating": true, "Parking": {"garage": false, "validated": false, "street": false, "lot": false, "valet": false}, "Alcohol": "none", "Smoking": "outdoor", "Accepts Credit Cards": false, "Good For Groups": true, "Price Range": 3}, "type": "business"}
{"business_id": "VEa1bofX2Lx1Tucw0zEg3Q", "full_address": "Klauprechtstr. 25\n76137 Karlsruhe", "hours": {"Tuesday": {"close": "18:30", "open": "15:00"}, "Friday": {"close": "18:30", "open": "15:00"}, "Wednesday": {"close": "18:30", "open": "15:00"}, "Thursday": {"close": "18:30", "open": "15:00"}, "Saturday": {"close": "12:30", "open": "07:30"}}, "open": true, "categories": ["Food", "Specialty Food", "Caterers", "Meat Shops", "Event Planning & Services"], "city": "Karlsruhe", "review_count": 13, "name": "Metzgerei Heiko Brath", "neighborhoods": [], "longitude": 8.39112, "state": "BW", "stars": 5.0, "latitude": 49.0009, "attributes": {"Accepts Credit Cards": false, "Price Range": 2}, "type": "business"}
{"business_id": "kGQojQzVBP39GrQAN6fN7A", "full_address": "Sachsenstra\u00dfe 17\n76137 Karlsruhe", "hours": {}, "open": true, "categories": ["Food", "Bed & Breakfast", "Caterers", "Event Planning & Services", "Hotels & Travel", "Hotels"], "city": "Karlsruhe", "review_count": 4, "name": "Elite Hotel Garni", "neighborhoods": [], "longitude": 8.39155, "state": "BW", "stars": 4.5, "latitude": 48.99654, "attributes": {"Parking": {"garage": false, "validated": false, "street": false, "lot": false, "valet": false}, "Accepts Credit Cards": true, "Wheelchair Accessible": true, "Wi-Fi": "free", "Price Range": 2}, "type": "business"}
{"business_id": "GApmMso82MaAbCWWin3d5A", "full_address": "Adenauerring 17\n76131 Karlsruhe", "hours": {"Tuesday": {"close": "23:00", "open": "11:00"}, "Friday": {"close": "23:00", "open": "11:00"}, "Wednesday": {"close": "23:00", "open": "11:00"}, "Thursday": {"close": "23:00", "open": "11:00"}, "Sunday": {"close": "23:00", "open": "11:00"}, "Saturday": {"close": "23:00", "open": "11:00"}}, "open": true, "categories": ["Caterers", "Greek", "Event Planning & Services", "Active Life", "Sports Clubs", "Restaurants"], "city": "Karlsruhe", "review_count": 6, "name": " KSC-Clubhaus", "neighborhoods": [], "longitude": 8.41481, "state": "BW", "stars": 3.0, "latitude": 49.0206, "attributes": {"Take-out": false, "Delivery": false, "Dogs Allowed": false, "Outdoor Seating": true, "Parking": {"garage": false, "street": false, "validated": false, "lot": false, "valet": false}, "Smoking": "no", "Accepts Credit Cards": false, "Price Range": 3}, "type": "business"}
{"business_id": "rI-zKwYMA6ET1TK_oybZlA", "full_address": "Marienstr. 107\n76137 Karlsruhe", "hours": {}, "open": true, "categories": ["Food Delivery Services", "Food", "Caterers", "Event Planning & Services", "Italian", "Restaurants"], "city": "Karlsruhe", "review_count": 5, "name": "Pizza Heimservice Exzellent", "neighborhoods": [], "longitude": 8.40859, "state": "BW", "stars": 2.5, "latitude": 48.9964, "attributes": {"Delivery": true, "Price Range": 2}, "type": "business"}
{"business_id": "dSRFd9z_EpnW0-CCqmpPsg", "full_address": "Lorenzstr. 19\n76135 Karlsruhe", "hours": {}, "open": true, "categories": ["Bars", "Food", "Cafes", "Coffee & Tea", "Caterers", "Nightlife", "Event Planning & Services", "Restaurants"], "city": "Karlsruhe", "review_count": 6, "name": "ZetKaeM Restaurant, Bar, Caf\u00e9", "neighborhoods": [], "longitude": 8.38312, "state": "BW", "stars": 3.0, "latitude": 49.0018, "attributes": {"Parking": {"garage": false, "validated": false, "street": false, "lot": false, "valet": false}, "Price Range": 3}, "type": "business"}
{"business_id": "6FAJctqkP0uwTWfSV3lDSQ", "full_address": "Lange Str. 1\n76199 Karlsruhe", "hours": {}, "open": true, "categories": ["Caterers", "Event Planning & Services", "Austrian", "Hotels & Travel", "Hotels", "Restaurants"], "city": "Karlsruhe", "review_count": 14, "name": "Kofflers Heuriger", "neighborhoods": [], "longitude": 8.403436, "state": "BW", "stars": 3.0, "latitude": 48.9722843, "attributes": {"Take-out": false, "Good For": {"dessert": false, "latenight": false, "lunch": false, "dinner": false, "breakfast": false, "brunch": false}, "Takes Reservations": true, "Parking": {"garage": false, "validated": false, "street": false, "lot": false, "valet": false}, "Has TV": false, "Outdoor Seating": true, "Attire": "casual", "Alcohol": "beer_and_wine", "Smoking": "outdoor", "Accepts Credit Cards": true, "Good for Kids": true, "Good For Groups": true, "Price Range": 2}, "type": "business"}
{"business_id": "QX4eqLqfkmBVPGQana7Y4g", "full_address": "Am Rathausplatz 3\n76356 Weingarten", "hours": {}, "open": true, "categories": ["Food", "Specialty Food", "Caterers", "Meat Shops", "Event Planning & Services"], "city": "Weingarten", "review_count": 7, "name": "Metzgerei Kunzmann", "neighborhoods": [], "longitude": 8.53058, "state": "BW", "stars": 4.5, "latitude": 49.052, "attributes": {"Wheelchair Accessible": true, "Price Range": 4}, "type": "business"}
{"business_id": "FCgjMGPgKIEvvtquzEtjPQ", "full_address": "Albert-Nestler-Str.  10\n76131 Karlsruhe", "hours": {"Friday": {"close": "14:00", "open": "11:30"}, "Tuesday": {"close": "14:00", "open": "11:30"}, "Thursday": {"close": "14:00", "open": "11:30"}, "Wednesday": {"close": "14:00", "open": "11:30"}, "Monday": {"close": "14:00", "open": "11:30"}}, "open": true, "categories": ["Event Planning & Services", "Caterers"], "city": "Karlsruhe", "review_count": 3, "name": "Casino im Technologiepark", "neighborhoods": [], "longitude": 8.44139, "state": "BW", "stars": 2.5, "latitude": 49.0204, "attributes": {"Wi-Fi": "no", "Good For": {"dessert": false, "latenight": false, "lunch": false, "dinner": false, "breakfast": false, "brunch": false}, "Takes Reservations": false, "Wheelchair Accessible": true, "Outdoor Seating": true, "Parking": {"garage": false, "validated": false, "street": false, "lot": false, "valet": false}, "Alcohol": "none", "Smoking": "outdoor", "Accepts Credit Cards": false, "Good For Groups": true, "Price Range": 3}, "type": "business"}
{"business_id": "VEa1bofX2Lx1Tucw0zEg3Q", "full_address": "Klauprechtstr. 25\n76137 Karlsruhe", "hours": {"Tuesday": {"close": "18:30", "open": "15:00"}, "Friday": {"close": "18:30", "open": "15:00"}, "Wednesday": {"close": "18:30", "open": "15:00"}, "Thursday": {"close": "18:30", "open": "15:00"}, "Saturday": {"close": "12:30", "open": "07:30"}}, "open": true, "categories": ["Food", "Specialty Food", "Caterers", "Meat Shops", "Event Planning & Services"], "city": "Karlsruhe", "review_count": 13, "name": "Metzgerei Heiko Brath", "neighborhoods": [], "longitude": 8.39112, "state": "BW", "stars": 5.0, "latitude": 49.0009, "attributes": {"Accepts Credit Cards": false, "Price Range": 2}, "type": "business"}
{"business_id": "kGQojQzVBP39GrQAN6fN7A", "full_address": "Sachsenstra\u00dfe 17\n76137 Karlsruhe", "hours": {}, "open": true, "categories": ["Food", "Bed & Breakfast", "Caterers", "Event Planning & Services", "Hotels & Travel", "Hotels"], "city": "Karlsruhe", "review_count": 4, "name": "Elite Hotel Garni", "neighborhoods": [], "longitude": 8.39155, "state": "BW", "stars": 4.5, "latitude": 48.99654, "attributes": {"Parking": {"garage": false, "validated": false, "street": false, "lot": false, "valet": false}, "Accepts Credit Cards": true, "Wheelchair Accessible": true, "Wi-Fi": "free", "Price Range": 2}, "type": "business"}
{"business_id": "GApmMso82MaAbCWWin3d5A", "full_address": "Adenauerring 17\n76131 Karlsruhe", "hours": {"Tuesday": {"close": "23:00", "open": "11:00"}, "Friday": {"close": "23:00", "open": "11:00"}, "Wednesday": {"close": "23:00", "open": "11:00"}, "Thursday": {"close": "23:00", "open": "11:00"}, "Sunday": {"close": "23:00", "open": "11:00"}, "Saturday": {"close": "23:00", "open": "11:00"}}, "open": true, "categories": ["Caterers", "Greek", "Event Planning & Services", "Active Life", "Sports Clubs", "Restaurants"], "city": "Karlsruhe", "review_count": 6, "name": " KSC-Clubhaus", "neighborhoods": [], "longitude": 8.41481, "state": "BW", "stars": 3.0, "latitude": 49.0206, "attributes": {"Take-out": false, "Delivery": false, "Dogs Allowed": false, "Outdoor Seating": true, "Parking": {"garage": false, "street": false, "validated": false, "lot": false, "valet": false}, "Smoking": "no", "Accepts Credit Cards": false, "Price Range": 3}, "type": "business"}
{"business_id": "rI-zKwYMA6ET1TK_oybZlA", "full_address": "Marienstr. 107\n76137 Karlsruhe", "hours": {}, "open": true, "categories": ["Food Delivery Services", "Food", "Caterers", "Event Planning & Services", "Italian", "Restaurants"], "city": "Karlsruhe", "review_count": 5, "name": "Pizza Heimservice Exzellent", "neighborhoods": [], "longitude": 8.40859, "state": "BW", "stars": 2.5, "latitude": 48.9964, "attributes": {"Delivery": true, "Price Range": 2}, "type": "business"}
{"business_id": "dSRFd9z_EpnW0-CCqmpPsg", "full_address": "Lorenzstr. 19\n76135 Karlsruhe", "hours": {}, "open": true, "categories": ["Bars", "Food", "Cafes", "Coffee & Tea", "Caterers", "Nightlife", "Event Planning & Services", "Restaurants"], "city": "Karlsruhe", "review_count": 6, "name": "ZetKaeM Restaurant, Bar, Caf\u00e9", "neighborhoods": [], "longitude": 8.38312, "state": "BW", "stars": 3.0, "latitude": 49.0018, "attributes": {"Parking": {"garage": false, "validated": false, "street": false, "lot": false, "valet": false}, "Price Range": 3}, "type": "business"}
{"business_id": "6FAJctqkP0uwTWfSV3lDSQ", "full_address": "Lange Str. 1\n76199 Karlsruhe", "hours": {}, "open": true, "categories": ["Caterers", "Event Planning & Services", "Austrian", "Hotels & Travel", "Hotels", "Restaurants"], "city": "Karlsruhe", "review_count": 14, "name": "Kofflers Heuriger", "neighborhoods": [], "longitude": 8.403436, "state": "BW", "stars": 3.0, "latitude": 48.9722843, "attributes": {"Take-out": false, "Good For": {"dessert": false, "latenight": false, "lunch": false, "dinner": false, "breakfast": false, "brunch": false}, "Takes Reservations": true, "Parking": {"garage": false, "validated": false, "street": false, "lot": false, "valet": false}, "Has TV": false, "Outdoor Seating": true, "Attire": "casual", "Alcohol": "beer_and_wine", "Smoking": "outdoor", "Accepts Credit Cards": true, "Good for Kids": true, "Good For Groups": true, "Price Range": 2}, "type": "business"}
{"business_id": "QX4eqLqfkmBVPGQana7Y4g", "full_address": "Am Rathausplatz 3\n76356 Weingarten", "hours": {}, "open": true, "categories": ["Food", "Specialty Food", "Caterers", "Meat Shops", "Event Planning & Services"], "city": "Weingarten", "review_count": 7, "name": "Metzgerei Kunzmann", "neighborhoods": [], "longitude": 8.53058, "state": "BW", "stars": 4.5, "latitude": 49.052, "attributes": {"Wheelchair Accessible": true, "Price Range": 4}, "type": "business"}
{"business_id": "FCgjMGPgKIEvvtquzEtjPQ", "full_address": "Albert-Nestler-Str.  10\n76131 Karlsruhe", "hours": {"Friday": {"close": "14:00", "open": "11:30"}, "Tuesday": {"close": "14:00", "open": "11:30"}, "Thursday": {"close": "14:00", "open": "11:30"}, "Wednesday": {"close": "14:00", "open": "11:30"}, "Monday": {"close": "14:00", "open": "11:30"}}, "open": true, "categories": ["Event Planning & Services", "Caterers"], "city": "Karlsruhe", "review_count": 3, "name": "Casino im Technologiepark", "neighborhoods": [], "longitude": 8.44139, "state": "BW", "stars": 2.5, "latitude": 49.0204, "attributes": {"Wi-Fi": "no", "Good For": {"dessert": false, "latenight": false, "lunch": false, "dinner": false, "breakfast": false, "brunch": false}, "Takes Reservations": false, "Wheelchair Accessible": true, "Outdoor Seating": true, "Parking": {"garage": false, "validated": false, "street": false, "lot": false, "valet": false}, "Alcohol": "none", "Smoking": "outdoor", "Accepts Credit Cards": false, "Good For Groups": true, "Price Range": 3}, "type": "business"}
{"business_id": "VEa1bofX2Lx1Tucw0zEg3Q", "full_address": "Klauprechtstr. 25\n76137 Karlsruhe", "hours": {"Tuesday": {"close": "18:30", "open": "15:00"}, "Friday": {"close": "18:30", "open": "15:00"}, "Wednesday": {"close": "18:30", "open": "15:00"}, "Thursday": {"close": "18:30", "open": "15:00"}, "Saturday": {"close": "12:30", "open": "07:30"}}, "open": true, "categories": ["Food", "Specialty Food", "Caterers", "Meat Shops", "Event Planning & Services"], "city": "Karlsruhe", "review_count": 13, "name": "Metzgerei Heiko Brath", "neighborhoods": [], "longitude": 8.39112, "state": "BW", "stars": 5.0, "latitude": 49.0009, "attributes": {"Accepts Credit Cards": false, "Price Range": 2}, "type": "business"}
{"business_id": "kGQojQzVBP39GrQAN6fN7A", "full_address": "Sachsenstra\u00dfe 17\n76137 Karlsruhe", "hours": {}, "open": true, "categories": ["Food", "Bed & Breakfast", "Caterers", "Event Planning & Services", "Hotels & Travel", "Hotels"], "city": "Karlsruhe", "review_count": 4, "name": "Elite Hotel Garni", "neighborhoods": [], "longitude": 8.39155, "state": "BW", "stars": 4.5, "latitude": 48.99654, "attributes": {"Parking": {"garage": false, "validated": false, "street": false, "lot": false, "valet": false}, "Accepts Credit Cards": true, "Wheelchair Accessible": true, "Wi-Fi": "free", "Price Range": 2}, "type": "business"}
{"business_id": "GApmMso82MaAbCWWin3d5A", "full_address": "Adenauerring 17\n76131 Karlsruhe", "hours": {"Tuesday": {"close": "23:00", "open": "11:00"}, "Friday": {"close": "23:00", "open": "11:00"}, "Wednesday": {"close": "23:00", "open": "11:00"}, "Thursday": {"close": "23:00", "open": "11:00"}, "Sunday": {"close": "23:00", "open": "11:00"}, "Saturday": {"close": "23:00", "open": "11:00"}}, "open": true, "categories": ["Caterers", "Greek", "Event Planning & Services", "Active Life", "Sports Clubs", "Restaurants"], "city": "Karlsruhe", "review_count": 6, "name": " KSC-Clubhaus", "neighborhoods": [], "longitude": 8.41481, "state": "BW", "stars": 3.0, "latitude": 49.0206, "attributes": {"Take-out": false, "Delivery": false, "Dogs Allowed": false, "Outdoor Seating": true, "Parking": {"garage": false, "street": false, "validated": false, "lot": false, "valet": false}, "Smoking": "no", "Accepts Credit Cards": false, "Price Range": 3}, "type": "business"}
{"business_id": "rI-zKwYMA6ET1TK_oybZlA", "full_address": "Marienstr. 107\n76137 Karlsruhe", "hours": {}, "open": true, "categories": ["Food Delivery Services", "Food", "Caterers", "Event Planning & Services", "Italian", "Restaurants"], "city": "Karlsruhe", "review_count": 5, "name": "Pizza Heimservice Exzellent", "neighborhoods": [], "longitude": 8.40859, "state": "BW", "stars": 2.5, "latitude": 48.9964, "attributes": {"Delivery": true, "Price Range": 2}, "type": "business"}
{"business_id": "dSRFd9z_EpnW0-CCqmpPsg", "full_address": "Lorenzstr. 19\n76135 Karlsruhe", "hours": {}, "open": true, "categories": ["Bars", "Food", "Cafes", "Coffee & Tea", "Caterers", "Nightlife", "Event Planning & Services", "Restaurants"], "city": "Karlsruhe", "review_count": 6, "name": "ZetKaeM Restaurant, Bar, Caf\u00e9", "neighborhoods": [], "longitude": 8.38312, "state": "BW", "stars": 3.0, "latitude": 49.0018, "attributes": {"Parking": {"garage": false, "validated": false, "street": false, "lot": false, "valet": false}, "Price Range": 3}, "type": "business"}
{"business_id": "6FAJctqkP0uwTWfSV3lDSQ", "full_address": "Lange Str. 1\n76199 Karlsruhe", "hours": {}, "open": true, "categories": ["Caterers", "Event Planning & Services", "Austrian", "Hotels & Travel", "Hotels", "Restaurants"], "city": "Karlsruhe", "review_count": 14, "name": "Kofflers Heuriger", "neighborhoods": [], "longitude": 8.403436, "state": "BW", "stars": 3.0, "latitude": 48.9722843, "attributes": {"Take-out": false, "Good For": {"dessert": false, "latenight": false, "lunch": false, "dinner": false, "breakfast": false, "brunch": false}, "Takes Reservations": true, "Parking": {"garage": false, "validated": false, "street": false, "lot": false, "valet": false}, "Has TV": false, "Outdoor Seating": true, "Attire": "casual", "Alcohol": "beer_and_wine", "Smoking": "outdoor", "Accepts Credit Cards": true, "Good for Kids": true, "Good For Groups": true, "Price Range": 2}, "type": "business"}
{"business_id": "QX4eqLqfkmBVPGQana7Y4g", "full_address": "Am Rathausplatz 3\n76356 Weingarten", "hours": {}, "open": true, "categories": ["Food", "Specialty Food", "Caterers", "Meat Shops", "Event Planning & Services"], "city": "Weingarten", "review_count": 7, "name": "Metzgerei Kunzmann", "neighborhoods": [], "longitude": 8.53058, "state": "BW", "stars": 4.5, "latitude": 49.052, "attributes": {"Wheelchair Accessible": true, "Price Range": 4}, "type": "business"}
{"business_id": "FCgjMGPgKIEvvtquzEtjPQ", "full_address": "Albert-Nestler-Str.  10\n76131 Karlsruhe", "hours": {"Friday": {"close": "14:00", "open": "11:30"}, "Tuesday": {"close": "14:00", "open": "11:30"}, "Thursday": {"close": "14:00", "open": "11:30"}, "Wednesday": {"close": "14:00", "open": "11:30"}, "Monday": {"close": "14:00", "open": "11:30"}}, "open": true, "categories": ["Event Planning & Services", "Caterers"], "city": "Karlsruhe", "review_count": 3, "name": "Casino im Technologiepark", "neighborhoods": [], "longitude": 8.44139, "state": "BW", "stars": 2.5, "latitude": 49.0204, "attributes": {"Wi-Fi": "no", "Good For": {"dessert": false, "latenight": false, "lunch": false, "dinner": false, "breakfast": false, "brunch": false}, "Takes Reservations": false, "Wheelchair Accessible": true, "Outdoor Seating": true, "Parking": {"garage": false, "validated": false, "street": false, "lot": false, "valet": false}, "Alcohol": "none", "Smoking": "outdoor", "Accepts Credit Cards": false, "Good For Groups": true, "Price Range": 3}, "type": "business"}
