{"business_id": "JwTJcaBBc6Z2ckGCPFo0Zw", "full_address": "Turnerstr. 44\n76189 Karlsruhe", "hours": {}, "open": true, "categories": ["Pediatric Dentists", "Health & Medical", "Dentists"], "city": "Karlsruhe", "review_count": 3, "name": "Kinder\u00e4rzte Stephan Kathrin Pfisterer Prinz", "neighborhoods": [], "longitude": 8.33613, "state": "BW", "stars": 4.0, "latitude": 49.0029, "attributes": {"Accepts Credit Cards": false, "Wheelchair Accessible": true, "Parking": {"garage": false, "validated": false, "street": false, "lot": false, "valet": false}}, "type": "business"}
{"business_id": "JwTJcaBBc6Z2ckGCPFo0Zw", "full_address": "Turnerstr. 44\n76189 Karlsruhe", "hours": {}, "open": true, "categories": ["Pediatric Dentists", "Health & Medical", "Dentists"], "city": "Karlsruhe", "review_count": 3, "name": "Kinder\u00e4rzte Stephan Kathrin Pfisterer Prinz", "neighborhoods": [], "longitude": 8.33613, "state": "BW", "stars": 4.0, "latitude": 49.0029, "attributes": {"Accepts Credit Cards": false, "Wheelchair Accessible": true, "Parking": {"garage": false, "validated": false, "street": false, "lot": false, "valet": false}}, "type": "business"}
{"business_id": "JwTJcaBBc6Z2ckGCPFo0Zw", "full_address": "Turnerstr. 44\n76189 Karlsruhe", "hours": {}, "open": true, "categories": ["Pediatric Dentists", "Health & Medical", "Dentists"], "city": "Karlsruhe", "review_count": 3, "name": "Kinder\u00e4rzte Stephan Kathrin Pfisterer Prinz", "neighborhoods": [], "longitude": 8.33613, "state": "BW", "stars": 4.0, "latitude": 49.0029, "attributes": {"Accepts Credit Cards": false, "Wheelchair Accessible": true, "Parking": {"garage": false, "validated": false, "street": false, "lot": false, "valet": false}}, "type": "business"}
{"business_id": "JwTJcaBBc6Z2ckGCPFo0Zw", "full_address": "Turnerstr. 44\n76189 Karlsruhe", "hours": {}, "open": true, "categories": ["Pediatric Dentists", "Health & Medical", "Dentists"], "city": "Karlsruhe", "review_count": 3, "name": "Kinder\u00e4rzte Stephan Kathrin Pfisterer Prinz", "neighborhoods": [], "longitude": 8.33613, "state": "BW", "stars": 4.0, "latitude": 49.0029, "attributes": {"Accepts Credit Cards": false, "Wheelchair Accessible": true, "Parking": {"garage": false, "validated": false, "street": false, "lot": false, "valet": false}}, "type": "business"}
{"business_id": "JwTJcaBBc6Z2ckGCPFo0Zw", "full_address": "Turnerstr. 44\n76189 Karlsruhe", "hours": {}, "open": true, "categories": ["Pediatric Dentists", "Health & Medical", "Dentists"], "city": "Karlsruhe", "review_count": 3, "name": "Kinder\u00e4rzte Stephan Kathrin Pfisterer Prinz", "neighborhoods": [], "longitude": 8.33613, "state": "BW", "stars": 4.0, "latitude": 49.0029, "attributes": {"Accepts Credit Cards": false, "Wheelchair Accessible": true, "Parking": {"garage": false, "validated": false, "street": false, "lot": false, "valet": false}}, "type": "business"}
{"business_id": "JwTJcaBBc6Z2ckGCPFo0Zw", "full_address": "Turnerstr. 44\n76189 Karlsruhe", "hours": {}, "open": true, "categories": ["Pediatric Dentists", "Health & Medical", "Dentists"], "city": "Karlsruhe", "review_count": 3, "name": "Kinder\u00e4rzte Stephan Kathrin Pfisterer Prinz", "neighborhoods": [], "longitude": 8.33613, "state": "BW", "stars": 4.0, "latitude": 49.0029, "attributes": {"Accepts Credit Cards": false, "Wheelchair Accessible": true, "Parking": {"garage": false, "validated": false, "street": false, "lot": false, "valet": false}}, "type": "business"}
