{"business_id": "9rCNYbOnBGKnn1otAa8nyw", "full_address": "Erbprinzenstr. 21\n76133 Karlsruhe", "hours": {}, "open": true, "categories": ["Shopping", "Home & Garden", "Furniture Stores"], "city": "Karlsruhe", "review_count": 7, "name": "Gr\u00fcner Krebs", "neighborhoods": [], "longitude": 8.39766, "state": "BW", "stars": 4.5, "latitude": 49.0087, "attributes": {"Price Range": 3}, "type": "business"}
{"business_id": "A7Zrif-apG0Lt6ml1bXSsg", "full_address": "Eggensteiner Stra\u00dfe 52\n76297 Stutensee", "hours": {}, "open": true, "categories": ["Children's Clothing", "Fashion", "Shopping", "Mattresses", "Home & Garden", "Furniture Stores"], "city": "Stutensee", "review_count": 4, "name": "Naturversand Kirschke", "neighborhoods": [], "longitude": 8.4665991, "state": "BW", "stars": 3.5, "latitude": 49.0655226, "attributes": {}, "type": "business"}
{"business_id": "PDt_BG9mYtdBf3mxvZyw3g", "full_address": "Ruschgraben 90\n76139 Karlsruhe", "hours": {"Monday": {"close": "20:00", "open": "10:00"}, "Tuesday": {"close": "20:00", "open": "10:00"}, "Friday": {"close": "20:00", "open": "10:00"}, "Wednesday": {"close": "20:00", "open": "10:00"}, "Thursday": {"close": "20:00", "open": "10:00"}, "Saturday": {"close": "20:00", "open": "10:00"}}, "open": true, "categories": ["Shopping", "Home & Garden", "Furniture Stores"], "city": "Karlsruhe", "review_count": 3, "name": "Roller", "neighborhoods": [], "longitude": 8.45697, "state": "BW", "stars": 2.5, "latitude": 49.0209, "attributes": {"Parking": {"garage": false, "validated": false, "street": false, "lot": false, "valet": false}}, "type": "business"}
{"business_id": "lPLr1-rZziBW6gVDENLUUQ", "full_address": "Pfinztalstr. 90\n76227 Karlsruhe", "hours": {"Monday": {"close": "19:00", "open": "10:00"}, "Tuesday": {"close": "19:00", "open": "10:00"}, "Friday": {"close": "20:00", "open": "10:00"}, "Wednesday": {"close": "19:00", "open": "10:00"}, "Thursday": {"close": "19:00", "open": "10:00"}, "Saturday": {"close": "18:00", "open": "10:00"}}, "open": true, "categories": ["Shopping", "Home & Garden", "Furniture Stores"], "city": "Karlsruhe", "review_count": 7, "name": "Gr\u00fcner Krebs", "neighborhoods": [], "longitude": 8.46756, "state": "BW", "stars": 4.5, "latitude": 49.0017, "attributes": {}, "type": "business"}
{"business_id": "wefS54RONhAHbY9CreX4Hw", "full_address": "Durlacher Allee 109\n76137 Karlsruhe", "hours": {"Monday": {"close": "19:00", "open": "10:00"}, "Tuesday": {"close": "19:00", "open": "10:00"}, "Friday": {"close": "19:00", "open": "10:00"}, "Wednesday": {"close": "19:00", "open": "10:00"}, "Thursday": {"close": "19:00", "open": "10:00"}, "Saturday": {"close": "19:00", "open": "10:00"}}, "open": true, "categories": ["Shopping", "Home & Garden", "Furniture Stores"], "city": "Karlsruhe", "review_count": 18, "name": "Xxxl Mann Mobilia", "neighborhoods": [], "longitude": 8.44425, "state": "BW", "stars": 3.0, "latitude": 49.004, "attributes": {"Take-out": false, "Good For": {"dessert": false, "latenight": false, "lunch": false, "dinner": false, "breakfast": false, "brunch": false}, "Parking": {"garage": false, "street": false, "validated": false, "lot": true, "valet": false}, "Delivery": false, "Wheelchair Accessible": true, "Outdoor Seating": false, "Attire": "casual", "Smoking": "no", "Accepts Credit Cards": true, "Good For Groups": true, "Price Range": 3}, "type": "business"}
{"business_id": "zik3Lj994wNXYkYoK1PqKQ", "full_address": "Am Storrenacker 2\n76139 Karlsruhe", "hours": {"Monday": {"close": "20:00", "open": "10:00"}, "Tuesday": {"close": "20:00", "open": "10:00"}, "Friday": {"close": "20:00", "open": "10:00"}, "Wednesday": {"close": "20:00", "open": "10:00"}, "Thursday": {"close": "20:00", "open": "10:00"}, "Saturday": {"close": "19:00", "open": "09:00"}}, "open": true, "categories": ["Shopping", "Home Decor", "Home & Garden", "Furniture Stores"], "city": "Karlsruhe", "review_count": 7, "name": "M\u00f6max", "neighborhoods": [], "longitude": 8.45814, "state": "BW", "stars": 2.0, "latitude": 49.02025, "attributes": {"Parking": {"garage": false, "validated": false, "street": false, "lot": false, "valet": false}, "Wheelchair Accessible": false, "Price Range": 2}, "type": "business"}
{"business_id": "9rCNYbOnBGKnn1otAa8nyw", "full_address": "Erbprinzenstr. 21\n76133 Karlsruhe", "hours": {}, "open": true, "categories": ["Shopping", "Home & Garden", "Furniture Stores"], "city": "Karlsruhe", "review_count": 7, "name": "Gr\u00fcner Krebs", "neighborhoods": [], "longitude": 8.39766, "state": "BW", "stars": 4.5, "latitude": 49.0087, "attributes": {"Price Range": 3}, "type": "business"}
{"business_id": "A7Zrif-apG0Lt6ml1bXSsg", "full_address": "Eggensteiner Stra\u00dfe 52\n76297 Stutensee", "hours": {}, "open": true, "categories": ["Children's Clothing", "Fashion", "Shopping", "Mattresses", "Home & Garden", "Furniture Stores"], "city": "Stutensee", "review_count": 4, "name": "Naturversand Kirschke", "neighborhoods": [], "longitude": 8.4665991, "state": "BW", "stars": 3.5, "latitude": 49.0655226, "attributes": {}, "type": "business"}
{"business_id": "PDt_BG9mYtdBf3mxvZyw3g", "full_address": "Ruschgraben 90\n76139 Karlsruhe", "hours": {"Monday": {"close": "20:00", "open": "10:00"}, "Tuesday": {"close": "20:00", "open": "10:00"}, "Friday": {"close": "20:00", "open": "10:00"}, "Wednesday": {"close": "20:00", "open": "10:00"}, "Thursday": {"close": "20:00", "open": "10:00"}, "Saturday": {"close": "20:00", "open": "10:00"}}, "open": true, "categories": ["Shopping", "Home & Garden", "Furniture Stores"], "city": "Karlsruhe", "review_count": 3, "name": "Roller", "neighborhoods": [], "longitude": 8.45697, "state": "BW", "stars": 2.5, "latitude": 49.0209, "attributes": {"Parking": {"garage": false, "validated": false, "street": false, "lot": false, "valet": false}}, "type": "business"}
{"business_id": "lPLr1-rZziBW6gVDENLUUQ", "full_address": "Pfinztalstr. 90\n76227 Karlsruhe", "hours": {"Monday": {"close": "19:00", "open": "10:00"}, "Tuesday": {"close": "19:00", "open": "10:00"}, "Friday": {"close": "20:00", "open": "10:00"}, "Wednesday": {"close": "19:00", "open": "10:00"}, "Thursday": {"close": "19:00", "open": "10:00"}, "Saturday": {"close": "18:00", "open": "10:00"}}, "open": true, "categories": ["Shopping", "Home & Garden", "Furniture Stores"], "city": "Karlsruhe", "review_count": 7, "name": "Gr\u00fcner Krebs", "neighborhoods": [], "longitude": 8.46756, "state": "BW", "stars": 4.5, "latitude": 49.0017, "attributes": {}, "type": "business"}
{"business_id": "wefS54RONhAHbY9CreX4Hw", "full_address": "Durlacher Allee 109\n76137 Karlsruhe", "hours": {"Monday": {"close": "19:00", "open": "10:00"}, "Tuesday": {"close": "19:00", "open": "10:00"}, "Friday": {"close": "19:00", "open": "10:00"}, "Wednesday": {"close": "19:00", "open": "10:00"}, "Thursday": {"close": "19:00", "open": "10:00"}, "Saturday": {"close": "19:00", "open": "10:00"}}, "open": true, "categories": ["Shopping", "Home & Garden", "Furniture Stores"], "city": "Karlsruhe", "review_count": 18, "name": "Xxxl Mann Mobilia", "neighborhoods": [], "longitude": 8.44425, "state": "BW", "stars": 3.0, "latitude": 49.004, "attributes": {"Take-out": false, "Good For": {"dessert": false, "latenight": false, "lunch": false, "dinner": false, "breakfast": false, "brunch": false}, "Parking": {"garage": false, "street": false, "validated": false, "lot": true, "valet": false}, "Delivery": false, "Wheelchair Accessible": true, "Outdoor Seating": false, "Attire": "casual", "Smoking": "no", "Accepts Credit Cards": true, "Good For Groups": true, "Price Range": 3}, "type": "business"}
{"business_id": "zik3Lj994wNXYkYoK1PqKQ", "full_address": "Am Storrenacker 2\n76139 Karlsruhe", "hours": {"Monday": {"close": "20:00", "open": "10:00"}, "Tuesday": {"close": "20:00", "open": "10:00"}, "Friday": {"close": "20:00", "open": "10:00"}, "Wednesday": {"close": "20:00", "open": "10:00"}, "Thursday": {"close": "20:00", "open": "10:00"}, "Saturday": {"close": "19:00", "open": "09:00"}}, "open": true, "categories": ["Shopping", "Home Decor", "Home & Garden", "Furniture Stores"], "city": "Karlsruhe", "review_count": 7, "name": "M\u00f6max", "neighborhoods": [], "longitude": 8.45814, "state": "BW", "stars": 2.0, "latitude": 49.02025, "attributes": {"Parking": {"garage": false, "validated": false, "street": false, "lot": false, "valet": false}, "Wheelchair Accessible": false, "Price Range": 2}, "type": "business"}
{"business_id": "9rCNYbOnBGKnn1otAa8nyw", "full_address": "Erbprinzenstr. 21\n76133 Karlsruhe", "hours": {}, "open": true, "categories": ["Shopping", "Home & Garden", "Furniture Stores"], "city": "Karlsruhe", "review_count": 7, "name": "Gr\u00fcner Krebs", "neighborhoods": [], "longitude": 8.39766, "state": "BW", "stars": 4.5, "latitude": 49.0087, "attributes": {"Price Range": 3}, "type": "business"}
{"business_id": "A7Zrif-apG0Lt6ml1bXSsg", "full_address": "Eggensteiner Stra\u00dfe 52\n76297 Stutensee", "hours": {}, "open": true, "categories": ["Children's Clothing", "Fashion", "Shopping", "Mattresses", "Home & Garden", "Furniture Stores"], "city": "Stutensee", "review_count": 4, "name": "Naturversand Kirschke", "neighborhoods": [], "longitude": 8.4665991, "state": "BW", "stars": 3.5, "latitude": 49.0655226, "attributes": {}, "type": "business"}
{"business_id": "PDt_BG9mYtdBf3mxvZyw3g", "full_address": "Ruschgraben 90\n76139 Karlsruhe", "hours": {"Monday": {"close": "20:00", "open": "10:00"}, "Tuesday": {"close": "20:00", "open": "10:00"}, "Friday": {"close": "20:00", "open": "10:00"}, "Wednesday": {"close": "20:00", "open": "10:00"}, "Thursday": {"close": "20:00", "open": "10:00"}, "Saturday": {"close": "20:00", "open": "10:00"}}, "open": true, "categories": ["Shopping", "Home & Garden", "Furniture Stores"], "city": "Karlsruhe", "review_count": 3, "name": "Roller", "neighborhoods": [], "longitude": 8.45697, "state": "BW", "stars": 2.5, "latitude": 49.0209, "attributes": {"Parking": {"garage": false, "validated": false, "street": false, "lot": false, "valet": false}}, "type": "business"}
{"business_id": "lPLr1-rZziBW6gVDENLUUQ", "full_address": "Pfinztalstr. 90\n76227 Karlsruhe", "hours": {"Monday": {"close": "19:00", "open": "10:00"}, "Tuesday": {"close": "19:00", "open": "10:00"}, "Friday": {"close": "20:00", "open": "10:00"}, "Wednesday": {"close": "19:00", "open": "10:00"}, "Thursday": {"close": "19:00", "open": "10:00"}, "Saturday": {"close": "18:00", "open": "10:00"}}, "open": true, "categories": ["Shopping", "Home & Garden", "Furniture Stores"], "city": "Karlsruhe", "review_count": 7, "name": "Gr\u00fcner Krebs", "neighborhoods": [], "longitude": 8.46756, "state": "BW", "stars": 4.5, "latitude": 49.0017, "attributes": {}, "type": "business"}
{"business_id": "wefS54RONhAHbY9CreX4Hw", "full_address": "Durlacher Allee 109\n76137 Karlsruhe", "hours": {"Monday": {"close": "19:00", "open": "10:00"}, "Tuesday": {"close": "19:00", "open": "10:00"}, "Friday": {"close": "19:00", "open": "10:00"}, "Wednesday": {"close": "19:00", "open": "10:00"}, "Thursday": {"close": "19:00", "open": "10:00"}, "Saturday": {"close": "19:00", "open": "10:00"}}, "open": true, "categories": ["Shopping", "Home & Garden", "Furniture Stores"], "city": "Karlsruhe", "review_count": 18, "name": "Xxxl Mann Mobilia", "neighborhoods": [], "longitude": 8.44425, "state": "BW", "stars": 3.0, "latitude": 49.004, "attributes": {"Take-out": false, "Good For": {"dessert": false, "latenight": false, "lunch": false, "dinner": false, "breakfast": false, "brunch": false}, "Parking": {"garage": false, "street": false, "validated": false, "lot": true, "valet": false}, "Delivery": false, "Wheelchair Accessible": true, "Outdoor Seating": false, "Attire": "casual", "Smoking": "no", "Accepts Credit Cards": true, "Good For Groups": true, "Price Range": 3}, "type": "business"}
{"business_id": "zik3Lj994wNXYkYoK1PqKQ", "full_address": "Am Storrenacker 2\n76139 Karlsruhe", "hours": {"Monday": {"close": "20:00", "open": "10:00"}, "Tuesday": {"close": "20:00", "open": "10:00"}, "Friday": {"close": "20:00", "open": "10:00"}, "Wednesday": {"close": "20:00", "open": "10:00"}, "Thursday": {"close": "20:00", "open": "10:00"}, "Saturday": {"close": "19:00", "open": "09:00"}}, "open": true, "categories": ["Shopping", "Home Decor", "Home & Garden", "Furniture Stores"], "city": "Karlsruhe", "review_count": 7, "name": "M\u00f6max", "neighborhoods": [], "longitude": 8.45814, "state": "BW", "stars": 2.0, "latitude": 49.02025, "attributes": {"Parking": {"garage": false, "validated": false, "street": false, "lot": false, "valet": false}, "Wheelchair Accessible": false, "Price Range": 2}, "type": "business"}
{"business_id": "9rCNYbOnBGKnn1otAa8nyw", "full_address": "Erbprinzenstr. 21\n76133 Karlsruhe", "hours": {}, "open": true, "categories": ["Shopping", "Home & Garden", "Furniture Stores"], "city": "Karlsruhe", "review_count": 7, "name": "Gr\u00fcner Krebs", "neighborhoods": [], "longitude": 8.39766, "state": "BW", "stars": 4.5, "latitude": 49.0087, "attributes": {"Price Range": 3}, "type": "business"}
{"business_id": "A7Zrif-apG0Lt6ml1bXSsg", "full_address": "Eggensteiner Stra\u00dfe 52\n76297 Stutensee", "hours": {}, "open": true, "categories": ["Children's Clothing", "Fashion", "Shopping", "Mattresses", "Home & Garden", "Furniture Stores"], "city": "Stutensee", "review_count": 4, "name": "Naturversand Kirschke", "neighborhoods": [], "longitude": 8.4665991, "state": "BW", "stars": 3.5, "latitude": 49.0655226, "attributes": {}, "type": "business"}
{"business_id": "PDt_BG9mYtdBf3mxvZyw3g", "full_address": "Ruschgraben 90\n76139 Karlsruhe", "hours": {"Monday": {"close": "20:00", "open": "10:00"}, "Tuesday": {"close": "20:00", "open": "10:00"}, "Friday": {"close": "20:00", "open": "10:00"}, "Wednesday": {"close": "20:00", "open": "10:00"}, "Thursday": {"close": "20:00", "open": "10:00"}, "Saturday": {"close": "20:00", "open": "10:00"}}, "open": true, "categories": ["Shopping", "Home & Garden", "Furniture Stores"], "city": "Karlsruhe", "review_count": 3, "name": "Roller", "neighborhoods": [], "longitude": 8.45697, "state": "BW", "stars": 2.5, "latitude": 49.0209, "attributes": {"Parking": {"garage": false, "validated": false, "street": false, "lot": false, "valet": false}}, "type": "business"}
{"business_id": "lPLr1-rZziBW6gVDENLUUQ", "full_address": "Pfinztalstr. 90\n76227 Karlsruhe", "hours": {"Monday": {"close": "19:00", "open": "10:00"}, "Tuesday": {"close": "19:00", "open": "10:00"}, "Friday": {"close": "20:00", "open": "10:00"}, "Wednesday": {"close": "19:00", "open": "10:00"}, "Thursday": {"close": "19:00", "open": "10:00"}, "Saturday": {"close": "18:00", "open": "10:00"}}, "open": true, "categories": ["Shopping", "Home & Garden", "Furniture Stores"], "city": "Karlsruhe", "review_count": 7, "name": "Gr\u00fcner Krebs", "neighborhoods": [], "longitude": 8.46756, "state": "BW", "stars": 4.5, "latitude": 49.0017, "attributes": {}, "type": "business"}
{"business_id": "wefS54RONhAHbY9CreX4Hw", "full_address": "Durlacher Allee 109\n76137 Karlsruhe", "hours": {"Monday": {"close": "19:00", "open": "10:00"}, "Tuesday": {"close": "19:00", "open": "10:00"}, "Friday": {"close": "19:00", "open": "10:00"}, "Wednesday": {"close": "19:00", "open": "10:00"}, "Thursday": {"close": "19:00", "open": "10:00"}, "Saturday": {"close": "19:00", "open": "10:00"}}, "open": true, "categories": ["Shopping", "Home & Garden", "Furniture Stores"], "city": "Karlsruhe", "review_count": 18, "name": "Xxxl Mann Mobilia", "neighborhoods": [], "longitude": 8.44425, "state": "BW", "stars": 3.0, "latitude": 49.004, "attributes": {"Take-out": false, "Good For": {"dessert": false, "latenight": false, "lunch": false, "dinner": false, "breakfast": false, "brunch": false}, "Parking": {"garage": false, "street": false, "validated": false, "lot": true, "valet": false}, "Delivery": false, "Wheelchair Accessible": true, "Outdoor Seating": false, "Attire": "casual", "Smoking": "no", "Accepts Credit Cards": true, "Good For Groups": true, "Price Range": 3}, "type": "business"}
{"business_id": "zik3Lj994wNXYkYoK1PqKQ", "full_address": "Am Storrenacker 2\n76139 Karlsruhe", "hours": {"Monday": {"close": "20:00", "open": "10:00"}, "Tuesday": {"close": "20:00", "open": "10:00"}, "Friday": {"close": "20:00", "open": "10:00"}, "Wednesday": {"close": "20:00", "open": "10:00"}, "Thursday": {"close": "20:00", "open": "10:00"}, "Saturday": {"close": "19:00", "open": "09:00"}}, "open": true, "categories": ["Shopping", "Home Decor", "Home & Garden", "Furniture Stores"], "city": "Karlsruhe", "review_count": 7, "name": "M\u00f6max", "neighborhoods": [], "longitude": 8.45814, "state": "BW", "stars": 2.0, "latitude": 49.02025, "attributes": {"Parking": {"garage": false, "validated": false, "street": false, "lot": false, "valet": false}, "Wheelchair Accessible": false, "Price Range": 2}, "type": "business"}
{"business_id": "9rCNYbOnBGKnn1otAa8nyw", "full_address": "Erbprinzenstr. 21\n76133 Karlsruhe", "hours": {}, "open": true, "categories": ["Shopping", "Home & Garden", "Furniture Stores"], "city": "Karlsruhe", "review_count": 7, "name": "Gr\u00fcner Krebs", "neighborhoods": [], "longitude": 8.39766, "state": "BW", "stars": 4.5, "latitude": 49.0087, "attributes": {"Price Range": 3}, "type": "business"}
{"business_id": "A7Zrif-apG0Lt6ml1bXSsg", "full_address": "Eggensteiner Stra\u00dfe 52\n76297 Stutensee", "hours": {}, "open": true, "categories": ["Children's Clothing", "Fashion", "Shopping", "Mattresses", "Home & Garden", "Furniture Stores"], "city": "Stutensee", "review_count": 4, "name": "Naturversand Kirschke", "neighborhoods": [], "longitude": 8.4665991, "state": "BW", "stars": 3.5, "latitude": 49.0655226, "attributes": {}, "type": "business"}
{"business_id": "PDt_BG9mYtdBf3mxvZyw3g", "full_address": "Ruschgraben 90\n76139 Karlsruhe", "hours": {"Monday": {"close": "20:00", "open": "10:00"}, "Tuesday": {"close": "20:00", "open": "10:00"}, "Friday": {"close": "20:00", "open": "10:00"}, "Wednesday": {"close": "20:00", "open": "10:00"}, "Thursday": {"close": "20:00", "open": "10:00"}, "Saturday": {"close": "20:00", "open": "10:00"}}, "open": true, "categories": ["Shopping", "Home & Garden", "Furniture Stores"], "city": "Karlsruhe", "review_count": 3, "name": "Roller", "neighborhoods": [], "longitude": 8.45697, "state": "BW", "stars": 2.5, "latitude": 49.0209, "attributes": {"Parking": {"garage": false, "validated": false, "street": false, "lot": false, "valet": false}}, "type": "business"}
{"business_id": "lPLr1-rZziBW6gVDENLUUQ", "full_address": "Pfinztalstr. 90\n76227 Karlsruhe", "hours": {"Monday": {"close": "19:00", "open": "10:00"}, "Tuesday": {"close": "19:00", "open": "10:00"}, "Friday": {"close": "20:00", "open": "10:00"}, "Wednesday": {"close": "19:00", "open": "10:00"}, "Thursday": {"close": "19:00", "open": "10:00"}, "Saturday": {"close": "18:00", "open": "10:00"}}, "open": true, "categories": ["Shopping", "Home & Garden", "Furniture Stores"], "city": "Karlsruhe", "review_count": 7, "name": "Gr\u00fcner Krebs", "neighborhoods": [], "longitude": 8.46756, "state": "BW", "stars": 4.5, "latitude": 49.0017, "attributes": {}, "type": "business"}
{"business_id": "wefS54RONhAHbY9CreX4Hw", "full_address": "Durlacher Allee 109\n76137 Karlsruhe", "hours": {"Monday": {"close": "19:00", "open": "10:00"}, "Tuesday": {"close": "19:00", "open": "10:00"}, "Friday": {"close": "19:00", "open": "10:00"}, "Wednesday": {"close": "19:00", "open": "10:00"}, "Thursday": {"close": "19:00", "open": "10:00"}, "Saturday": {"close": "19:00", "open": "10:00"}}, "open": true, "categories": ["Shopping", "Home & Garden", "Furniture Stores"], "city": "Karlsruhe", "review_count": 18, "name": "Xxxl Mann Mobilia", "neighborhoods": [], "longitude": 8.44425, "state": "BW", "stars": 3.0, "latitude": 49.004, "attributes": {"Take-out": false, "Good For": {"dessert": false, "latenight": false, "lunch": false, "dinner": false, "breakfast": false, "brunch": false}, "Parking": {"garage": false, "street": false, "validated": false, "lot": true, "valet": false}, "Delivery": false, "Wheelchair Accessible": true, "Outdoor Seating": false, "Attire": "casual", "Smoking": "no", "Accepts Credit Cards": true, "Good For Groups": true, "Price Range": 3}, "type": "business"}
{"business_id": "zik3Lj994wNXYkYoK1PqKQ", "full_address": "Am Storrenacker 2\n76139 Karlsruhe", "hours": {"Monday": {"close": "20:00", "open": "10:00"}, "Tuesday": {"close": "20:00", "open": "10:00"}, "Friday": {"close": "20:00", "open": "10:00"}, "Wednesday": {"close": "20:00", "open": "10:00"}, "Thursday": {"close": "20:00", "open": "10:00"}, "Saturday": {"close": "19:00", "open": "09:00"}}, "open": true, "categories": ["Shopping", "Home Decor", "Home & Garden", "Furniture Stores"], "city": "Karlsruhe", "review_count": 7, "name": "M\u00f6max", "neighborhoods": [], "longitude": 8.45814, "state": "BW", "stars": 2.0, "latitude": 49.02025, "attributes": {"Parking": {"garage": false, "validated": false, "street": false, "lot": false, "valet": false}, "Wheelchair Accessible": false, "Price Range": 2}, "type": "business"}
{"business_id": "9rCNYbOnBGKnn1otAa8nyw", "full_address": "Erbprinzenstr. 21\n76133 Karlsruhe", "hours": {}, "open": true, "categories": ["Shopping", "Home & Garden", "Furniture Stores"], "city": "Karlsruhe", "review_count": 7, "name": "Gr\u00fcner Krebs", "neighborhoods": [], "longitude": 8.39766, "state": "BW", "stars": 4.5, "latitude": 49.0087, "attributes": {"Price Range": 3}, "type": "business"}
{"business_id": "A7Zrif-apG0Lt6ml1bXSsg", "full_address": "Eggensteiner Stra\u00dfe 52\n76297 Stutensee", "hours": {}, "open": true, "categories": ["Children's Clothing", "Fashion", "Shopping", "Mattresses", "Home & Garden", "Furniture Stores"], "city": "Stutensee", "review_count": 4, "name": "Naturversand Kirschke", "neighborhoods": [], "longitude": 8.4665991, "state": "BW", "stars": 3.5, "latitude": 49.0655226, "attributes": {}, "type": "business"}
{"business_id": "PDt_BG9mYtdBf3mxvZyw3g", "full_address": "Ruschgraben 90\n76139 Karlsruhe", "hours": {"Monday": {"close": "20:00", "open": "10:00"}, "Tuesday": {"close": "20:00", "open": "10:00"}, "Friday": {"close": "20:00", "open": "10:00"}, "Wednesday": {"close": "20:00", "open": "10:00"}, "Thursday": {"close": "20:00", "open": "10:00"}, "Saturday": {"close": "20:00", "open": "10:00"}}, "open": true, "categories": ["Shopping", "Home & Garden", "Furniture Stores"], "city": "Karlsruhe", "review_count": 3, "name": "Roller", "neighborhoods": [], "longitude": 8.45697, "state": "BW", "stars": 2.5, "latitude": 49.0209, "attributes": {"Parking": {"garage": false, "validated": false, "street": false, "lot": false, "valet": false}}, "type": "business"}
{"business_id": "lPLr1-rZziBW6gVDENLUUQ", "full_address": "Pfinztalstr. 90\n76227 Karlsruhe", "hours": {"Monday": {"close": "19:00", "open": "10:00"}, "Tuesday": {"close": "19:00", "open": "10:00"}, "Friday": {"close": "20:00", "open": "10:00"}, "Wednesday": {"close": "19:00", "open": "10:00"}, "Thursday": {"close": "19:00", "open": "10:00"}, "Saturday": {"close": "18:00", "open": "10:00"}}, "open": true, "categories": ["Shopping", "Home & Garden", "Furniture Stores"], "city": "Karlsruhe", "review_count": 7, "name": "Gr\u00fcner Krebs", "neighborhoods": [], "longitude": 8.46756, "state": "BW", "stars": 4.5, "latitude": 49.0017, "attributes": {}, "type": "business"}
{"business_id": "wefS54RONhAHbY9CreX4Hw", "full_address": "Durlacher Allee 109\n76137 Karlsruhe", "hours": {"Monday": {"close": "19:00", "open": "10:00"}, "Tuesday": {"close": "19:00", "open": "10:00"}, "Friday": {"close": "19:00", "open": "10:00"}, "Wednesday": {"close": "19:00", "open": "10:00"}, "Thursday": {"close": "19:00", "open": "10:00"}, "Saturday": {"close": "19:00", "open": "10:00"}}, "open": true, "categories": ["Shopping", "Home & Garden", "Furniture Stores"], "city": "Karlsruhe", "review_count": 18, "name": "Xxxl Mann Mobilia", "neighborhoods": [], "longitude": 8.44425, "state": "BW", "stars": 3.0, "latitude": 49.004, "attributes": {"Take-out": false, "Good For": {"dessert": false, "latenight": false, "lunch": false, "dinner": false, "breakfast": false, "brunch": false}, "Parking": {"garage": false, "street": false, "validated": false, "lot": true, "valet": false}, "Delivery": false, "Wheelchair Accessible": true, "Outdoor Seating": false, "Attire": "casual", "Smoking": "no", "Accepts Credit Cards": true, "Good For Groups": true, "Price Range": 3}, "type": "business"}
{"business_id": "zik3Lj994wNXYkYoK1PqKQ", "full_address": "Am Storrenacker 2\n76139 Karlsruhe", "hours": {"Monday": {"close": "20:00", "open": "10:00"}, "Tuesday": {"close": "20:00", "open": "10:00"}, "Friday": {"close": "20:00", "open": "10:00"}, "Wednesday": {"close": "20:00", "open": "10:00"}, "Thursday": {"close": "20:00", "open": "10:00"}, "Saturday": {"close": "19:00", "open": "09:00"}}, "open": true, "categories": ["Shopping", "Home Decor", "Home & Garden", "Furniture Stores"], "city": "Karlsruhe", "review_count": 7, "name": "M\u00f6max", "neighborhoods": [], "longitude": 8.45814, "state": "BW", "stars": 2.0, "latitude": 49.02025, "attributes": {"Parking": {"garage": false, "validated": false, "street": false, "lot": false, "valet": false}, "Wheelchair Accessible": false, "Price Range": 2}, "type": "business"}
