{"business_id": "QRTW1rfw1KKjsSHbboCaJQ", "full_address": "Richard-Wagner-Str. 27\n76275 Ettlingen", "hours": {}, "open": true, "categories": ["Bakeries", "Grocery", "Shopping", "Food", "Post Offices", "Butcher", "Public Services & Government"], "city": "Ettlingen", "review_count": 5, "name": "CAP-Markt", "neighborhoods": [], "longitude": 8.36592, "state": "BW", "stars": 4.5, "latitude": 48.9246, "attributes": {"Price Range": 3}, "type": "business"}
{"business_id": "QRTW1rfw1KKjsSHbboCaJQ", "full_address": "Richard-Wagner-Str. 27\n76275 Ettlingen", "hours": {}, "open": true, "categories": ["Bakeries", "Grocery", "Shopping", "Food", "Post Offices", "Butcher", "Public Services & Government"], "city": "Ettlingen", "review_count": 5, "name": "CAP-Markt", "neighborhoods": [], "longitude": 8.36592, "state": "BW", "stars": 4.5, "latitude": 48.9246, "attributes": {"Price Range": 3}, "type": "business"}
{"business_id": "QRTW1rfw1KKjsSHbboCaJQ", "full_address": "Richard-Wagner-Str. 27\n76275 Ettlingen", "hours": {}, "open": true, "categories": ["Bakeries", "Grocery", "Shopping", "Food", "Post Offices", "Butcher", "Public Services & Government"], "city": "Ettlingen", "review_count": 5, "name": "CAP-Markt", "neighborhoods": [], "longitude": 8.36592, "state": "BW", "stars": 4.5, "latitude": 48.9246, "attributes": {"Price Range": 3}, "type": "business"}
{"business_id": "QRTW1rfw1KKjsSHbboCaJQ", "full_address": "Richard-Wagner-Str. 27\n76275 Ettlingen", "hours": {}, "open": true, "categories": ["Bakeries", "Grocery", "Shopping", "Food", "Post Offices", "Butcher", "Public Services & Government"], "city": "Ettlingen", "review_count": 5, "name": "CAP-Markt", "neighborhoods": [], "longitude": 8.36592, "state": "BW", "stars": 4.5, "latitude": 48.9246, "attributes": {"Price Range": 3}, "type": "business"}
{"business_id": "QRTW1rfw1KKjsSHbboCaJQ", "full_address": "Richard-Wagner-Str. 27\n76275 Ettlingen", "hours": {}, "open": true, "categories": ["Bakeries", "Grocery", "Shopping", "Food", "Post Offices", "Butcher", "Public Services & Government"], "city": "Ettlingen", "review_count": 5, "name": "CAP-Markt", "neighborhoods": [], "longitude": 8.36592, "state": "BW", "stars": 4.5, "latitude": 48.9246, "attributes": {"Price Range": 3}, "type": "business"}
{"business_id": "QRTW1rfw1KKjsSHbboCaJQ", "full_address": "Richard-Wagner-Str. 27\n76275 Ettlingen", "hours": {}, "open": true, "categories": ["Bakeries", "Grocery", "Shopping", "Food", "Post Offices", "Butcher", "Public Services & Government"], "city": "Ettlingen", "review_count": 5, "name": "CAP-Markt", "neighborhoods": [], "longitude": 8.36592, "state": "BW", "stars": 4.5, "latitude": 48.9246, "attributes": {"Price Range": 3}, "type": "business"}
