{"business_id": "zCCSkDIz7KUHoDDdN64L7Q", "full_address": "Lessingstr.  52\n76135 Karlsruhe", "hours": {}, "open": true, "categories": ["Food Delivery Services", "Financial Services", "Indian", "Food", "Banks & Credit Unions", "Restaurants"], "city": "Karlsruhe", "review_count": 6, "name": "Indian Curry Haus", "neighborhoods": [], "longitude": 8.3848354, "state": "BW", "stars": 3.0, "latitude": 49.007288, "attributes": {}, "type": "business"}
{"business_id": "r1odoOBw1oyge8U3H_w9lQ", "full_address": "Wichernstr. 2\n76185 Karlsruhe", "hours": {}, "open": true, "categories": ["Financial Services", "Tax Services"], "city": "Karlsruhe", "review_count": 6, "name": "HN Steuerberatungsgesellschaft", "neighborhoods": [], "longitude": 8.36715, "state": "BW", "stars": 3.0, "latitude": 49.0087, "attributes": {}, "type": "business"}
{"business_id": "uz062TQVC0VZEemYUD3UGw", "full_address": "Gritznerstrasse 8\n76227 Karlsruhe", "hours": {}, "open": true, "categories": ["Banks & Credit Unions", "Financial Services"], "city": "Karlsruhe", "review_count": 3, "name": "Postbank", "neighborhoods": [], "longitude": 8.46475, "state": "BW", "stars": 2.5, "latitude": 48.999, "attributes": {"Price Range": 1}, "type": "business"}
{"business_id": "zCCSkDIz7KUHoDDdN64L7Q", "full_address": "Lessingstr.  52\n76135 Karlsruhe", "hours": {}, "open": true, "categories": ["Food Delivery Services", "Financial Services", "Indian", "Food", "Banks & Credit Unions", "Restaurants"], "city": "Karlsruhe", "review_count": 6, "name": "Indian Curry Haus", "neighborhoods": [], "longitude": 8.3848354, "state": "BW", "stars": 3.0, "latitude": 49.007288, "attributes": {}, "type": "business"}
{"business_id": "r1odoOBw1oyge8U3H_w9lQ", "full_address": "Wichernstr. 2\n76185 Karlsruhe", "hours": {}, "open": true, "categories": ["Financial Services", "Tax Services"], "city": "Karlsruhe", "review_count": 6, "name": "HN Steuerberatungsgesellschaft", "neighborhoods": [], "longitude": 8.36715, "state": "BW", "stars": 3.0, "latitude": 49.0087, "attributes": {}, "type": "business"}
{"business_id": "uz062TQVC0VZEemYUD3UGw", "full_address": "Gritznerstrasse 8\n76227 Karlsruhe", "hours": {}, "open": true, "categories": ["Banks & Credit Unions", "Financial Services"], "city": "Karlsruhe", "review_count": 3, "name": "Postbank", "neighborhoods": [], "longitude": 8.46475, "state": "BW", "stars": 2.5, "latitude": 48.999, "attributes": {"Price Range": 1}, "type": "business"}
{"business_id": "zCCSkDIz7KUHoDDdN64L7Q", "full_address": "Lessingstr.  52\n76135 Karlsruhe", "hours": {}, "open": true, "categories": ["Food Delivery Services", "Financial Services", "Indian", "Food", "Banks & Credit Unions", "Restaurants"], "city": "Karlsruhe", "review_count": 6, "name": "Indian Curry Haus", "neighborhoods": [], "longitude": 8.3848354, "state": "BW", "stars": 3.0, "latitude": 49.007288, "attributes": {}, "type": "business"}
{"business_id": "r1odoOBw1oyge8U3H_w9lQ", "full_address": "Wichernstr. 2\n76185 Karlsruhe", "hours": {}, "open": true, "categories": ["Financial Services", "Tax Services"], "city": "Karlsruhe", "review_count": 6, "name": "HN Steuerberatungsgesellschaft", "neighborhoods": [], "longitude": 8.36715, "state": "BW", "stars": 3.0, "latitude": 49.0087, "attributes": {}, "type": "business"}
{"business_id": "uz062TQVC0VZEemYUD3UGw", "full_address": "Gritznerstrasse 8\n76227 Karlsruhe", "hours": {}, "open": true, "categories": ["Banks & Credit Unions", "Financial Services"], "city": "Karlsruhe", "review_count": 3, "name": "Postbank", "neighborhoods": [], "longitude": 8.46475, "state": "BW", "stars": 2.5, "latitude": 48.999, "attributes": {"Price Range": 1}, "type": "business"}
{"business_id": "zCCSkDIz7KUHoDDdN64L7Q", "full_address": "Lessingstr.  52\n76135 Karlsruhe", "hours": {}, "open": true, "categories": ["Food Delivery Services", "Financial Services", "Indian", "Food", "Banks & Credit Unions", "Restaurants"], "city": "Karlsruhe", "review_count": 6, "name": "Indian Curry Haus", "neighborhoods": [], "longitude": 8.3848354, "state": "BW", "stars": 3.0, "latitude": 49.007288, "attributes": {}, "type": "business"}
{"business_id": "r1odoOBw1oyge8U3H_w9lQ", "full_address": "Wichernstr. 2\n76185 Karlsruhe", "hours": {}, "open": true, "categories": ["Financial Services", "Tax Services"], "city": "Karlsruhe", "review_count": 6, "name": "HN Steuerberatungsgesellschaft", "neighborhoods": [], "longitude": 8.36715, "state": "BW", "stars": 3.0, "latitude": 49.0087, "attributes": {}, "type": "business"}
{"business_id": "uz062TQVC0VZEemYUD3UGw", "full_address": "Gritznerstrasse 8\n76227 Karlsruhe", "hours": {}, "open": true, "categories": ["Banks & Credit Unions", "Financial Services"], "city": "Karlsruhe", "review_count": 3, "name": "Postbank", "neighborhoods": [], "longitude": 8.46475, "state": "BW", "stars": 2.5, "latitude": 48.999, "attributes": {"Price Range": 1}, "type": "business"}
{"business_id": "zCCSkDIz7KUHoDDdN64L7Q", "full_address": "Lessingstr.  52\n76135 Karlsruhe", "hours": {}, "open": true, "categories": ["Food Delivery Services", "Financial Services", "Indian", "Food", "Banks & Credit Unions", "Restaurants"], "city": "Karlsruhe", "review_count": 6, "name": "Indian Curry Haus", "neighborhoods": [], "longitude": 8.3848354, "state": "BW", "stars": 3.0, "latitude": 49.007288, "attributes": {}, "type": "business"}
{"business_id": "r1odoOBw1oyge8U3H_w9lQ", "full_address": "Wichernstr. 2\n76185 Karlsruhe", "hours": {}, "open": true, "categories": ["Financial Services", "Tax Services"], "city": "Karlsruhe", "review_count": 6, "name": "HN Steuerberatungsgesellschaft", "neighborhoods": [], "longitude": 8.36715, "state": "BW", "stars": 3.0, "latitude": 49.0087, "attributes": {}, "type": "business"}
{"business_id": "uz062TQVC0VZEemYUD3UGw", "full_address": "Gritznerstrasse 8\n76227 Karlsruhe", "hours": {}, "open": true, "categories": ["Banks & Credit Unions", "Financial Services"], "city": "Karlsruhe", "review_count": 3, "name": "Postbank", "neighborhoods": [], "longitude": 8.46475, "state": "BW", "stars": 2.5, "latitude": 48.999, "attributes": {"Price Range": 1}, "type": "business"}
{"business_id": "zCCSkDIz7KUHoDDdN64L7Q", "full_address": "Lessingstr.  52\n76135 Karlsruhe", "hours": {}, "open": true, "categories": ["Food Delivery Services", "Financial Services", "Indian", "Food", "Banks & Credit Unions", "Restaurants"], "city": "Karlsruhe", "review_count": 6, "name": "Indian Curry Haus", "neighborhoods": [], "longitude": 8.3848354, "state": "BW", "stars": 3.0, "latitude": 49.007288, "attributes": {}, "type": "business"}
{"business_id": "r1odoOBw1oyge8U3H_w9lQ", "full_address": "Wichernstr. 2\n76185 Karlsruhe", "hours": {}, "open": true, "categories": ["Financial Services", "Tax Services"], "city": "Karlsruhe", "review_count": 6, "name": "HN Steuerberatungsgesellschaft", "neighborhoods": [], "longitude": 8.36715, "state": "BW", "stars": 3.0, "latitude": 49.0087, "attributes": {}, "type": "business"}
{"business_id": "uz062TQVC0VZEemYUD3UGw", "full_address": "Gritznerstrasse 8\n76227 Karlsruhe", "hours": {}, "open": true, "categories": ["Banks & Credit Unions", "Financial Services"], "city": "Karlsruhe", "review_count": 3, "name": "Postbank", "neighborhoods": [], "longitude": 8.46475, "state": "BW", "stars": 2.5, "latitude": 48.999, "attributes": {"Price Range": 1}, "type": "business"}
