{"business_id": "_De17jwK6Frt8stTulbEeA", "full_address": "B\u00e4renweg\n76149 Karlsruhe", "hours": {}, "open": true, "categories": ["Doctors", "Health & Medical", "Obstetricians & Gynecologists"], "city": "Karlsruhe", "review_count": 3, "name": "Dr. Nelis", "neighborhoods": [], "longitude": 8.3787081, "state": "BW", "stars": 3.5, "latitude": 49.0469655, "attributes": {}, "type": "business"}
{"business_id": "qGYtcAOItY3ys7CdZ-Q4xA", "full_address": "Amalienstr. 14b\n76131 Karlsruhe", "hours": {}, "open": true, "categories": ["Doctors", "Health & Medical", "Obstetricians & Gynecologists"], "city": "Karlsruhe", "review_count": 3, "name": "Frauenarztpraxis Leokadia Seidler", "neighborhoods": [], "longitude": 8.39506, "state": "BW", "stars": 4.5, "latitude": 49.0078, "attributes": {}, "type": "business"}
{"business_id": "_De17jwK6Frt8stTulbEeA", "full_address": "B\u00e4renweg\n76149 Karlsruhe", "hours": {}, "open": true, "categories": ["Doctors", "Health & Medical", "Obstetricians & Gynecologists"], "city": "Karlsruhe", "review_count": 3, "name": "Dr. Nelis", "neighborhoods": [], "longitude": 8.3787081, "state": "BW", "stars": 3.5, "latitude": 49.0469655, "attributes": {}, "type": "business"}
{"business_id": "qGYtcAOItY3ys7CdZ-Q4xA", "full_address": "Amalienstr. 14b\n76131 Karlsruhe", "hours": {}, "open": true, "categories": ["Doctors", "Health & Medical", "Obstetricians & Gynecologists"], "city": "Karlsruhe", "review_count": 3, "name": "Frauenarztpraxis Leokadia Seidler", "neighborhoods": [], "longitude": 8.39506, "state": "BW", "stars": 4.5, "latitude": 49.0078, "attributes": {}, "type": "business"}
{"business_id": "_De17jwK6Frt8stTulbEeA", "full_address": "B\u00e4renweg\n76149 Karlsruhe", "hours": {}, "open": true, "categories": ["Doctors", "Health & Medical", "Obstetricians & Gynecologists"], "city": "Karlsruhe", "review_count": 3, "name": "Dr. Nelis", "neighborhoods": [], "longitude": 8.3787081, "state": "BW", "stars": 3.5, "latitude": 49.0469655, "attributes": {}, "type": "business"}
{"business_id": "qGYtcAOItY3ys7CdZ-Q4xA", "full_address": "Amalienstr. 14b\n76131 Karlsruhe", "hours": {}, "open": true, "categories": ["Doctors", "Health & Medical", "Obstetricians & Gynecologists"], "city": "Karlsruhe", "review_count": 3, "name": "Frauenarztpraxis Leokadia Seidler", "neighborhoods": [], "longitude": 8.39506, "state": "BW", "stars": 4.5, "latitude": 49.0078, "attributes": {}, "type": "business"}
{"business_id": "_De17jwK6Frt8stTulbEeA", "full_address": "B\u00e4renweg\n76149 Karlsruhe", "hours": {}, "open": true, "categories": ["Doctors", "Health & Medical", "Obstetricians & Gynecologists"], "city": "Karlsruhe", "review_count": 3, "name": "Dr. Nelis", "neighborhoods": [], "longitude": 8.3787081, "state": "BW", "stars": 3.5, "latitude": 49.0469655, "attributes": {}, "type": "business"}
{"business_id": "qGYtcAOItY3ys7CdZ-Q4xA", "full_address": "Amalienstr. 14b\n76131 Karlsruhe", "hours": {}, "open": true, "categories": ["Doctors", "Health & Medical", "Obstetricians & Gynecologists"], "city": "Karlsruhe", "review_count": 3, "name": "Frauenarztpraxis Leokadia Seidler", "neighborhoods": [], "longitude": 8.39506, "state": "BW", "stars": 4.5, "latitude": 49.0078, "attributes": {}, "type": "business"}
{"business_id": "_De17jwK6Frt8stTulbEeA", "full_address": "B\u00e4renweg\n76149 Karlsruhe", "hours": {}, "open": true, "categories": ["Doctors", "Health & Medical", "Obstetricians & Gynecologists"], "city": "Karlsruhe", "review_count": 3, "name": "Dr. Nelis", "neighborhoods": [], "longitude": 8.3787081, "state": "BW", "stars": 3.5, "latitude": 49.0469655, "attributes": {}, "type": "business"}
{"business_id": "qGYtcAOItY3ys7CdZ-Q4xA", "full_address": "Amalienstr. 14b\n76131 Karlsruhe", "hours": {}, "open": true, "categories": ["Doctors", "Health & Medical", "Obstetricians & Gynecologists"], "city": "Karlsruhe", "review_count": 3, "name": "Frauenarztpraxis Leokadia Seidler", "neighborhoods": [], "longitude": 8.39506, "state": "BW", "stars": 4.5, "latitude": 49.0078, "attributes": {}, "type": "business"}
{"business_id": "_De17jwK6Frt8stTulbEeA", "full_address": "B\u00e4renweg\n76149 Karlsruhe", "hours": {}, "open": true, "categories": ["Doctors", "Health & Medical", "Obstetricians & Gynecologists"], "city": "Karlsruhe", "review_count": 3, "name": "Dr. Nelis", "neighborhoods": [], "longitude": 8.3787081, "state": "BW", "stars": 3.5, "latitude": 49.0469655, "attributes": {}, "type": "business"}
{"business_id": "qGYtcAOItY3ys7CdZ-Q4xA", "full_address": "Amalienstr. 14b\n76131 Karlsruhe", "hours": {}, "open": true, "categories": ["Doctors", "Health & Medical", "Obstetricians & Gynecologists"], "city": "Karlsruhe", "review_count": 3, "name": "Frauenarztpraxis Leokadia Seidler", "neighborhoods": [], "longitude": 8.39506, "state": "BW", "stars": 4.5, "latitude": 49.0078, "attributes": {}, "type": "business"}
