{"business_id": "95u9HmF30qffQtFXQphWyA", "full_address": "Erbprinzenstr. 32\n76133 Karlsruhe", "hours": {}, "open": true, "categories": ["Shopping", "Home Services", "Arts & Crafts", "Antiques", "Building Supplies", "Art Supplies"], "city": "Karlsruhe", "review_count": 5, "name": "Kunstmarkt Boss", "neighborhoods": [], "longitude": 8.39635, "state": "BW", "stars": 4.5, "latitude": 49.0092, "attributes": {}, "type": "business"}
{"business_id": "HL4TxicNtTTJ_WmTMpg1rg", "full_address": "Fritz-Erler-Str. 14\n76133 Karlsruhe", "hours": {}, "open": true, "categories": ["Art Supplies", "Shopping", "Arts & Crafts"], "city": "Karlsruhe", "review_count": 5, "name": "M\u00fckra Electronic Shop", "neighborhoods": [], "longitude": 8.41, "state": "BW", "stars": 3.0, "latitude": 49.0068, "attributes": {"Parking": {"garage": false, "validated": false, "street": false, "lot": false, "valet": false}, "Wheelchair Accessible": true, "Price Range": 4}, "type": "business"}
{"business_id": "-D1hveyCgKKdTSczvU0IRA", "full_address": "Amalienstr. 31\n76133 Karlsruhe", "hours": {}, "open": true, "categories": ["Art Supplies", "Shopping", "Home Services", "Arts & Crafts"], "city": "Karlsruhe", "review_count": 4, "name": "Senci Kurzwaren", "neighborhoods": [], "longitude": 8.3932819, "state": "BW", "stars": 4.0, "latitude": 49.0082984, "attributes": {}, "type": "business"}
{"business_id": "95u9HmF30qffQtFXQphWyA", "full_address": "Erbprinzenstr. 32\n76133 Karlsruhe", "hours": {}, "open": true, "categories": ["Shopping", "Home Services", "Arts & Crafts", "Antiques", "Building Supplies", "Art Supplies"], "city": "Karlsruhe", "review_count": 5, "name": "Kunstmarkt Boss", "neighborhoods": [], "longitude": 8.39635, "state": "BW", "stars": 4.5, "latitude": 49.0092, "attributes": {}, "type": "business"}
{"business_id": "HL4TxicNtTTJ_WmTMpg1rg", "full_address": "Fritz-Erler-Str. 14\n76133 Karlsruhe", "hours": {}, "open": true, "categories": ["Art Supplies", "Shopping", "Arts & Crafts"], "city": "Karlsruhe", "review_count": 5, "name": "M\u00fckra Electronic Shop", "neighborhoods": [], "longitude": 8.41, "state": "BW", "stars": 3.0, "latitude": 49.0068, "attributes": {"Parking": {"garage": false, "validated": false, "street": false, "lot": false, "valet": false}, "Wheelchair Accessible": true, "Price Range": 4}, "type": "business"}
{"business_id": "-D1hveyCgKKdTSczvU0IRA", "full_address": "Amalienstr. 31\n76133 Karlsruhe", "hours": {}, "open": true, "categories": ["Art Supplies", "Shopping", "Home Services", "Arts & Crafts"], "city": "Karlsruhe", "review_count": 4, "name": "Senci Kurzwaren", "neighborhoods": [], "longitude": 8.3932819, "state": "BW", "stars": 4.0, "latitude": 49.0082984, "attributes": {}, "type": "business"}
{"business_id": "95u9HmF30qffQtFXQphWyA", "full_address": "Erbprinzenstr. 32\n76133 Karlsruhe", "hours": {}, "open": true, "categories": ["Shopping", "Home Services", "Arts & Crafts", "Antiques", "Building Supplies", "Art Supplies"], "city": "Karlsruhe", "review_count": 5, "name": "Kunstmarkt Boss", "neighborhoods": [], "longitude": 8.39635, "state": "BW", "stars": 4.5, "latitude": 49.0092, "attributes": {}, "type": "business"}
{"business_id": "HL4TxicNtTTJ_WmTMpg1rg", "full_address": "Fritz-Erler-Str. 14\n76133 Karlsruhe", "hours": {}, "open": true, "categories": ["Art Supplies", "Shopping", "Arts & Crafts"], "city": "Karlsruhe", "review_count": 5, "name": "M\u00fckra Electronic Shop", "neighborhoods": [], "longitude": 8.41, "state": "BW", "stars": 3.0, "latitude": 49.0068, "attributes": {"Parking": {"garage": false, "validated": false, "street": false, "lot": false, "valet": false}, "Wheelchair Accessible": true, "Price Range": 4}, "type": "business"}
{"business_id": "-D1hveyCgKKdTSczvU0IRA", "full_address": "Amalienstr. 31\n76133 Karlsruhe", "hours": {}, "open": true, "categories": ["Art Supplies", "Shopping", "Home Services", "Arts & Crafts"], "city": "Karlsruhe", "review_count": 4, "name": "Senci Kurzwaren", "neighborhoods": [], "longitude": 8.3932819, "state": "BW", "stars": 4.0, "latitude": 49.0082984, "attributes": {}, "type": "business"}
{"business_id": "95u9HmF30qffQtFXQphWyA", "full_address": "Erbprinzenstr. 32\n76133 Karlsruhe", "hours": {}, "open": true, "categories": ["Shopping", "Home Services", "Arts & Crafts", "Antiques", "Building Supplies", "Art Supplies"], "city": "Karlsruhe", "review_count": 5, "name": "Kunstmarkt Boss", "neighborhoods": [], "longitude": 8.39635, "state": "BW", "stars": 4.5, "latitude": 49.0092, "attributes": {}, "type": "business"}
{"business_id": "HL4TxicNtTTJ_WmTMpg1rg", "full_address": "Fritz-Erler-Str. 14\n76133 Karlsruhe", "hours": {}, "open": true, "categories": ["Art Supplies", "Shopping", "Arts & Crafts"], "city": "Karlsruhe", "review_count": 5, "name": "M\u00fckra Electronic Shop", "neighborhoods": [], "longitude": 8.41, "state": "BW", "stars": 3.0, "latitude": 49.0068, "attributes": {"Parking": {"garage": false, "validated": false, "street": false, "lot": false, "valet": false}, "Wheelchair Accessible": true, "Price Range": 4}, "type": "business"}
{"business_id": "-D1hveyCgKKdTSczvU0IRA", "full_address": "Amalienstr. 31\n76133 Karlsruhe", "hours": {}, "open": true, "categories": ["Art Supplies", "Shopping", "Home Services", "Arts & Crafts"], "city": "Karlsruhe", "review_count": 4, "name": "Senci Kurzwaren", "neighborhoods": [], "longitude": 8.3932819, "state": "BW", "stars": 4.0, "latitude": 49.0082984, "attributes": {}, "type": "business"}
{"business_id": "95u9HmF30qffQtFXQphWyA", "full_address": "Erbprinzenstr. 32\n76133 Karlsruhe", "hours": {}, "open": true, "categories": ["Shopping", "Home Services", "Arts & Crafts", "Antiques", "Building Supplies", "Art Supplies"], "city": "Karlsruhe", "review_count": 5, "name": "Kunstmarkt Boss", "neighborhoods": [], "longitude": 8.39635, "state": "BW", "stars": 4.5, "latitude": 49.0092, "attributes": {}, "type": "business"}
{"business_id": "HL4TxicNtTTJ_WmTMpg1rg", "full_address": "Fritz-Erler-Str. 14\n76133 Karlsruhe", "hours": {}, "open": true, "categories": ["Art Supplies", "Shopping", "Arts & Crafts"], "city": "Karlsruhe", "review_count": 5, "name": "M\u00fckra Electronic Shop", "neighborhoods": [], "longitude": 8.41, "state": "BW", "stars": 3.0, "latitude": 49.0068, "attributes": {"Parking": {"garage": false, "validated": false, "street": false, "lot": false, "valet": false}, "Wheelchair Accessible": true, "Price Range": 4}, "type": "business"}
{"business_id": "-D1hveyCgKKdTSczvU0IRA", "full_address": "Amalienstr. 31\n76133 Karlsruhe", "hours": {}, "open": true, "categories": ["Art Supplies", "Shopping", "Home Services", "Arts & Crafts"], "city": "Karlsruhe", "review_count": 4, "name": "Senci Kurzwaren", "neighborhoods": [], "longitude": 8.3932819, "state": "BW", "stars": 4.0, "latitude": 49.0082984, "attributes": {}, "type": "business"}
{"business_id": "95u9HmF30qffQtFXQphWyA", "full_address": "Erbprinzenstr. 32\n76133 Karlsruhe", "hours": {}, "open": true, "categories": ["Shopping", "Home Services", "Arts & Crafts", "Antiques", "Building Supplies", "Art Supplies"], "city": "Karlsruhe", "review_count": 5, "name": "Kunstmarkt Boss", "neighborhoods": [], "longitude": 8.39635, "state": "BW", "stars": 4.5, "latitude": 49.0092, "attributes": {}, "type": "business"}
{"business_id": "HL4TxicNtTTJ_WmTMpg1rg", "full_address": "Fritz-Erler-Str. 14\n76133 Karlsruhe", "hours": {}, "open": true, "categories": ["Art Supplies", "Shopping", "Arts & Crafts"], "city": "Karlsruhe", "review_count": 5, "name": "M\u00fckra Electronic Shop", "neighborhoods": [], "longitude": 8.41, "state": "BW", "stars": 3.0, "latitude": 49.0068, "attributes": {"Parking": {"garage": false, "validated": false, "street": false, "lot": false, "valet": false}, "Wheelchair Accessible": true, "Price Range": 4}, "type": "business"}
{"business_id": "-D1hveyCgKKdTSczvU0IRA", "full_address": "Amalienstr. 31\n76133 Karlsruhe", "hours": {}, "open": true, "categories": ["Art Supplies", "Shopping", "Home Services", "Arts & Crafts"], "city": "Karlsruhe", "review_count": 4, "name": "Senci Kurzwaren", "neighborhoods": [], "longitude": 8.3932819, "state": "BW", "stars": 4.0, "latitude": 49.0082984, "attributes": {}, "type": "business"}
