{"business_id": "5OSRQPqJQ0ilgw25wx_PIg", "full_address": "76297 Stutensee", "hours": {}, "open": true, "categories": ["Active Life", "Soccer", "Lakes", "Amateur Sports Teams"], "city": "Stutensee", "review_count": 3, "name": "Baggersee Staffort", "neighborhoods": [], "longitude": 8.50123, "state": "BW", "stars": 3.0, "latitude": 49.0819, "attributes": {}, "type": "business"}
{"business_id": "CFY7dqMoc3r06cbAyeavRw", "full_address": "Forchheim, Baden-W\u00fcrttemberg", "hours": {}, "open": true, "categories": ["Active Life", "Lakes"], "city": "Forchheim", "review_count": 10, "name": "Epplesee", "neighborhoods": [], "longitude": 8.32368850708008, "state": "BW", "stars": 3.5, "latitude": 48.9653430232867, "attributes": {"Wheelchair Accessible": false, "Good for Kids": true, "Price Range": 1}, "type": "business"}
{"business_id": "rOVEvIMMA0f7-PakoMtjtA", "full_address": "Steubenstra\u00dfe 18\n76185 Karlsruhe", "hours": {"Tuesday": {"close": "22:00", "open": "11:00"}, "Friday": {"close": "22:00", "open": "11:00"}, "Wednesday": {"close": "22:00", "open": "11:00"}, "Thursday": {"close": "22:00", "open": "11:00"}, "Sunday": {"close": "15:00", "open": "11:00"}, "Saturday": {"close": "22:00", "open": "17:00"}}, "open": true, "categories": ["Active Life", "Lakes", "Restaurants"], "city": "Karlsruhe", "review_count": 7, "name": "Oberer See", "neighborhoods": [], "longitude": 8.36126, "state": "BW", "stars": 2.5, "latitude": 49.0168, "attributes": {"Take-out": false, "Delivery": false, "Dogs Allowed": false, "Outdoor Seating": true, "Parking": {"garage": false, "street": false, "validated": false, "lot": false, "valet": false}, "Smoking": "no", "Accepts Credit Cards": false, "Price Range": 3}, "type": "business"}
{"business_id": "G_VRJTVzdSUE5ThIWUPchQ", "full_address": "Am Baggersee 4\n76275 Ettlingen", "hours": {}, "open": true, "categories": ["Active Life", "Swimming Pools", "Lakes"], "city": "Ettlingen", "review_count": 7, "name": "Badesee Buchzig", "neighborhoods": [], "longitude": 8.36938, "state": "BW", "stars": 5.0, "latitude": 48.9159, "attributes": {"Good for Kids": true, "Parking": {"garage": false, "validated": false, "street": false, "lot": false, "valet": false}}, "type": "business"}
{"business_id": "5OSRQPqJQ0ilgw25wx_PIg", "full_address": "76297 Stutensee", "hours": {}, "open": true, "categories": ["Active Life", "Soccer", "Lakes", "Amateur Sports Teams"], "city": "Stutensee", "review_count": 3, "name": "Baggersee Staffort", "neighborhoods": [], "longitude": 8.50123, "state": "BW", "stars": 3.0, "latitude": 49.0819, "attributes": {}, "type": "business"}
{"business_id": "CFY7dqMoc3r06cbAyeavRw", "full_address": "Forchheim, Baden-W\u00fcrttemberg", "hours": {}, "open": true, "categories": ["Active Life", "Lakes"], "city": "Forchheim", "review_count": 10, "name": "Epplesee", "neighborhoods": [], "longitude": 8.32368850708008, "state": "BW", "stars": 3.5, "latitude": 48.9653430232867, "attributes": {"Wheelchair Accessible": false, "Good for Kids": true, "Price Range": 1}, "type": "business"}
{"business_id": "rOVEvIMMA0f7-PakoMtjtA", "full_address": "Steubenstra\u00dfe 18\n76185 Karlsruhe", "hours": {"Tuesday": {"close": "22:00", "open": "11:00"}, "Friday": {"close": "22:00", "open": "11:00"}, "Wednesday": {"close": "22:00", "open": "11:00"}, "Thursday": {"close": "22:00", "open": "11:00"}, "Sunday": {"close": "15:00", "open": "11:00"}, "Saturday": {"close": "22:00", "open": "17:00"}}, "open": true, "categories": ["Active Life", "Lakes", "Restaurants"], "city": "Karlsruhe", "review_count": 7, "name": "Oberer See", "neighborhoods": [], "longitude": 8.36126, "state": "BW", "stars": 2.5, "latitude": 49.0168, "attributes": {"Take-out": false, "Delivery": false, "Dogs Allowed": false, "Outdoor Seating": true, "Parking": {"garage": false, "street": false, "validated": false, "lot": false, "valet": false}, "Smoking": "no", "Accepts Credit Cards": false, "Price Range": 3}, "type": "business"}
{"business_id": "G_VRJTVzdSUE5ThIWUPchQ", "full_address": "Am Baggersee 4\n76275 Ettlingen", "hours": {}, "open": true, "categories": ["Active Life", "Swimming Pools", "Lakes"], "city": "Ettlingen", "review_count": 7, "name": "Badesee Buchzig", "neighborhoods": [], "longitude": 8.36938, "state": "BW", "stars": 5.0, "latitude": 48.9159, "attributes": {"Good for Kids": true, "Parking": {"garage": false, "validated": false, "street": false, "lot": false, "valet": false}}, "type": "business"}
{"business_id": "5OSRQPqJQ0ilgw25wx_PIg", "full_address": "76297 Stutensee", "hours": {}, "open": true, "categories": ["Active Life", "Soccer", "Lakes", "Amateur Sports Teams"], "city": "Stutensee", "review_count": 3, "name": "Baggersee Staffort", "neighborhoods": [], "longitude": 8.50123, "state": "BW", "stars": 3.0, "latitude": 49.0819, "attributes": {}, "type": "business"}
{"business_id": "CFY7dqMoc3r06cbAyeavRw", "full_address": "Forchheim, Baden-W\u00fcrttemberg", "hours": {}, "open": true, "categories": ["Active Life", "Lakes"], "city": "Forchheim", "review_count": 10, "name": "Epplesee", "neighborhoods": [], "longitude": 8.32368850708008, "state": "BW", "stars": 3.5, "latitude": 48.9653430232867, "attributes": {"Wheelchair Accessible": false, "Good for Kids": true, "Price Range": 1}, "type": "business"}
{"business_id": "rOVEvIMMA0f7-PakoMtjtA", "full_address": "Steubenstra\u00dfe 18\n76185 Karlsruhe", "hours": {"Tuesday": {"close": "22:00", "open": "11:00"}, "Friday": {"close": "22:00", "open": "11:00"}, "Wednesday": {"close": "22:00", "open": "11:00"}, "Thursday": {"close": "22:00", "open": "11:00"}, "Sunday": {"close": "15:00", "open": "11:00"}, "Saturday": {"close": "22:00", "open": "17:00"}}, "open": true, "categories": ["Active Life", "Lakes", "Restaurants"], "city": "Karlsruhe", "review_count": 7, "name": "Oberer See", "neighborhoods": [], "longitude": 8.36126, "state": "BW", "stars": 2.5, "latitude": 49.0168, "attributes": {"Take-out": false, "Delivery": false, "Dogs Allowed": false, "Outdoor Seating": true, "Parking": {"garage": false, "street": false, "validated": false, "lot": false, "valet": false}, "Smoking": "no", "Accepts Credit Cards": false, "Price Range": 3}, "type": "business"}
{"business_id": "G_VRJTVzdSUE5ThIWUPchQ", "full_address": "Am Baggersee 4\n76275 Ettlingen", "hours": {}, "open": true, "categories": ["Active Life", "Swimming Pools", "Lakes"], "city": "Ettlingen", "review_count": 7, "name": "Badesee Buchzig", "neighborhoods": [], "longitude": 8.36938, "state": "BW", "stars": 5.0, "latitude": 48.9159, "attributes": {"Good for Kids": true, "Parking": {"garage": false, "validated": false, "street": false, "lot": false, "valet": false}}, "type": "business"}
{"business_id": "5OSRQPqJQ0ilgw25wx_PIg", "full_address": "76297 Stutensee", "hours": {}, "open": true, "categories": ["Active Life", "Soccer", "Lakes", "Amateur Sports Teams"], "city": "Stutensee", "review_count": 3, "name": "Baggersee Staffort", "neighborhoods": [], "longitude": 8.50123, "state": "BW", "stars": 3.0, "latitude": 49.0819, "attributes": {}, "type": "business"}
{"business_id": "CFY7dqMoc3r06cbAyeavRw", "full_address": "Forchheim, Baden-W\u00fcrttemberg", "hours": {}, "open": true, "categories": ["Active Life", "Lakes"], "city": "Forchheim", "review_count": 10, "name": "Epplesee", "neighborhoods": [], "longitude": 8.32368850708008, "state": "BW", "stars": 3.5, "latitude": 48.9653430232867, "attributes": {"Wheelchair Accessible": false, "Good for Kids": true, "Price Range": 1}, "type": "business"}
{"business_id": "rOVEvIMMA0f7-PakoMtjtA", "full_address": "Steubenstra\u00dfe 18\n76185 Karlsruhe", "hours": {"Tuesday": {"close": "22:00", "open": "11:00"}, "Friday": {"close": "22:00", "open": "11:00"}, "Wednesday": {"close": "22:00", "open": "11:00"}, "Thursday": {"close": "22:00", "open": "11:00"}, "Sunday": {"close": "15:00", "open": "11:00"}, "Saturday": {"close": "22:00", "open": "17:00"}}, "open": true, "categories": ["Active Life", "Lakes", "Restaurants"], "city": "Karlsruhe", "review_count": 7, "name": "Oberer See", "neighborhoods": [], "longitude": 8.36126, "state": "BW", "stars": 2.5, "latitude": 49.0168, "attributes": {"Take-out": false, "Delivery": false, "Dogs Allowed": false, "Outdoor Seating": true, "Parking": {"garage": false, "street": false, "validated": false, "lot": false, "valet": false}, "Smoking": "no", "Accepts Credit Cards": false, "Price Range": 3}, "type": "business"}
{"business_id": "G_VRJTVzdSUE5ThIWUPchQ", "full_address": "Am Baggersee 4\n76275 Ettlingen", "hours": {}, "open": true, "categories": ["Active Life", "Swimming Pools", "Lakes"], "city": "Ettlingen", "review_count": 7, "name": "Badesee Buchzig", "neighborhoods": [], "longitude": 8.36938, "state": "BW", "stars": 5.0, "latitude": 48.9159, "attributes": {"Good for Kids": true, "Parking": {"garage": false, "validated": false, "street": false, "lot": false, "valet": false}}, "type": "business"}
{"business_id": "5OSRQPqJQ0ilgw25wx_PIg", "full_address": "76297 Stutensee", "hours": {}, "open": true, "categories": ["Active Life", "Soccer", "Lakes", "Amateur Sports Teams"], "city": "Stutensee", "review_count": 3, "name": "Baggersee Staffort", "neighborhoods": [], "longitude": 8.50123, "state": "BW", "stars": 3.0, "latitude": 49.0819, "attributes": {}, "type": "business"}
{"business_id": "CFY7dqMoc3r06cbAyeavRw", "full_address": "Forchheim, Baden-W\u00fcrttemberg", "hours": {}, "open": true, "categories": ["Active Life", "Lakes"], "city": "Forchheim", "review_count": 10, "name": "Epplesee", "neighborhoods": [], "longitude": 8.32368850708008, "state": "BW", "stars": 3.5, "latitude": 48.9653430232867, "attributes": {"Wheelchair Accessible": false, "Good for Kids": true, "Price Range": 1}, "type": "business"}
{"business_id": "rOVEvIMMA0f7-PakoMtjtA", "full_address": "Steubenstra\u00dfe 18\n76185 Karlsruhe", "hours": {"Tuesday": {"close": "22:00", "open": "11:00"}, "Friday": {"close": "22:00", "open": "11:00"}, "Wednesday": {"close": "22:00", "open": "11:00"}, "Thursday": {"close": "22:00", "open": "11:00"}, "Sunday": {"close": "15:00", "open": "11:00"}, "Saturday": {"close": "22:00", "open": "17:00"}}, "open": true, "categories": ["Active Life", "Lakes", "Restaurants"], "city": "Karlsruhe", "review_count": 7, "name": "Oberer See", "neighborhoods": [], "longitude": 8.36126, "state": "BW", "stars": 2.5, "latitude": 49.0168, "attributes": {"Take-out": false, "Delivery": false, "Dogs Allowed": false, "Outdoor Seating": true, "Parking": {"garage": false, "street": false, "validated": false, "lot": false, "valet": false}, "Smoking": "no", "Accepts Credit Cards": false, "Price Range": 3}, "type": "business"}
{"business_id": "G_VRJTVzdSUE5ThIWUPchQ", "full_address": "Am Baggersee 4\n76275 Ettlingen", "hours": {}, "open": true, "categories": ["Active Life", "Swimming Pools", "Lakes"], "city": "Ettlingen", "review_count": 7, "name": "Badesee Buchzig", "neighborhoods": [], "longitude": 8.36938, "state": "BW", "stars": 5.0, "latitude": 48.9159, "attributes": {"Good for Kids": true, "Parking": {"garage": false, "validated": false, "street": false, "lot": false, "valet": false}}, "type": "business"}
{"business_id": "5OSRQPqJQ0ilgw25wx_PIg", "full_address": "76297 Stutensee", "hours": {}, "open": true, "categories": ["Active Life", "Soccer", "Lakes", "Amateur Sports Teams"], "city": "Stutensee", "review_count": 3, "name": "Baggersee Staffort", "neighborhoods": [], "longitude": 8.50123, "state": "BW", "stars": 3.0, "latitude": 49.0819, "attributes": {}, "type": "business"}
{"business_id": "CFY7dqMoc3r06cbAyeavRw", "full_address": "Forchheim, Baden-W\u00fcrttemberg", "hours": {}, "open": true, "categories": ["Active Life", "Lakes"], "city": "Forchheim", "review_count": 10, "name": "Epplesee", "neighborhoods": [], "longitude": 8.32368850708008, "state": "BW", "stars": 3.5, "latitude": 48.9653430232867, "attributes": {"Wheelchair Accessible": false, "Good for Kids": true, "Price Range": 1}, "type": "business"}
{"business_id": "rOVEvIMMA0f7-PakoMtjtA", "full_address": "Steubenstra\u00dfe 18\n76185 Karlsruhe", "hours": {"Tuesday": {"close": "22:00", "open": "11:00"}, "Friday": {"close": "22:00", "open": "11:00"}, "Wednesday": {"close": "22:00", "open": "11:00"}, "Thursday": {"close": "22:00", "open": "11:00"}, "Sunday": {"close": "15:00", "open": "11:00"}, "Saturday": {"close": "22:00", "open": "17:00"}}, "open": true, "categories": ["Active Life", "Lakes", "Restaurants"], "city": "Karlsruhe", "review_count": 7, "name": "Oberer See", "neighborhoods": [], "longitude": 8.36126, "state": "BW", "stars": 2.5, "latitude": 49.0168, "attributes": {"Take-out": false, "Delivery": false, "Dogs Allowed": false, "Outdoor Seating": true, "Parking": {"garage": false, "street": false, "validated": false, "lot": false, "valet": false}, "Smoking": "no", "Accepts Credit Cards": false, "Price Range": 3}, "type": "business"}
{"business_id": "G_VRJTVzdSUE5ThIWUPchQ", "full_address": "Am Baggersee 4\n76275 Ettlingen", "hours": {}, "open": true, "categories": ["Active Life", "Swimming Pools", "Lakes"], "city": "Ettlingen", "review_count": 7, "name": "Badesee Buchzig", "neighborhoods": [], "longitude": 8.36938, "state": "BW", "stars": 5.0, "latitude": 48.9159, "attributes": {"Good for Kids": true, "Parking": {"garage": false, "validated": false, "street": false, "lot": false, "valet": false}}, "type": "business"}
