{"business_id": "rSCu0sU-3G6lZtSHKvZ_DA", "full_address": "Herm-Schneider-Allee 20\n76189 Karlsruhe", "hours": {}, "open": true, "categories": ["Pet Services", "Animal Shelters", "Pet Boarding/Pet Sitting", "Pets"], "city": "Karlsruhe", "review_count": 3, "name": "Tierschutzverein Karlsruhe u. Umgebung e.V.", "neighborhoods": [], "longitude": 8.31986, "state": "BW", "stars": 4.0, "latitude": 49.0039, "attributes": {}, "type": "business"}
{"business_id": "6So-3mhNwaJwXVKZ2_nZfA", "full_address": "Nancystr. 1\n76187 Karlsruhe", "hours": {}, "open": true, "categories": ["Active Life", "Horseback Riding", "Pets"], "city": "Karlsruhe", "review_count": 3, "name": "Egon von Neindorff", "neighborhoods": [], "longitude": 8.36914, "state": "BW", "stars": 3.0, "latitude": 49.0223, "attributes": {}, "type": "business"}
{"business_id": "IdkXYNl84sM8g84RL-euQA", "full_address": "Kaiserallee 139\n76185 Karlsruhe", "hours": {}, "open": true, "categories": ["Veterinarians", "Pets"], "city": "Karlsruhe", "review_count": 3, "name": "Dr. Eberhard G\u00f6tze", "neighborhoods": [], "longitude": 8.36654, "state": "BW", "stars": 3.5, "latitude": 49.0112, "attributes": {"Price Range": 2}, "type": "business"}
{"business_id": "NSvI23_bSqDLEIyZ6CG7Fg", "full_address": "Amthausstr. 16\n76227 Karlsruhe", "hours": {"Monday": {"close": "18:00", "open": "15:00"}, "Tuesday": {"close": "19:00", "open": "17:00"}, "Friday": {"close": "18:00", "open": "15:00"}, "Wednesday": {"close": "11:30", "open": "10:00"}, "Thursday": {"close": "18:00", "open": "15:00"}, "Saturday": {"close": "11:30", "open": "10:00"}}, "open": true, "categories": ["Veterinarians", "Pets"], "city": "Karlsruhe", "review_count": 5, "name": "Kleintierpraxis H. Sp\u00f6rle", "neighborhoods": [], "longitude": 8.471, "state": "BW", "stars": 4.0, "latitude": 48.9979, "attributes": {"Price Range": 3}, "type": "business"}
{"business_id": "M_O7vlWxe0GTzqnAhjXuHQ", "full_address": "Reinmuthstr. 47\n76187 Karlsruhe", "hours": {}, "open": true, "categories": ["Veterinarians", "Pets"], "city": "Karlsruhe", "review_count": 8, "name": "Tierarzt Stefan Petri", "neighborhoods": [], "longitude": 8.3433, "state": "BW", "stars": 3.5, "latitude": 49.0319, "attributes": {"Parking": {"garage": false, "validated": false, "street": false, "lot": false, "valet": false}, "Accepts Credit Cards": true, "Price Range": 3}, "type": "business"}
{"business_id": "iI-JzHYx0SQrnW3jBE2ZPQ", "full_address": "M\u00fchlstr. 8\n76229 Karlsruhe", "hours": {}, "open": true, "categories": ["Veterinarians", "Pets"], "city": "Karlsruhe", "review_count": 4, "name": "Dr. med. vet. H. Wessbecher", "neighborhoods": [], "longitude": 8.49661, "state": "BW", "stars": 5.0, "latitude": 49.0064, "attributes": {"Parking": {"garage": false, "validated": false, "street": false, "lot": false, "valet": false}, "Accepts Credit Cards": false, "Wheelchair Accessible": false, "Price Range": 2}, "type": "business"}
{"business_id": "P5kq8MLKjLm8ayy3hk8WSQ", "full_address": "Am Storrenacker 3\n76139 Karlsruhe", "hours": {"Monday": {"close": "20:00", "open": "10:00"}, "Tuesday": {"close": "20:00", "open": "10:00"}, "Friday": {"close": "20:00", "open": "10:00"}, "Wednesday": {"close": "20:00", "open": "10:00"}, "Thursday": {"close": "20:00", "open": "10:00"}, "Saturday": {"close": "20:00", "open": "10:00"}}, "open": true, "categories": ["Pets", "Pet Stores"], "city": "Karlsruhe", "review_count": 4, "name": "K\u00d6LLE-ZOO", "neighborhoods": [], "longitude": 8.4658, "state": "BW", "stars": 4.0, "latitude": 49.01939, "attributes": {"Parking": {"garage": false, "validated": false, "street": false, "lot": false, "valet": false}, "Accepts Credit Cards": true, "Price Range": 3}, "type": "business"}
{"business_id": "tCsJHnJ43IqCl-1iIccZYQ", "full_address": "Sternbergstr.  4\n76131 Karlsruhe", "hours": {}, "open": true, "categories": ["Veterinarians", "Pets"], "city": "Karlsruhe", "review_count": 4, "name": "Kleintierpraxis Sch\u00fctz", "neighborhoods": [], "longitude": 8.4254961, "state": "BW", "stars": 3.0, "latitude": 49.0105893, "attributes": {}, "type": "business"}
{"business_id": "PYMkf1KLKf7bvZZOVaZjYQ", "full_address": "Hardeckstr. 8\n76185 Karlsruhe", "hours": {}, "open": true, "categories": ["Pets", "Pet Stores"], "city": "Karlsruhe", "review_count": 3, "name": "Zoo SB-Markt f\u00fcr Heimtiere", "neighborhoods": [], "longitude": 8.36203, "state": "BW", "stars": 4.5, "latitude": 48.9982, "attributes": {"Parking": {"garage": false, "validated": false, "street": false, "lot": false, "valet": false}, "Accepts Credit Cards": true, "Price Range": 4}, "type": "business"}
{"business_id": "nCiqlnIu7pNmnRkQFibKsg", "full_address": "Hoffstr. 6\n76133 Karlsruhe", "hours": {}, "open": true, "categories": ["Veterinarians", "Pets"], "city": "Karlsruhe", "review_count": 4, "name": "Tierarzt Marcus Erben", "neighborhoods": [], "longitude": 8.38676, "state": "BW", "stars": 3.5, "latitude": 49.0126, "attributes": {}, "type": "business"}
{"business_id": "rSCu0sU-3G6lZtSHKvZ_DA", "full_address": "Herm-Schneider-Allee 20\n76189 Karlsruhe", "hours": {}, "open": true, "categories": ["Pet Services", "Animal Shelters", "Pet Boarding/Pet Sitting", "Pets"], "city": "Karlsruhe", "review_count": 3, "name": "Tierschutzverein Karlsruhe u. Umgebung e.V.", "neighborhoods": [], "longitude": 8.31986, "state": "BW", "stars": 4.0, "latitude": 49.0039, "attributes": {}, "type": "business"}
{"business_id": "6So-3mhNwaJwXVKZ2_nZfA", "full_address": "Nancystr. 1\n76187 Karlsruhe", "hours": {}, "open": true, "categories": ["Active Life", "Horseback Riding", "Pets"], "city": "Karlsruhe", "review_count": 3, "name": "Egon von Neindorff", "neighborhoods": [], "longitude": 8.36914, "state": "BW", "stars": 3.0, "latitude": 49.0223, "attributes": {}, "type": "business"}
{"business_id": "IdkXYNl84sM8g84RL-euQA", "full_address": "Kaiserallee 139\n76185 Karlsruhe", "hours": {}, "open": true, "categories": ["Veterinarians", "Pets"], "city": "Karlsruhe", "review_count": 3, "name": "Dr. Eberhard G\u00f6tze", "neighborhoods": [], "longitude": 8.36654, "state": "BW", "stars": 3.5, "latitude": 49.0112, "attributes": {"Price Range": 2}, "type": "business"}
{"business_id": "NSvI23_bSqDLEIyZ6CG7Fg", "full_address": "Amthausstr. 16\n76227 Karlsruhe", "hours": {"Monday": {"close": "18:00", "open": "15:00"}, "Tuesday": {"close": "19:00", "open": "17:00"}, "Friday": {"close": "18:00", "open": "15:00"}, "Wednesday": {"close": "11:30", "open": "10:00"}, "Thursday": {"close": "18:00", "open": "15:00"}, "Saturday": {"close": "11:30", "open": "10:00"}}, "open": true, "categories": ["Veterinarians", "Pets"], "city": "Karlsruhe", "review_count": 5, "name": "Kleintierpraxis H. Sp\u00f6rle", "neighborhoods": [], "longitude": 8.471, "state": "BW", "stars": 4.0, "latitude": 48.9979, "attributes": {"Price Range": 3}, "type": "business"}
{"business_id": "M_O7vlWxe0GTzqnAhjXuHQ", "full_address": "Reinmuthstr. 47\n76187 Karlsruhe", "hours": {}, "open": true, "categories": ["Veterinarians", "Pets"], "city": "Karlsruhe", "review_count": 8, "name": "Tierarzt Stefan Petri", "neighborhoods": [], "longitude": 8.3433, "state": "BW", "stars": 3.5, "latitude": 49.0319, "attributes": {"Parking": {"garage": false, "validated": false, "street": false, "lot": false, "valet": false}, "Accepts Credit Cards": true, "Price Range": 3}, "type": "business"}
{"business_id": "iI-JzHYx0SQrnW3jBE2ZPQ", "full_address": "M\u00fchlstr. 8\n76229 Karlsruhe", "hours": {}, "open": true, "categories": ["Veterinarians", "Pets"], "city": "Karlsruhe", "review_count": 4, "name": "Dr. med. vet. H. Wessbecher", "neighborhoods": [], "longitude": 8.49661, "state": "BW", "stars": 5.0, "latitude": 49.0064, "attributes": {"Parking": {"garage": false, "validated": false, "street": false, "lot": false, "valet": false}, "Accepts Credit Cards": false, "Wheelchair Accessible": false, "Price Range": 2}, "type": "business"}
{"business_id": "P5kq8MLKjLm8ayy3hk8WSQ", "full_address": "Am Storrenacker 3\n76139 Karlsruhe", "hours": {"Monday": {"close": "20:00", "open": "10:00"}, "Tuesday": {"close": "20:00", "open": "10:00"}, "Friday": {"close": "20:00", "open": "10:00"}, "Wednesday": {"close": "20:00", "open": "10:00"}, "Thursday": {"close": "20:00", "open": "10:00"}, "Saturday": {"close": "20:00", "open": "10:00"}}, "open": true, "categories": ["Pets", "Pet Stores"], "city": "Karlsruhe", "review_count": 4, "name": "K\u00d6LLE-ZOO", "neighborhoods": [], "longitude": 8.4658, "state": "BW", "stars": 4.0, "latitude": 49.01939, "attributes": {"Parking": {"garage": false, "validated": false, "street": false, "lot": false, "valet": false}, "Accepts Credit Cards": true, "Price Range": 3}, "type": "business"}
{"business_id": "tCsJHnJ43IqCl-1iIccZYQ", "full_address": "Sternbergstr.  4\n76131 Karlsruhe", "hours": {}, "open": true, "categories": ["Veterinarians", "Pets"], "city": "Karlsruhe", "review_count": 4, "name": "Kleintierpraxis Sch\u00fctz", "neighborhoods": [], "longitude": 8.4254961, "state": "BW", "stars": 3.0, "latitude": 49.0105893, "attributes": {}, "type": "business"}
{"business_id": "PYMkf1KLKf7bvZZOVaZjYQ", "full_address": "Hardeckstr. 8\n76185 Karlsruhe", "hours": {}, "open": true, "categories": ["Pets", "Pet Stores"], "city": "Karlsruhe", "review_count": 3, "name": "Zoo SB-Markt f\u00fcr Heimtiere", "neighborhoods": [], "longitude": 8.36203, "state": "BW", "stars": 4.5, "latitude": 48.9982, "attributes": {"Parking": {"garage": false, "validated": false, "street": false, "lot": false, "valet": false}, "Accepts Credit Cards": true, "Price Range": 4}, "type": "business"}
{"business_id": "nCiqlnIu7pNmnRkQFibKsg", "full_address": "Hoffstr. 6\n76133 Karlsruhe", "hours": {}, "open": true, "categories": ["Veterinarians", "Pets"], "city": "Karlsruhe", "review_count": 4, "name": "Tierarzt Marcus Erben", "neighborhoods": [], "longitude": 8.38676, "state": "BW", "stars": 3.5, "latitude": 49.0126, "attributes": {}, "type": "business"}
{"business_id": "rSCu0sU-3G6lZtSHKvZ_DA", "full_address": "Herm-Schneider-Allee 20\n76189 Karlsruhe", "hours": {}, "open": true, "categories": ["Pet Services", "Animal Shelters", "Pet Boarding/Pet Sitting", "Pets"], "city": "Karlsruhe", "review_count": 3, "name": "Tierschutzverein Karlsruhe u. Umgebung e.V.", "neighborhoods": [], "longitude": 8.31986, "state": "BW", "stars": 4.0, "latitude": 49.0039, "attributes": {}, "type": "business"}
{"business_id": "6So-3mhNwaJwXVKZ2_nZfA", "full_address": "Nancystr. 1\n76187 Karlsruhe", "hours": {}, "open": true, "categories": ["Active Life", "Horseback Riding", "Pets"], "city": "Karlsruhe", "review_count": 3, "name": "Egon von Neindorff", "neighborhoods": [], "longitude": 8.36914, "state": "BW", "stars": 3.0, "latitude": 49.0223, "attributes": {}, "type": "business"}
{"business_id": "IdkXYNl84sM8g84RL-euQA", "full_address": "Kaiserallee 139\n76185 Karlsruhe", "hours": {}, "open": true, "categories": ["Veterinarians", "Pets"], "city": "Karlsruhe", "review_count": 3, "name": "Dr. Eberhard G\u00f6tze", "neighborhoods": [], "longitude": 8.36654, "state": "BW", "stars": 3.5, "latitude": 49.0112, "attributes": {"Price Range": 2}, "type": "business"}
{"business_id": "NSvI23_bSqDLEIyZ6CG7Fg", "full_address": "Amthausstr. 16\n76227 Karlsruhe", "hours": {"Monday": {"close": "18:00", "open": "15:00"}, "Tuesday": {"close": "19:00", "open": "17:00"}, "Friday": {"close": "18:00", "open": "15:00"}, "Wednesday": {"close": "11:30", "open": "10:00"}, "Thursday": {"close": "18:00", "open": "15:00"}, "Saturday": {"close": "11:30", "open": "10:00"}}, "open": true, "categories": ["Veterinarians", "Pets"], "city": "Karlsruhe", "review_count": 5, "name": "Kleintierpraxis H. Sp\u00f6rle", "neighborhoods": [], "longitude": 8.471, "state": "BW", "stars": 4.0, "latitude": 48.9979, "attributes": {"Price Range": 3}, "type": "business"}
{"business_id": "M_O7vlWxe0GTzqnAhjXuHQ", "full_address": "Reinmuthstr. 47\n76187 Karlsruhe", "hours": {}, "open": true, "categories": ["Veterinarians", "Pets"], "city": "Karlsruhe", "review_count": 8, "name": "Tierarzt Stefan Petri", "neighborhoods": [], "longitude": 8.3433, "state": "BW", "stars": 3.5, "latitude": 49.0319, "attributes": {"Parking": {"garage": false, "validated": false, "street": false, "lot": false, "valet": false}, "Accepts Credit Cards": true, "Price Range": 3}, "type": "business"}
{"business_id": "iI-JzHYx0SQrnW3jBE2ZPQ", "full_address": "M\u00fchlstr. 8\n76229 Karlsruhe", "hours": {}, "open": true, "categories": ["Veterinarians", "Pets"], "city": "Karlsruhe", "review_count": 4, "name": "Dr. med. vet. H. Wessbecher", "neighborhoods": [], "longitude": 8.49661, "state": "BW", "stars": 5.0, "latitude": 49.0064, "attributes": {"Parking": {"garage": false, "validated": false, "street": false, "lot": false, "valet": false}, "Accepts Credit Cards": false, "Wheelchair Accessible": false, "Price Range": 2}, "type": "business"}
{"business_id": "P5kq8MLKjLm8ayy3hk8WSQ", "full_address": "Am Storrenacker 3\n76139 Karlsruhe", "hours": {"Monday": {"close": "20:00", "open": "10:00"}, "Tuesday": {"close": "20:00", "open": "10:00"}, "Friday": {"close": "20:00", "open": "10:00"}, "Wednesday": {"close": "20:00", "open": "10:00"}, "Thursday": {"close": "20:00", "open": "10:00"}, "Saturday": {"close": "20:00", "open": "10:00"}}, "open": true, "categories": ["Pets", "Pet Stores"], "city": "Karlsruhe", "review_count": 4, "name": "K\u00d6LLE-ZOO", "neighborhoods": [], "longitude": 8.4658, "state": "BW", "stars": 4.0, "latitude": 49.01939, "attributes": {"Parking": {"garage": false, "validated": false, "street": false, "lot": false, "valet": false}, "Accepts Credit Cards": true, "Price Range": 3}, "type": "business"}
{"business_id": "tCsJHnJ43IqCl-1iIccZYQ", "full_address": "Sternbergstr.  4\n76131 Karlsruhe", "hours": {}, "open": true, "categories": ["Veterinarians", "Pets"], "city": "Karlsruhe", "review_count": 4, "name": "Kleintierpraxis Sch\u00fctz", "neighborhoods": [], "longitude": 8.4254961, "state": "BW", "stars": 3.0, "latitude": 49.0105893, "attributes": {}, "type": "business"}
{"business_id": "PYMkf1KLKf7bvZZOVaZjYQ", "full_address": "Hardeckstr. 8\n76185 Karlsruhe", "hours": {}, "open": true, "categories": ["Pets", "Pet Stores"], "city": "Karlsruhe", "review_count": 3, "name": "Zoo SB-Markt f\u00fcr Heimtiere", "neighborhoods": [], "longitude": 8.36203, "state": "BW", "stars": 4.5, "latitude": 48.9982, "attributes": {"Parking": {"garage": false, "validated": false, "street": false, "lot": false, "valet": false}, "Accepts Credit Cards": true, "Price Range": 4}, "type": "business"}
{"business_id": "nCiqlnIu7pNmnRkQFibKsg", "full_address": "Hoffstr. 6\n76133 Karlsruhe", "hours": {}, "open": true, "categories": ["Veterinarians", "Pets"], "city": "Karlsruhe", "review_count": 4, "name": "Tierarzt Marcus Erben", "neighborhoods": [], "longitude": 8.38676, "state": "BW", "stars": 3.5, "latitude": 49.0126, "attributes": {}, "type": "business"}
{"business_id": "rSCu0sU-3G6lZtSHKvZ_DA", "full_address": "Herm-Schneider-Allee 20\n76189 Karlsruhe", "hours": {}, "open": true, "categories": ["Pet Services", "Animal Shelters", "Pet Boarding/Pet Sitting", "Pets"], "city": "Karlsruhe", "review_count": 3, "name": "Tierschutzverein Karlsruhe u. Umgebung e.V.", "neighborhoods": [], "longitude": 8.31986, "state": "BW", "stars": 4.0, "latitude": 49.0039, "attributes": {}, "type": "business"}
{"business_id": "6So-3mhNwaJwXVKZ2_nZfA", "full_address": "Nancystr. 1\n76187 Karlsruhe", "hours": {}, "open": true, "categories": ["Active Life", "Horseback Riding", "Pets"], "city": "Karlsruhe", "review_count": 3, "name": "Egon von Neindorff", "neighborhoods": [], "longitude": 8.36914, "state": "BW", "stars": 3.0, "latitude": 49.0223, "attributes": {}, "type": "business"}
{"business_id": "IdkXYNl84sM8g84RL-euQA", "full_address": "Kaiserallee 139\n76185 Karlsruhe", "hours": {}, "open": true, "categories": ["Veterinarians", "Pets"], "city": "Karlsruhe", "review_count": 3, "name": "Dr. Eberhard G\u00f6tze", "neighborhoods": [], "longitude": 8.36654, "state": "BW", "stars": 3.5, "latitude": 49.0112, "attributes": {"Price Range": 2}, "type": "business"}
{"business_id": "NSvI23_bSqDLEIyZ6CG7Fg", "full_address": "Amthausstr. 16\n76227 Karlsruhe", "hours": {"Monday": {"close": "18:00", "open": "15:00"}, "Tuesday": {"close": "19:00", "open": "17:00"}, "Friday": {"close": "18:00", "open": "15:00"}, "Wednesday": {"close": "11:30", "open": "10:00"}, "Thursday": {"close": "18:00", "open": "15:00"}, "Saturday": {"close": "11:30", "open": "10:00"}}, "open": true, "categories": ["Veterinarians", "Pets"], "city": "Karlsruhe", "review_count": 5, "name": "Kleintierpraxis H. Sp\u00f6rle", "neighborhoods": [], "longitude": 8.471, "state": "BW", "stars": 4.0, "latitude": 48.9979, "attributes": {"Price Range": 3}, "type": "business"}
{"business_id": "M_O7vlWxe0GTzqnAhjXuHQ", "full_address": "Reinmuthstr. 47\n76187 Karlsruhe", "hours": {}, "open": true, "categories": ["Veterinarians", "Pets"], "city": "Karlsruhe", "review_count": 8, "name": "Tierarzt Stefan Petri", "neighborhoods": [], "longitude": 8.3433, "state": "BW", "stars": 3.5, "latitude": 49.0319, "attributes": {"Parking": {"garage": false, "validated": false, "street": false, "lot": false, "valet": false}, "Accepts Credit Cards": true, "Price Range": 3}, "type": "business"}
{"business_id": "iI-JzHYx0SQrnW3jBE2ZPQ", "full_address": "M\u00fchlstr. 8\n76229 Karlsruhe", "hours": {}, "open": true, "categories": ["Veterinarians", "Pets"], "city": "Karlsruhe", "review_count": 4, "name": "Dr. med. vet. H. Wessbecher", "neighborhoods": [], "longitude": 8.49661, "state": "BW", "stars": 5.0, "latitude": 49.0064, "attributes": {"Parking": {"garage": false, "validated": false, "street": false, "lot": false, "valet": false}, "Accepts Credit Cards": false, "Wheelchair Accessible": false, "Price Range": 2}, "type": "business"}
{"business_id": "P5kq8MLKjLm8ayy3hk8WSQ", "full_address": "Am Storrenacker 3\n76139 Karlsruhe", "hours": {"Monday": {"close": "20:00", "open": "10:00"}, "Tuesday": {"close": "20:00", "open": "10:00"}, "Friday": {"close": "20:00", "open": "10:00"}, "Wednesday": {"close": "20:00", "open": "10:00"}, "Thursday": {"close": "20:00", "open": "10:00"}, "Saturday": {"close": "20:00", "open": "10:00"}}, "open": true, "categories": ["Pets", "Pet Stores"], "city": "Karlsruhe", "review_count": 4, "name": "K\u00d6LLE-ZOO", "neighborhoods": [], "longitude": 8.4658, "state": "BW", "stars": 4.0, "latitude": 49.01939, "attributes": {"Parking": {"garage": false, "validated": false, "street": false, "lot": false, "valet": false}, "Accepts Credit Cards": true, "Price Range": 3}, "type": "business"}
{"business_id": "tCsJHnJ43IqCl-1iIccZYQ", "full_address": "Sternbergstr.  4\n76131 Karlsruhe", "hours": {}, "open": true, "categories": ["Veterinarians", "Pets"], "city": "Karlsruhe", "review_count": 4, "name": "Kleintierpraxis Sch\u00fctz", "neighborhoods": [], "longitude": 8.4254961, "state": "BW", "stars": 3.0, "latitude": 49.0105893, "attributes": {}, "type": "business"}
{"business_id": "PYMkf1KLKf7bvZZOVaZjYQ", "full_address": "Hardeckstr. 8\n76185 Karlsruhe", "hours": {}, "open": true, "categories": ["Pets", "Pet Stores"], "city": "Karlsruhe", "review_count": 3, "name": "Zoo SB-Markt f\u00fcr Heimtiere", "neighborhoods": [], "longitude": 8.36203, "state": "BW", "stars": 4.5, "latitude": 48.9982, "attributes": {"Parking": {"garage": false, "validated": false, "street": false, "lot": false, "valet": false}, "Accepts Credit Cards": true, "Price Range": 4}, "type": "business"}
{"business_id": "nCiqlnIu7pNmnRkQFibKsg", "full_address": "Hoffstr. 6\n76133 Karlsruhe", "hours": {}, "open": true, "categories": ["Veterinarians", "Pets"], "city": "Karlsruhe", "review_count": 4, "name": "Tierarzt Marcus Erben", "neighborhoods": [], "longitude": 8.38676, "state": "BW", "stars": 3.5, "latitude": 49.0126, "attributes": {}, "type": "business"}
{"business_id": "rSCu0sU-3G6lZtSHKvZ_DA", "full_address": "Herm-Schneider-Allee 20\n76189 Karlsruhe", "hours": {}, "open": true, "categories": ["Pet Services", "Animal Shelters", "Pet Boarding/Pet Sitting", "Pets"], "city": "Karlsruhe", "review_count": 3, "name": "Tierschutzverein Karlsruhe u. Umgebung e.V.", "neighborhoods": [], "longitude": 8.31986, "state": "BW", "stars": 4.0, "latitude": 49.0039, "attributes": {}, "type": "business"}
{"business_id": "6So-3mhNwaJwXVKZ2_nZfA", "full_address": "Nancystr. 1\n76187 Karlsruhe", "hours": {}, "open": true, "categories": ["Active Life", "Horseback Riding", "Pets"], "city": "Karlsruhe", "review_count": 3, "name": "Egon von Neindorff", "neighborhoods": [], "longitude": 8.36914, "state": "BW", "stars": 3.0, "latitude": 49.0223, "attributes": {}, "type": "business"}
{"business_id": "IdkXYNl84sM8g84RL-euQA", "full_address": "Kaiserallee 139\n76185 Karlsruhe", "hours": {}, "open": true, "categories": ["Veterinarians", "Pets"], "city": "Karlsruhe", "review_count": 3, "name": "Dr. Eberhard G\u00f6tze", "neighborhoods": [], "longitude": 8.36654, "state": "BW", "stars": 3.5, "latitude": 49.0112, "attributes": {"Price Range": 2}, "type": "business"}
{"business_id": "NSvI23_bSqDLEIyZ6CG7Fg", "full_address": "Amthausstr. 16\n76227 Karlsruhe", "hours": {"Monday": {"close": "18:00", "open": "15:00"}, "Tuesday": {"close": "19:00", "open": "17:00"}, "Friday": {"close": "18:00", "open": "15:00"}, "Wednesday": {"close": "11:30", "open": "10:00"}, "Thursday": {"close": "18:00", "open": "15:00"}, "Saturday": {"close": "11:30", "open": "10:00"}}, "open": true, "categories": ["Veterinarians", "Pets"], "city": "Karlsruhe", "review_count": 5, "name": "Kleintierpraxis H. Sp\u00f6rle", "neighborhoods": [], "longitude": 8.471, "state": "BW", "stars": 4.0, "latitude": 48.9979, "attributes": {"Price Range": 3}, "type": "business"}
{"business_id": "M_O7vlWxe0GTzqnAhjXuHQ", "full_address": "Reinmuthstr. 47\n76187 Karlsruhe", "hours": {}, "open": true, "categories": ["Veterinarians", "Pets"], "city": "Karlsruhe", "review_count": 8, "name": "Tierarzt Stefan Petri", "neighborhoods": [], "longitude": 8.3433, "state": "BW", "stars": 3.5, "latitude": 49.0319, "attributes": {"Parking": {"garage": false, "validated": false, "street": false, "lot": false, "valet": false}, "Accepts Credit Cards": true, "Price Range": 3}, "type": "business"}
{"business_id": "iI-JzHYx0SQrnW3jBE2ZPQ", "full_address": "M\u00fchlstr. 8\n76229 Karlsruhe", "hours": {}, "open": true, "categories": ["Veterinarians", "Pets"], "city": "Karlsruhe", "review_count": 4, "name": "Dr. med. vet. H. Wessbecher", "neighborhoods": [], "longitude": 8.49661, "state": "BW", "stars": 5.0, "latitude": 49.0064, "attributes": {"Parking": {"garage": false, "validated": false, "street": false, "lot": false, "valet": false}, "Accepts Credit Cards": false, "Wheelchair Accessible": false, "Price Range": 2}, "type": "business"}
{"business_id": "P5kq8MLKjLm8ayy3hk8WSQ", "full_address": "Am Storrenacker 3\n76139 Karlsruhe", "hours": {"Monday": {"close": "20:00", "open": "10:00"}, "Tuesday": {"close": "20:00", "open": "10:00"}, "Friday": {"close": "20:00", "open": "10:00"}, "Wednesday": {"close": "20:00", "open": "10:00"}, "Thursday": {"close": "20:00", "open": "10:00"}, "Saturday": {"close": "20:00", "open": "10:00"}}, "open": true, "categories": ["Pets", "Pet Stores"], "city": "Karlsruhe", "review_count": 4, "name": "K\u00d6LLE-ZOO", "neighborhoods": [], "longitude": 8.4658, "state": "BW", "stars": 4.0, "latitude": 49.01939, "attributes": {"Parking": {"garage": false, "validated": false, "street": false, "lot": false, "valet": false}, "Accepts Credit Cards": true, "Price Range": 3}, "type": "business"}
{"business_id": "tCsJHnJ43IqCl-1iIccZYQ", "full_address": "Sternbergstr.  4\n76131 Karlsruhe", "hours": {}, "open": true, "categories": ["Veterinarians", "Pets"], "city": "Karlsruhe", "review_count": 4, "name": "Kleintierpraxis Sch\u00fctz", "neighborhoods": [], "longitude": 8.4254961, "state": "BW", "stars": 3.0, "latitude": 49.0105893, "attributes": {}, "type": "business"}
{"business_id": "PYMkf1KLKf7bvZZOVaZjYQ", "full_address": "Hardeckstr. 8\n76185 Karlsruhe", "hours": {}, "open": true, "categories": ["Pets", "Pet Stores"], "city": "Karlsruhe", "review_count": 3, "name": "Zoo SB-Markt f\u00fcr Heimtiere", "neighborhoods": [], "longitude": 8.36203, "state": "BW", "stars": 4.5, "latitude": 48.9982, "attributes": {"Parking": {"garage": false, "validated": false, "street": false, "lot": false, "valet": false}, "Accepts Credit Cards": true, "Price Range": 4}, "type": "business"}
{"business_id": "nCiqlnIu7pNmnRkQFibKsg", "full_address": "Hoffstr. 6\n76133 Karlsruhe", "hours": {}, "open": true, "categories": ["Veterinarians", "Pets"], "city": "Karlsruhe", "review_count": 4, "name": "Tierarzt Marcus Erben", "neighborhoods": [], "longitude": 8.38676, "state": "BW", "stars": 3.5, "latitude": 49.0126, "attributes": {}, "type": "business"}
{"business_id": "rSCu0sU-3G6lZtSHKvZ_DA", "full_address": "Herm-Schneider-Allee 20\n76189 Karlsruhe", "hours": {}, "open": true, "categories": ["Pet Services", "Animal Shelters", "Pet Boarding/Pet Sitting", "Pets"], "city": "Karlsruhe", "review_count": 3, "name": "Tierschutzverein Karlsruhe u. Umgebung e.V.", "neighborhoods": [], "longitude": 8.31986, "state": "BW", "stars": 4.0, "latitude": 49.0039, "attributes": {}, "type": "business"}
{"business_id": "6So-3mhNwaJwXVKZ2_nZfA", "full_address": "Nancystr. 1\n76187 Karlsruhe", "hours": {}, "open": true, "categories": ["Active Life", "Horseback Riding", "Pets"], "city": "Karlsruhe", "review_count": 3, "name": "Egon von Neindorff", "neighborhoods": [], "longitude": 8.36914, "state": "BW", "stars": 3.0, "latitude": 49.0223, "attributes": {}, "type": "business"}
{"business_id": "IdkXYNl84sM8g84RL-euQA", "full_address": "Kaiserallee 139\n76185 Karlsruhe", "hours": {}, "open": true, "categories": ["Veterinarians", "Pets"], "city": "Karlsruhe", "review_count": 3, "name": "Dr. Eberhard G\u00f6tze", "neighborhoods": [], "longitude": 8.36654, "state": "BW", "stars": 3.5, "latitude": 49.0112, "attributes": {"Price Range": 2}, "type": "business"}
{"business_id": "NSvI23_bSqDLEIyZ6CG7Fg", "full_address": "Amthausstr. 16\n76227 Karlsruhe", "hours": {"Monday": {"close": "18:00", "open": "15:00"}, "Tuesday": {"close": "19:00", "open": "17:00"}, "Friday": {"close": "18:00", "open": "15:00"}, "Wednesday": {"close": "11:30", "open": "10:00"}, "Thursday": {"close": "18:00", "open": "15:00"}, "Saturday": {"close": "11:30", "open": "10:00"}}, "open": true, "categories": ["Veterinarians", "Pets"], "city": "Karlsruhe", "review_count": 5, "name": "Kleintierpraxis H. Sp\u00f6rle", "neighborhoods": [], "longitude": 8.471, "state": "BW", "stars": 4.0, "latitude": 48.9979, "attributes": {"Price Range": 3}, "type": "business"}
{"business_id": "M_O7vlWxe0GTzqnAhjXuHQ", "full_address": "Reinmuthstr. 47\n76187 Karlsruhe", "hours": {}, "open": true, "categories": ["Veterinarians", "Pets"], "city": "Karlsruhe", "review_count": 8, "name": "Tierarzt Stefan Petri", "neighborhoods": [], "longitude": 8.3433, "state": "BW", "stars": 3.5, "latitude": 49.0319, "attributes": {"Parking": {"garage": false, "validated": false, "street": false, "lot": false, "valet": false}, "Accepts Credit Cards": true, "Price Range": 3}, "type": "business"}
{"business_id": "iI-JzHYx0SQrnW3jBE2ZPQ", "full_address": "M\u00fchlstr. 8\n76229 Karlsruhe", "hours": {}, "open": true, "categories": ["Veterinarians", "Pets"], "city": "Karlsruhe", "review_count": 4, "name": "Dr. med. vet. H. Wessbecher", "neighborhoods": [], "longitude": 8.49661, "state": "BW", "stars": 5.0, "latitude": 49.0064, "attributes": {"Parking": {"garage": false, "validated": false, "street": false, "lot": false, "valet": false}, "Accepts Credit Cards": false, "Wheelchair Accessible": false, "Price Range": 2}, "type": "business"}
{"business_id": "P5kq8MLKjLm8ayy3hk8WSQ", "full_address": "Am Storrenacker 3\n76139 Karlsruhe", "hours": {"Monday": {"close": "20:00", "open": "10:00"}, "Tuesday": {"close": "20:00", "open": "10:00"}, "Friday": {"close": "20:00", "open": "10:00"}, "Wednesday": {"close": "20:00", "open": "10:00"}, "Thursday": {"close": "20:00", "open": "10:00"}, "Saturday": {"close": "20:00", "open": "10:00"}}, "open": true, "categories": ["Pets", "Pet Stores"], "city": "Karlsruhe", "review_count": 4, "name": "K\u00d6LLE-ZOO", "neighborhoods": [], "longitude": 8.4658, "state": "BW", "stars": 4.0, "latitude": 49.01939, "attributes": {"Parking": {"garage": false, "validated": false, "street": false, "lot": false, "valet": false}, "Accepts Credit Cards": true, "Price Range": 3}, "type": "business"}
{"business_id": "tCsJHnJ43IqCl-1iIccZYQ", "full_address": "Sternbergstr.  4\n76131 Karlsruhe", "hours": {}, "open": true, "categories": ["Veterinarians", "Pets"], "city": "Karlsruhe", "review_count": 4, "name": "Kleintierpraxis Sch\u00fctz", "neighborhoods": [], "longitude": 8.4254961, "state": "BW", "stars": 3.0, "latitude": 49.0105893, "attributes": {}, "type": "business"}
{"business_id": "PYMkf1KLKf7bvZZOVaZjYQ", "full_address": "Hardeckstr. 8\n76185 Karlsruhe", "hours": {}, "open": true, "categories": ["Pets", "Pet Stores"], "city": "Karlsruhe", "review_count": 3, "name": "Zoo SB-Markt f\u00fcr Heimtiere", "neighborhoods": [], "longitude": 8.36203, "state": "BW", "stars": 4.5, "latitude": 48.9982, "attributes": {"Parking": {"garage": false, "validated": false, "street": false, "lot": false, "valet": false}, "Accepts Credit Cards": true, "Price Range": 4}, "type": "business"}
{"business_id": "nCiqlnIu7pNmnRkQFibKsg", "full_address": "Hoffstr. 6\n76133 Karlsruhe", "hours": {}, "open": true, "categories": ["Veterinarians", "Pets"], "city": "Karlsruhe", "review_count": 4, "name": "Tierarzt Marcus Erben", "neighborhoods": [], "longitude": 8.38676, "state": "BW", "stars": 3.5, "latitude": 49.0126, "attributes": {}, "type": "business"}
