{"business_id": "TdFHwzPd5Ah_maA-kYktHw", "full_address": "Wilhelmstr. 1\n76275 Ettlingen", "hours": {}, "open": true, "categories": ["Neurologist", "Doctors", "Health & Medical", "Physical Therapy", "Psychiatrists"], "city": "Ettlingen", "review_count": 3, "name": "Dr. med. Bernhard Kopp", "neighborhoods": [], "longitude": 8.41062, "state": "BW", "stars": 4.5, "latitude": 48.939, "attributes": {}, "type": "business"}
{"business_id": "TdFHwzPd5Ah_maA-kYktHw", "full_address": "Wilhelmstr. 1\n76275 Ettlingen", "hours": {}, "open": true, "categories": ["Neurologist", "Doctors", "Health & Medical", "Physical Therapy", "Psychiatrists"], "city": "Ettlingen", "review_count": 3, "name": "Dr. med. Bernhard Kopp", "neighborhoods": [], "longitude": 8.41062, "state": "BW", "stars": 4.5, "latitude": 48.939, "attributes": {}, "type": "business"}
{"business_id": "TdFHwzPd5Ah_maA-kYktHw", "full_address": "Wilhelmstr. 1\n76275 Ettlingen", "hours": {}, "open": true, "categories": ["Neurologist", "Doctors", "Health & Medical", "Physical Therapy", "Psychiatrists"], "city": "Ettlingen", "review_count": 3, "name": "Dr. med. Bernhard Kopp", "neighborhoods": [], "longitude": 8.41062, "state": "BW", "stars": 4.5, "latitude": 48.939, "attributes": {}, "type": "business"}
{"business_id": "TdFHwzPd5Ah_maA-kYktHw", "full_address": "Wilhelmstr. 1\n76275 Ettlingen", "hours": {}, "open": true, "categories": ["Neurologist", "Doctors", "Health & Medical", "Physical Therapy", "Psychiatrists"], "city": "Ettlingen", "review_count": 3, "name": "Dr. med. Bernhard Kopp", "neighborhoods": [], "longitude": 8.41062, "state": "BW", "stars": 4.5, "latitude": 48.939, "attributes": {}, "type": "business"}
{"business_id": "TdFHwzPd5Ah_maA-kYktHw", "full_address": "Wilhelmstr. 1\n76275 Ettlingen", "hours": {}, "open": true, "categories": ["Neurologist", "Doctors", "Health & Medical", "Physical Therapy", "Psychiatrists"], "city": "Ettlingen", "review_count": 3, "name": "Dr. med. Bernhard Kopp", "neighborhoods": [], "longitude": 8.41062, "state": "BW", "stars": 4.5, "latitude": 48.939, "attributes": {}, "type": "business"}
{"business_id": "TdFHwzPd5Ah_maA-kYktHw", "full_address": "Wilhelmstr. 1\n76275 Ettlingen", "hours": {}, "open": true, "categories": ["Neurologist", "Doctors", "Health & Medical", "Physical Therapy", "Psychiatrists"], "city": "Ettlingen", "review_count": 3, "name": "Dr. med. Bernhard Kopp", "neighborhoods": [], "longitude": 8.41062, "state": "BW", "stars": 4.5, "latitude": 48.939, "attributes": {}, "type": "business"}
