{"business_id": "E6xrU8gCZxRlL60nGnf86w", "full_address": "Bahnhofplatz 1a\n76137 Karlsruhe", "hours": {}, "open": true, "categories": ["Arts & Entertainment", "General Festivals", "Festivals"], "city": "Karlsruhe", "review_count": 7, "name": "Bierb\u00f6rse", "neighborhoods": [], "longitude": 8.40099795225087, "state": "BW", "stars": 4.0, "latitude": 48.9935726631097, "attributes": {"Accepts Credit Cards": false, "Good for Kids": false, "Price Range": 2}, "type": "business"}
{"business_id": "22yGKqF09XSoZ49A9E209g", "full_address": "G\u00fcnther-Klotz-Anlage\n76135 Karlsruhe", "hours": {"Sunday": {"close": "02:00", "open": "09:00"}, "Friday": {"close": "02:00", "open": "18:00"}, "Saturday": {"close": "02:00", "open": "09:00"}}, "open": true, "categories": ["Arts & Entertainment", "General Festivals", "Festivals"], "city": "Karlsruhe", "review_count": 12, "name": "Das Fest", "neighborhoods": [], "longitude": 8.3820167, "state": "BW", "stars": 5.0, "latitude": 48.9908752, "attributes": {"Good for Kids": true, "Parking": {"garage": false, "validated": false, "street": false, "lot": false, "valet": false}, "Wheelchair Accessible": false, "Price Range": 1}, "type": "business"}
{"business_id": "yKA1moKJGHg_XNHmEfmigQ", "full_address": "76133 Karlsruhe", "hours": {}, "open": true, "categories": ["Arts & Entertainment", "Festivals", "Christmas Markets"], "city": "Karlsruhe", "review_count": 12, "name": "Weihnachtsmarkt am Marktplatz", "neighborhoods": [], "longitude": 8.393843, "state": "BW", "stars": 3.0, "latitude": 49.0067498, "attributes": {"Wheelchair Accessible": false, "Good for Kids": true, "Parking": {"garage": true, "validated": false, "street": false, "lot": false, "valet": false}}, "type": "business"}
{"business_id": "sVcfcjQ3X5dAMQyndIm35w", "full_address": "Pfinztalstra\u00dfe 9\n76227 Karlsruhe", "hours": {}, "open": true, "categories": ["Arts & Entertainment", "Festivals"], "city": "Karlsruhe", "review_count": 6, "name": "Mittelalterlicher Weihnachtsmarkt", "neighborhoods": [], "longitude": 8.47371, "state": "BW", "stars": 4.5, "latitude": 48.99888, "attributes": {}, "type": "business"}
{"business_id": "dCbLF_ttaqLxUcdW0n0S8g", "full_address": "Beim Schloss\n76275 Ettlingen", "hours": {}, "open": true, "categories": ["Arts & Entertainment", "Festivals", "Christmas Markets"], "city": "Ettlingen", "review_count": 3, "name": "Ettlinger Weihnachtsmarkt", "neighborhoods": [], "longitude": 8.36877, "state": "BW", "stars": 3.5, "latitude": 49.0299, "attributes": {"Good for Kids": true}, "type": "business"}
{"business_id": "E6xrU8gCZxRlL60nGnf86w", "full_address": "Bahnhofplatz 1a\n76137 Karlsruhe", "hours": {}, "open": true, "categories": ["Arts & Entertainment", "General Festivals", "Festivals"], "city": "Karlsruhe", "review_count": 7, "name": "Bierb\u00f6rse", "neighborhoods": [], "longitude": 8.40099795225087, "state": "BW", "stars": 4.0, "latitude": 48.9935726631097, "attributes": {"Accepts Credit Cards": false, "Good for Kids": false, "Price Range": 2}, "type": "business"}
{"business_id": "22yGKqF09XSoZ49A9E209g", "full_address": "G\u00fcnther-Klotz-Anlage\n76135 Karlsruhe", "hours": {"Sunday": {"close": "02:00", "open": "09:00"}, "Friday": {"close": "02:00", "open": "18:00"}, "Saturday": {"close": "02:00", "open": "09:00"}}, "open": true, "categories": ["Arts & Entertainment", "General Festivals", "Festivals"], "city": "Karlsruhe", "review_count": 12, "name": "Das Fest", "neighborhoods": [], "longitude": 8.3820167, "state": "BW", "stars": 5.0, "latitude": 48.9908752, "attributes": {"Good for Kids": true, "Parking": {"garage": false, "validated": false, "street": false, "lot": false, "valet": false}, "Wheelchair Accessible": false, "Price Range": 1}, "type": "business"}
{"business_id": "yKA1moKJGHg_XNHmEfmigQ", "full_address": "76133 Karlsruhe", "hours": {}, "open": true, "categories": ["Arts & Entertainment", "Festivals", "Christmas Markets"], "city": "Karlsruhe", "review_count": 12, "name": "Weihnachtsmarkt am Marktplatz", "neighborhoods": [], "longitude": 8.393843, "state": "BW", "stars": 3.0, "latitude": 49.0067498, "attributes": {"Wheelchair Accessible": false, "Good for Kids": true, "Parking": {"garage": true, "validated": false, "street": false, "lot": false, "valet": false}}, "type": "business"}
{"business_id": "sVcfcjQ3X5dAMQyndIm35w", "full_address": "Pfinztalstra\u00dfe 9\n76227 Karlsruhe", "hours": {}, "open": true, "categories": ["Arts & Entertainment", "Festivals"], "city": "Karlsruhe", "review_count": 6, "name": "Mittelalterlicher Weihnachtsmarkt", "neighborhoods": [], "longitude": 8.47371, "state": "BW", "stars": 4.5, "latitude": 48.99888, "attributes": {}, "type": "business"}
{"business_id": "dCbLF_ttaqLxUcdW0n0S8g", "full_address": "Beim Schloss\n76275 Ettlingen", "hours": {}, "open": true, "categories": ["Arts & Entertainment", "Festivals", "Christmas Markets"], "city": "Ettlingen", "review_count": 3, "name": "Ettlinger Weihnachtsmarkt", "neighborhoods": [], "longitude": 8.36877, "state": "BW", "stars": 3.5, "latitude": 49.0299, "attributes": {"Good for Kids": true}, "type": "business"}
{"business_id": "E6xrU8gCZxRlL60nGnf86w", "full_address": "Bahnhofplatz 1a\n76137 Karlsruhe", "hours": {}, "open": true, "categories": ["Arts & Entertainment", "General Festivals", "Festivals"], "city": "Karlsruhe", "review_count": 7, "name": "Bierb\u00f6rse", "neighborhoods": [], "longitude": 8.40099795225087, "state": "BW", "stars": 4.0, "latitude": 48.9935726631097, "attributes": {"Accepts Credit Cards": false, "Good for Kids": false, "Price Range": 2}, "type": "business"}
{"business_id": "22yGKqF09XSoZ49A9E209g", "full_address": "G\u00fcnther-Klotz-Anlage\n76135 Karlsruhe", "hours": {"Sunday": {"close": "02:00", "open": "09:00"}, "Friday": {"close": "02:00", "open": "18:00"}, "Saturday": {"close": "02:00", "open": "09:00"}}, "open": true, "categories": ["Arts & Entertainment", "General Festivals", "Festivals"], "city": "Karlsruhe", "review_count": 12, "name": "Das Fest", "neighborhoods": [], "longitude": 8.3820167, "state": "BW", "stars": 5.0, "latitude": 48.9908752, "attributes": {"Good for Kids": true, "Parking": {"garage": false, "validated": false, "street": false, "lot": false, "valet": false}, "Wheelchair Accessible": false, "Price Range": 1}, "type": "business"}
{"business_id": "yKA1moKJGHg_XNHmEfmigQ", "full_address": "76133 Karlsruhe", "hours": {}, "open": true, "categories": ["Arts & Entertainment", "Festivals", "Christmas Markets"], "city": "Karlsruhe", "review_count": 12, "name": "Weihnachtsmarkt am Marktplatz", "neighborhoods": [], "longitude": 8.393843, "state": "BW", "stars": 3.0, "latitude": 49.0067498, "attributes": {"Wheelchair Accessible": false, "Good for Kids": true, "Parking": {"garage": true, "validated": false, "street": false, "lot": false, "valet": false}}, "type": "business"}
{"business_id": "sVcfcjQ3X5dAMQyndIm35w", "full_address": "Pfinztalstra\u00dfe 9\n76227 Karlsruhe", "hours": {}, "open": true, "categories": ["Arts & Entertainment", "Festivals"], "city": "Karlsruhe", "review_count": 6, "name": "Mittelalterlicher Weihnachtsmarkt", "neighborhoods": [], "longitude": 8.47371, "state": "BW", "stars": 4.5, "latitude": 48.99888, "attributes": {}, "type": "business"}
{"business_id": "dCbLF_ttaqLxUcdW0n0S8g", "full_address": "Beim Schloss\n76275 Ettlingen", "hours": {}, "open": true, "categories": ["Arts & Entertainment", "Festivals", "Christmas Markets"], "city": "Ettlingen", "review_count": 3, "name": "Ettlinger Weihnachtsmarkt", "neighborhoods": [], "longitude": 8.36877, "state": "BW", "stars": 3.5, "latitude": 49.0299, "attributes": {"Good for Kids": true}, "type": "business"}
{"business_id": "E6xrU8gCZxRlL60nGnf86w", "full_address": "Bahnhofplatz 1a\n76137 Karlsruhe", "hours": {}, "open": true, "categories": ["Arts & Entertainment", "General Festivals", "Festivals"], "city": "Karlsruhe", "review_count": 7, "name": "Bierb\u00f6rse", "neighborhoods": [], "longitude": 8.40099795225087, "state": "BW", "stars": 4.0, "latitude": 48.9935726631097, "attributes": {"Accepts Credit Cards": false, "Good for Kids": false, "Price Range": 2}, "type": "business"}
{"business_id": "22yGKqF09XSoZ49A9E209g", "full_address": "G\u00fcnther-Klotz-Anlage\n76135 Karlsruhe", "hours": {"Sunday": {"close": "02:00", "open": "09:00"}, "Friday": {"close": "02:00", "open": "18:00"}, "Saturday": {"close": "02:00", "open": "09:00"}}, "open": true, "categories": ["Arts & Entertainment", "General Festivals", "Festivals"], "city": "Karlsruhe", "review_count": 12, "name": "Das Fest", "neighborhoods": [], "longitude": 8.3820167, "state": "BW", "stars": 5.0, "latitude": 48.9908752, "attributes": {"Good for Kids": true, "Parking": {"garage": false, "validated": false, "street": false, "lot": false, "valet": false}, "Wheelchair Accessible": false, "Price Range": 1}, "type": "business"}
{"business_id": "yKA1moKJGHg_XNHmEfmigQ", "full_address": "76133 Karlsruhe", "hours": {}, "open": true, "categories": ["Arts & Entertainment", "Festivals", "Christmas Markets"], "city": "Karlsruhe", "review_count": 12, "name": "Weihnachtsmarkt am Marktplatz", "neighborhoods": [], "longitude": 8.393843, "state": "BW", "stars": 3.0, "latitude": 49.0067498, "attributes": {"Wheelchair Accessible": false, "Good for Kids": true, "Parking": {"garage": true, "validated": false, "street": false, "lot": false, "valet": false}}, "type": "business"}
{"business_id": "sVcfcjQ3X5dAMQyndIm35w", "full_address": "Pfinztalstra\u00dfe 9\n76227 Karlsruhe", "hours": {}, "open": true, "categories": ["Arts & Entertainment", "Festivals"], "city": "Karlsruhe", "review_count": 6, "name": "Mittelalterlicher Weihnachtsmarkt", "neighborhoods": [], "longitude": 8.47371, "state": "BW", "stars": 4.5, "latitude": 48.99888, "attributes": {}, "type": "business"}
{"business_id": "dCbLF_ttaqLxUcdW0n0S8g", "full_address": "Beim Schloss\n76275 Ettlingen", "hours": {}, "open": true, "categories": ["Arts & Entertainment", "Festivals", "Christmas Markets"], "city": "Ettlingen", "review_count": 3, "name": "Ettlinger Weihnachtsmarkt", "neighborhoods": [], "longitude": 8.36877, "state": "BW", "stars": 3.5, "latitude": 49.0299, "attributes": {"Good for Kids": true}, "type": "business"}
{"business_id": "E6xrU8gCZxRlL60nGnf86w", "full_address": "Bahnhofplatz 1a\n76137 Karlsruhe", "hours": {}, "open": true, "categories": ["Arts & Entertainment", "General Festivals", "Festivals"], "city": "Karlsruhe", "review_count": 7, "name": "Bierb\u00f6rse", "neighborhoods": [], "longitude": 8.40099795225087, "state": "BW", "stars": 4.0, "latitude": 48.9935726631097, "attributes": {"Accepts Credit Cards": false, "Good for Kids": false, "Price Range": 2}, "type": "business"}
{"business_id": "22yGKqF09XSoZ49A9E209g", "full_address": "G\u00fcnther-Klotz-Anlage\n76135 Karlsruhe", "hours": {"Sunday": {"close": "02:00", "open": "09:00"}, "Friday": {"close": "02:00", "open": "18:00"}, "Saturday": {"close": "02:00", "open": "09:00"}}, "open": true, "categories": ["Arts & Entertainment", "General Festivals", "Festivals"], "city": "Karlsruhe", "review_count": 12, "name": "Das Fest", "neighborhoods": [], "longitude": 8.3820167, "state": "BW", "stars": 5.0, "latitude": 48.9908752, "attributes": {"Good for Kids": true, "Parking": {"garage": false, "validated": false, "street": false, "lot": false, "valet": false}, "Wheelchair Accessible": false, "Price Range": 1}, "type": "business"}
{"business_id": "yKA1moKJGHg_XNHmEfmigQ", "full_address": "76133 Karlsruhe", "hours": {}, "open": true, "categories": ["Arts & Entertainment", "Festivals", "Christmas Markets"], "city": "Karlsruhe", "review_count": 12, "name": "Weihnachtsmarkt am Marktplatz", "neighborhoods": [], "longitude": 8.393843, "state": "BW", "stars": 3.0, "latitude": 49.0067498, "attributes": {"Wheelchair Accessible": false, "Good for Kids": true, "Parking": {"garage": true, "validated": false, "street": false, "lot": false, "valet": false}}, "type": "business"}
{"business_id": "sVcfcjQ3X5dAMQyndIm35w", "full_address": "Pfinztalstra\u00dfe 9\n76227 Karlsruhe", "hours": {}, "open": true, "categories": ["Arts & Entertainment", "Festivals"], "city": "Karlsruhe", "review_count": 6, "name": "Mittelalterlicher Weihnachtsmarkt", "neighborhoods": [], "longitude": 8.47371, "state": "BW", "stars": 4.5, "latitude": 48.99888, "attributes": {}, "type": "business"}
{"business_id": "dCbLF_ttaqLxUcdW0n0S8g", "full_address": "Beim Schloss\n76275 Ettlingen", "hours": {}, "open": true, "categories": ["Arts & Entertainment", "Festivals", "Christmas Markets"], "city": "Ettlingen", "review_count": 3, "name": "Ettlinger Weihnachtsmarkt", "neighborhoods": [], "longitude": 8.36877, "state": "BW", "stars": 3.5, "latitude": 49.0299, "attributes": {"Good for Kids": true}, "type": "business"}
{"business_id": "E6xrU8gCZxRlL60nGnf86w", "full_address": "Bahnhofplatz 1a\n76137 Karlsruhe", "hours": {}, "open": true, "categories": ["Arts & Entertainment", "General Festivals", "Festivals"], "city": "Karlsruhe", "review_count": 7, "name": "Bierb\u00f6rse", "neighborhoods": [], "longitude": 8.40099795225087, "state": "BW", "stars": 4.0, "latitude": 48.9935726631097, "attributes": {"Accepts Credit Cards": false, "Good for Kids": false, "Price Range": 2}, "type": "business"}
{"business_id": "22yGKqF09XSoZ49A9E209g", "full_address": "G\u00fcnther-Klotz-Anlage\n76135 Karlsruhe", "hours": {"Sunday": {"close": "02:00", "open": "09:00"}, "Friday": {"close": "02:00", "open": "18:00"}, "Saturday": {"close": "02:00", "open": "09:00"}}, "open": true, "categories": ["Arts & Entertainment", "General Festivals", "Festivals"], "city": "Karlsruhe", "review_count": 12, "name": "Das Fest", "neighborhoods": [], "longitude": 8.3820167, "state": "BW", "stars": 5.0, "latitude": 48.9908752, "attributes": {"Good for Kids": true, "Parking": {"garage": false, "validated": false, "street": false, "lot": false, "valet": false}, "Wheelchair Accessible": false, "Price Range": 1}, "type": "business"}
{"business_id": "yKA1moKJGHg_XNHmEfmigQ", "full_address": "76133 Karlsruhe", "hours": {}, "open": true, "categories": ["Arts & Entertainment", "Festivals", "Christmas Markets"], "city": "Karlsruhe", "review_count": 12, "name": "Weihnachtsmarkt am Marktplatz", "neighborhoods": [], "longitude": 8.393843, "state": "BW", "stars": 3.0, "latitude": 49.0067498, "attributes": {"Wheelchair Accessible": false, "Good for Kids": true, "Parking": {"garage": true, "validated": false, "street": false, "lot": false, "valet": false}}, "type": "business"}
{"business_id": "sVcfcjQ3X5dAMQyndIm35w", "full_address": "Pfinztalstra\u00dfe 9\n76227 Karlsruhe", "hours": {}, "open": true, "categories": ["Arts & Entertainment", "Festivals"], "city": "Karlsruhe", "review_count": 6, "name": "Mittelalterlicher Weihnachtsmarkt", "neighborhoods": [], "longitude": 8.47371, "state": "BW", "stars": 4.5, "latitude": 48.99888, "attributes": {}, "type": "business"}
{"business_id": "dCbLF_ttaqLxUcdW0n0S8g", "full_address": "Beim Schloss\n76275 Ettlingen", "hours": {}, "open": true, "categories": ["Arts & Entertainment", "Festivals", "Christmas Markets"], "city": "Ettlingen", "review_count": 3, "name": "Ettlinger Weihnachtsmarkt", "neighborhoods": [], "longitude": 8.36877, "state": "BW", "stars": 3.5, "latitude": 49.0299, "attributes": {"Good for Kids": true}, "type": "business"}
