{"business_id": "wrx5vY6gRznXwn_XKgRrwQ", "full_address": "Ottostra\u00dfe  3d\n76227 Karlsruhe", "hours": {}, "open": true, "categories": ["Active Life", "Go Karts"], "city": "Karlsruhe", "review_count": 7, "name": "Kart& Eventcenter", "neighborhoods": [], "longitude": 8.44813, "state": "BW", "stars": 4.5, "latitude": 48.99565, "attributes": {"Parking": {"garage": false, "validated": false, "street": false, "lot": false, "valet": false}, "Good for Kids": true, "Price Range": 3}, "type": "business"}
{"business_id": "wrx5vY6gRznXwn_XKgRrwQ", "full_address": "Ottostra\u00dfe  3d\n76227 Karlsruhe", "hours": {}, "open": true, "categories": ["Active Life", "Go Karts"], "city": "Karlsruhe", "review_count": 7, "name": "Kart& Eventcenter", "neighborhoods": [], "longitude": 8.44813, "state": "BW", "stars": 4.5, "latitude": 48.99565, "attributes": {"Parking": {"garage": false, "validated": false, "street": false, "lot": false, "valet": false}, "Good for Kids": true, "Price Range": 3}, "type": "business"}
{"business_id": "wrx5vY6gRznXwn_XKgRrwQ", "full_address": "Ottostra\u00dfe  3d\n76227 Karlsruhe", "hours": {}, "open": true, "categories": ["Active Life", "Go Karts"], "city": "Karlsruhe", "review_count": 7, "name": "Kart& Eventcenter", "neighborhoods": [], "longitude": 8.44813, "state": "BW", "stars": 4.5, "latitude": 48.99565, "attributes": {"Parking": {"garage": false, "validated": false, "street": false, "lot": false, "valet": false}, "Good for Kids": true, "Price Range": 3}, "type": "business"}
{"business_id": "wrx5vY6gRznXwn_XKgRrwQ", "full_address": "Ottostra\u00dfe  3d\n76227 Karlsruhe", "hours": {}, "open": true, "categories": ["Active Life", "Go Karts"], "city": "Karlsruhe", "review_count": 7, "name": "Kart& Eventcenter", "neighborhoods": [], "longitude": 8.44813, "state": "BW", "stars": 4.5, "latitude": 48.99565, "attributes": {"Parking": {"garage": false, "validated": false, "street": false, "lot": false, "valet": false}, "Good for Kids": true, "Price Range": 3}, "type": "business"}
{"business_id": "wrx5vY6gRznXwn_XKgRrwQ", "full_address": "Ottostra\u00dfe  3d\n76227 Karlsruhe", "hours": {}, "open": true, "categories": ["Active Life", "Go Karts"], "city": "Karlsruhe", "review_count": 7, "name": "Kart& Eventcenter", "neighborhoods": [], "longitude": 8.44813, "state": "BW", "stars": 4.5, "latitude": 48.99565, "attributes": {"Parking": {"garage": false, "validated": false, "street": false, "lot": false, "valet": false}, "Good for Kids": true, "Price Range": 3}, "type": "business"}
{"business_id": "wrx5vY6gRznXwn_XKgRrwQ", "full_address": "Ottostra\u00dfe  3d\n76227 Karlsruhe", "hours": {}, "open": true, "categories": ["Active Life", "Go Karts"], "city": "Karlsruhe", "review_count": 7, "name": "Kart& Eventcenter", "neighborhoods": [], "longitude": 8.44813, "state": "BW", "stars": 4.5, "latitude": 48.99565, "attributes": {"Parking": {"garage": false, "validated": false, "street": false, "lot": false, "valet": false}, "Good for Kids": true, "Price Range": 3}, "type": "business"}
