{"business_id": "He-DZK510V8MHobwyYBr4w", "full_address": "Kirchenplatz 5\n76275 Ettlingen", "hours": {}, "open": true, "categories": ["Food", "Ice Cream & Frozen Yogurt", "Cafes", "Restaurants"], "city": "Ettlingen", "review_count": 13, "name": "Caf\u00e9s Pierod", "neighborhoods": [], "longitude": 8.40803, "state": "BW", "stars": 4.5, "latitude": 48.9414, "attributes": {"Take-out": true, "Wi-Fi": "no", "Good For": {"dessert": false, "latenight": false, "lunch": false, "dinner": false, "brunch": false, "breakfast": false}, "Parking": {"garage": false, "validated": false, "street": false, "lot": false, "valet": false}, "Has TV": false, "Delivery": false, "Wheelchair Accessible": false, "Outdoor Seating": true, "Attire": "casual", "Alcohol": "beer_and_wine", "Smoking": "outdoor", "Accepts Credit Cards": false, "Good for Kids": true, "Good For Groups": true, "Price Range": 3}, "type": "business"}
{"business_id": "cxs28BsfEmlkRUTucx8a8w", "full_address": "Kaiserpassage 2\n76133 Karlsruhe", "hours": {}, "open": true, "categories": ["Food", "Ice Cream & Frozen Yogurt", "Coffee & Tea", "Cafes", "Restaurants"], "city": "Karlsruhe", "review_count": 4, "name": "Eiscafe Capri", "neighborhoods": [], "longitude": 8.39732, "state": "BW", "stars": 4.0, "latitude": 49.0102, "attributes": {"Take-out": true, "Good For Groups": true, "Price Range": 2}, "type": "business"}
{"business_id": "Umq7lcGqslqbIFtPHwvSYw", "full_address": "Kaiserstr. 124C\n76133 Karlsruhe", "hours": {}, "open": true, "categories": ["Food", "Ice Cream & Frozen Yogurt", "Coffee & Tea", "Cafes", "Restaurants"], "city": "Karlsruhe", "review_count": 28, "name": "Eiscafe Casal", "neighborhoods": [], "longitude": 8.3969286, "state": "BW", "stars": 4.5, "latitude": 49.0099839, "attributes": {"Take-out": true, "Wi-Fi": "no", "Good For": {"dessert": true, "latenight": false, "lunch": false, "dinner": false, "breakfast": false, "brunch": false}, "Caters": false, "Noise Level": "loud", "Takes Reservations": false, "Has TV": false, "Smoking": "outdoor", "Delivery": false, "Ambience": {"romantic": false, "intimate": false, "classy": false, "hipster": false, "divey": false, "touristy": false, "trendy": false, "upscale": false, "casual": false}, "Parking": {"garage": false, "street": false, "validated": false, "lot": false, "valet": false}, "Wheelchair Accessible": true, "Outdoor Seating": true, "Attire": "casual", "Alcohol": "beer_and_wine", "Waiter Service": true, "Accepts Credit Cards": false, "Good for Kids": true, "Good For Groups": true, "Price Range": 2}, "type": "business"}
{"business_id": "hJuw__aAzsTKNZjLpFUUcg", "full_address": "Kaiserstr. 101\n76133 Karlsruhe", "hours": {}, "open": true, "categories": ["Food", "Ice Cream & Frozen Yogurt", "Restaurants"], "city": "Karlsruhe", "review_count": 4, "name": "Cortina", "neighborhoods": [], "longitude": 8.40791, "state": "BW", "stars": 4.5, "latitude": 49.0094, "attributes": {"Good For": {"dessert": false, "latenight": false, "lunch": false, "dinner": false, "breakfast": false, "brunch": false}, "Noise Level": "average", "Takes Reservations": false, "Outdoor Seating": true, "Attire": "casual", "Waiter Service": true, "Good For Groups": true, "Price Range": 1}, "type": "business"}
{"business_id": "ZQ6HmK2N2EyP3EU-vtq6_Q", "full_address": "Lammstr. 7\n76133 Karlsruhe", "hours": {}, "open": true, "categories": ["Food", "Ice Cream & Frozen Yogurt", "Cafes", "Restaurants"], "city": "Karlsruhe", "review_count": 11, "name": "Da Vinci", "neighborhoods": [], "longitude": 8.40248, "state": "BW", "stars": 4.5, "latitude": 49.0093, "attributes": {"Take-out": true, "Parking": {"garage": false, "street": false, "validated": false, "lot": false, "valet": false}, "Delivery": false, "Outdoor Seating": true, "Attire": "casual", "Accepts Credit Cards": false, "Good for Kids": true, "Good For Groups": true, "Price Range": 2}, "type": "business"}
{"business_id": "Xd0RmBnBrogo0LETOm3ddA", "full_address": "Kaiserallee 7a\n76133 Karlsruhe", "hours": {}, "open": false, "categories": ["Food", "Ice Cream & Frozen Yogurt"], "city": "Karlsruhe", "review_count": 3, "name": "Eiscafe Dolomiti", "neighborhoods": [], "longitude": 8.3858862, "state": "BW", "stars": 4.5, "latitude": 49.0102097, "attributes": {"Parking": {"garage": false, "validated": false, "street": false, "lot": false, "valet": false}, "Outdoor Seating": true, "Price Range": 2}, "type": "business"}
{"business_id": "NBvCfBuShkbCfBVvtmKchQ", "full_address": "Kaiserstr. 133\n76133 Karlsruhe", "hours": {}, "open": true, "categories": ["Food", "Ice Cream & Frozen Yogurt", "Coffee & Tea", "Cafes", "Restaurants"], "city": "Karlsruhe", "review_count": 9, "name": "Cafe Pierod", "neighborhoods": [], "longitude": 8.40472, "state": "BW", "stars": 3.5, "latitude": 49.0096, "attributes": {}, "type": "business"}
{"business_id": "n7FOMSsN4wSv6PEMuRX_PA", "full_address": "Hellbergstr. 1\n76189 Karlsruhe", "hours": {"Monday": {"close": "20:00", "open": "11:00"}, "Tuesday": {"close": "20:00", "open": "11:00"}, "Friday": {"close": "20:00", "open": "11:00"}, "Wednesday": {"close": "20:00", "open": "11:00"}, "Thursday": {"close": "20:00", "open": "11:00"}, "Sunday": {"close": "20:00", "open": "11:00"}, "Saturday": {"close": "20:00", "open": "11:00"}}, "open": true, "categories": ["Food", "Ice Cream & Frozen Yogurt"], "city": "Karlsruhe", "review_count": 7, "name": "Eiscafe Eis-Oma", "neighborhoods": [], "longitude": 8.35395, "state": "BW", "stars": 4.0, "latitude": 48.9933, "attributes": {"Parking": {"garage": false, "validated": false, "street": false, "lot": false, "valet": false}, "Wheelchair Accessible": false, "Outdoor Seating": true, "Price Range": 2}, "type": "business"}
{"business_id": "oU97TcNDBHZu0gGH2wiT7Q", "full_address": "Hauptstr. 37\n76344 Eggenstein-Leopoldshafen", "hours": {}, "open": true, "categories": ["Food", "Ice Cream & Frozen Yogurt"], "city": "Eggenstein-Leopoldshafen", "review_count": 10, "name": "Eisdiele Veneta", "neighborhoods": [], "longitude": 8.3890607, "state": "BW", "stars": 4.5, "latitude": 49.0789607, "attributes": {"Good For": {"dessert": false, "latenight": false, "lunch": false, "dinner": false, "breakfast": false, "brunch": false}, "Takes Reservations": false, "Wheelchair Accessible": false, "Outdoor Seating": true, "Parking": {"garage": false, "street": false, "validated": false, "lot": false, "valet": false}, "Smoking": "outdoor", "Accepts Credit Cards": false, "Good For Groups": false, "Price Range": 2}, "type": "business"}
{"business_id": "iiB7mtJQEkwxhr3ka7Wb_w", "full_address": "Martin-Luther-Str. 12\n76229 Karlsruhe", "hours": {"Monday": {"close": "21:00", "open": "12:00"}, "Tuesday": {"close": "21:00", "open": "12:00"}, "Friday": {"close": "21:00", "open": "12:00"}, "Wednesday": {"close": "21:00", "open": "12:00"}, "Thursday": {"close": "21:00", "open": "12:00"}, "Sunday": {"close": "21:00", "open": "12:00"}, "Saturday": {"close": "21:00", "open": "12:00"}}, "open": true, "categories": ["Food", "Ice Cream & Frozen Yogurt"], "city": "Karlsruhe", "review_count": 5, "name": "Eismarie", "neighborhoods": [], "longitude": 8.4967142, "state": "BW", "stars": 3.0, "latitude": 49.0054172, "attributes": {"Parking": {"garage": false, "street": false, "validated": false, "lot": false, "valet": false}, "Accepts Credit Cards": false, "Wi-Fi": "no", "Price Range": 2}, "type": "business"}
{"business_id": "J6OFcAKsbOvzZBoNqTe2dQ", "full_address": "Sophienstr. 98\nWeststadt\n76135 Karlsruhe", "hours": {}, "open": true, "categories": ["Food", "Ice Cream & Frozen Yogurt"], "city": "Karlsruhe", "review_count": 7, "name": "Eiscafe Am Sophienpark", "neighborhoods": [], "longitude": 8.38314, "state": "BW", "stars": 4.5, "latitude": 49.00804, "attributes": {"Accepts Credit Cards": false, "Takes Reservations": true, "Wi-Fi": "free", "Outdoor Seating": true, "Parking": {"garage": false, "validated": false, "street": false, "lot": false, "valet": false}, "Smoking": "no", "Wheelchair Accessible": true, "Price Range": 2}, "type": "business"}
{"business_id": "guaPlDZLMG3kljQv0OsCYA", "full_address": "Douglasstr. 32\n76133 Karlsruhe", "hours": {"Monday": {"close": "20:00", "open": "12:00"}, "Tuesday": {"close": "20:00", "open": "12:00"}, "Friday": {"close": "20:00", "open": "12:00"}, "Wednesday": {"close": "20:00", "open": "12:00"}, "Thursday": {"close": "20:00", "open": "12:00"}, "Saturday": {"close": "20:00", "open": "12:00"}}, "open": false, "categories": ["Food", "Ice Cream & Frozen Yogurt"], "city": "Karlsruhe", "review_count": 5, "name": "Yogurt Monster", "neighborhoods": [], "longitude": 8.3933518, "state": "BW", "stars": 4.5, "latitude": 49.0089285, "attributes": {"Outdoor Seating": false, "Takes Reservations": false, "Good For": {"dessert": false, "latenight": false, "lunch": false, "dinner": false, "breakfast": false, "brunch": false}, "Attire": "casual", "Alcohol": "none", "Smoking": "no", "Accepts Credit Cards": false, "Price Range": 2}, "type": "business"}
{"business_id": "NGVIpkvMko7HBIR5dSf97w", "full_address": "Ettlinger-Tor-Platz 1\n76133 Karlsruhe", "hours": {}, "open": true, "categories": ["Food", "Ice Cream & Frozen Yogurt"], "city": "Karlsruhe", "review_count": 4, "name": "Eiscaf\u00e9 Florenz", "neighborhoods": [], "longitude": 8.40342, "state": "BW", "stars": 3.5, "latitude": 49.0056, "attributes": {"Parking": {"garage": false, "street": false, "validated": false, "lot": false, "valet": false}, "Accepts Credit Cards": false, "Wi-Fi": "no", "Price Range": 3}, "type": "business"}
{"business_id": "rE-MBRj1Nf3pnzEQ0msotA", "full_address": "Schlo\u00dfplatz 6\n76275 Ettlingen", "hours": {}, "open": true, "categories": ["Food", "Ice Cream & Frozen Yogurt"], "city": "Ettlingen", "review_count": 6, "name": "Tiziano", "neighborhoods": [], "longitude": 8.40636807465739, "state": "BW", "stars": 3.5, "latitude": 48.9408228279515, "attributes": {"Price Range": 3, "Attire": "casual"}, "type": "business"}
{"business_id": "DUc-A2ZYS3BFE2wl-rslvw", "full_address": "Sch\u00f6llbronner Str. 57\n76275 Ettlingen", "hours": {}, "open": true, "categories": ["Food", "Ice Cream & Frozen Yogurt"], "city": "Ettlingen", "review_count": 4, "name": "Bruno's Eisladen", "neighborhoods": [], "longitude": 8.41583, "state": "BW", "stars": 4.0, "latitude": 48.9371, "attributes": {"Accepts Credit Cards": false, "Outdoor Seating": true, "Price Range": 1}, "type": "business"}
{"business_id": "klkVCqlVYBYvO3hvtmMHeA", "full_address": "Georg-Friedrich-Str. 30\n76131 Karlsruhe", "hours": {"Monday": {"close": "22:00", "open": "10:00"}, "Tuesday": {"close": "22:00", "open": "10:00"}, "Friday": {"close": "22:00", "open": "10:00"}, "Wednesday": {"close": "22:00", "open": "10:00"}, "Thursday": {"close": "22:00", "open": "10:00"}, "Sunday": {"close": "22:00", "open": "10:00"}, "Saturday": {"close": "22:00", "open": "10:00"}}, "open": true, "categories": ["Food", "Ice Cream & Frozen Yogurt"], "city": "Karlsruhe", "review_count": 27, "name": "Eis Casata", "neighborhoods": [], "longitude": 8.42338, "state": "BW", "stars": 4.5, "latitude": 49.009, "attributes": {"Take-out": true, "Wi-Fi": "no", "Good For": {"dessert": false, "latenight": false, "lunch": false, "dinner": false, "brunch": false, "breakfast": false}, "Caters": false, "Noise Level": "loud", "Takes Reservations": false, "Has TV": false, "Smoking": "outdoor", "Delivery": false, "Ambience": {"romantic": false, "intimate": false, "classy": false, "hipster": false, "divey": false, "touristy": false, "trendy": false, "upscale": false, "casual": false}, "Parking": {"garage": false, "street": true, "validated": false, "lot": false, "valet": false}, "Wheelchair Accessible": false, "Outdoor Seating": true, "Attire": "casual", "Alcohol": "none", "Waiter Service": false, "Accepts Credit Cards": false, "Good for Kids": true, "Good For Groups": true, "Price Range": 2}, "type": "business"}
{"business_id": "nrdrdEq0x2yPknCYCLjINw", "full_address": "Pfinztalstra\u00dfe\n76227 Karlsruhe", "hours": {}, "open": true, "categories": ["Food", "Ice Cream & Frozen Yogurt"], "city": "Karlsruhe", "review_count": 3, "name": "Gelatone", "neighborhoods": [], "longitude": 8.47008, "state": "BW", "stars": 5.0, "latitude": 48.9992, "attributes": {}, "type": "business"}
{"business_id": "He-DZK510V8MHobwyYBr4w", "full_address": "Kirchenplatz 5\n76275 Ettlingen", "hours": {}, "open": true, "categories": ["Food", "Ice Cream & Frozen Yogurt", "Cafes", "Restaurants"], "city": "Ettlingen", "review_count": 13, "name": "Caf\u00e9s Pierod", "neighborhoods": [], "longitude": 8.40803, "state": "BW", "stars": 4.5, "latitude": 48.9414, "attributes": {"Take-out": true, "Wi-Fi": "no", "Good For": {"dessert": false, "latenight": false, "lunch": false, "dinner": false, "brunch": false, "breakfast": false}, "Parking": {"garage": false, "validated": false, "street": false, "lot": false, "valet": false}, "Has TV": false, "Delivery": false, "Wheelchair Accessible": false, "Outdoor Seating": true, "Attire": "casual", "Alcohol": "beer_and_wine", "Smoking": "outdoor", "Accepts Credit Cards": false, "Good for Kids": true, "Good For Groups": true, "Price Range": 3}, "type": "business"}
{"business_id": "cxs28BsfEmlkRUTucx8a8w", "full_address": "Kaiserpassage 2\n76133 Karlsruhe", "hours": {}, "open": true, "categories": ["Food", "Ice Cream & Frozen Yogurt", "Coffee & Tea", "Cafes", "Restaurants"], "city": "Karlsruhe", "review_count": 4, "name": "Eiscafe Capri", "neighborhoods": [], "longitude": 8.39732, "state": "BW", "stars": 4.0, "latitude": 49.0102, "attributes": {"Take-out": true, "Good For Groups": true, "Price Range": 2}, "type": "business"}
{"business_id": "Umq7lcGqslqbIFtPHwvSYw", "full_address": "Kaiserstr. 124C\n76133 Karlsruhe", "hours": {}, "open": true, "categories": ["Food", "Ice Cream & Frozen Yogurt", "Coffee & Tea", "Cafes", "Restaurants"], "city": "Karlsruhe", "review_count": 28, "name": "Eiscafe Casal", "neighborhoods": [], "longitude": 8.3969286, "state": "BW", "stars": 4.5, "latitude": 49.0099839, "attributes": {"Take-out": true, "Wi-Fi": "no", "Good For": {"dessert": true, "latenight": false, "lunch": false, "dinner": false, "breakfast": false, "brunch": false}, "Caters": false, "Noise Level": "loud", "Takes Reservations": false, "Has TV": false, "Smoking": "outdoor", "Delivery": false, "Ambience": {"romantic": false, "intimate": false, "classy": false, "hipster": false, "divey": false, "touristy": false, "trendy": false, "upscale": false, "casual": false}, "Parking": {"garage": false, "street": false, "validated": false, "lot": false, "valet": false}, "Wheelchair Accessible": true, "Outdoor Seating": true, "Attire": "casual", "Alcohol": "beer_and_wine", "Waiter Service": true, "Accepts Credit Cards": false, "Good for Kids": true, "Good For Groups": true, "Price Range": 2}, "type": "business"}
{"business_id": "hJuw__aAzsTKNZjLpFUUcg", "full_address": "Kaiserstr. 101\n76133 Karlsruhe", "hours": {}, "open": true, "categories": ["Food", "Ice Cream & Frozen Yogurt", "Restaurants"], "city": "Karlsruhe", "review_count": 4, "name": "Cortina", "neighborhoods": [], "longitude": 8.40791, "state": "BW", "stars": 4.5, "latitude": 49.0094, "attributes": {"Good For": {"dessert": false, "latenight": false, "lunch": false, "dinner": false, "breakfast": false, "brunch": false}, "Noise Level": "average", "Takes Reservations": false, "Outdoor Seating": true, "Attire": "casual", "Waiter Service": true, "Good For Groups": true, "Price Range": 1}, "type": "business"}
{"business_id": "ZQ6HmK2N2EyP3EU-vtq6_Q", "full_address": "Lammstr. 7\n76133 Karlsruhe", "hours": {}, "open": true, "categories": ["Food", "Ice Cream & Frozen Yogurt", "Cafes", "Restaurants"], "city": "Karlsruhe", "review_count": 11, "name": "Da Vinci", "neighborhoods": [], "longitude": 8.40248, "state": "BW", "stars": 4.5, "latitude": 49.0093, "attributes": {"Take-out": true, "Parking": {"garage": false, "street": false, "validated": false, "lot": false, "valet": false}, "Delivery": false, "Outdoor Seating": true, "Attire": "casual", "Accepts Credit Cards": false, "Good for Kids": true, "Good For Groups": true, "Price Range": 2}, "type": "business"}
{"business_id": "Xd0RmBnBrogo0LETOm3ddA", "full_address": "Kaiserallee 7a\n76133 Karlsruhe", "hours": {}, "open": false, "categories": ["Food", "Ice Cream & Frozen Yogurt"], "city": "Karlsruhe", "review_count": 3, "name": "Eiscafe Dolomiti", "neighborhoods": [], "longitude": 8.3858862, "state": "BW", "stars": 4.5, "latitude": 49.0102097, "attributes": {"Parking": {"garage": false, "validated": false, "street": false, "lot": false, "valet": false}, "Outdoor Seating": true, "Price Range": 2}, "type": "business"}
{"business_id": "NBvCfBuShkbCfBVvtmKchQ", "full_address": "Kaiserstr. 133\n76133 Karlsruhe", "hours": {}, "open": true, "categories": ["Food", "Ice Cream & Frozen Yogurt", "Coffee & Tea", "Cafes", "Restaurants"], "city": "Karlsruhe", "review_count": 9, "name": "Cafe Pierod", "neighborhoods": [], "longitude": 8.40472, "state": "BW", "stars": 3.5, "latitude": 49.0096, "attributes": {}, "type": "business"}
{"business_id": "n7FOMSsN4wSv6PEMuRX_PA", "full_address": "Hellbergstr. 1\n76189 Karlsruhe", "hours": {"Monday": {"close": "20:00", "open": "11:00"}, "Tuesday": {"close": "20:00", "open": "11:00"}, "Friday": {"close": "20:00", "open": "11:00"}, "Wednesday": {"close": "20:00", "open": "11:00"}, "Thursday": {"close": "20:00", "open": "11:00"}, "Sunday": {"close": "20:00", "open": "11:00"}, "Saturday": {"close": "20:00", "open": "11:00"}}, "open": true, "categories": ["Food", "Ice Cream & Frozen Yogurt"], "city": "Karlsruhe", "review_count": 7, "name": "Eiscafe Eis-Oma", "neighborhoods": [], "longitude": 8.35395, "state": "BW", "stars": 4.0, "latitude": 48.9933, "attributes": {"Parking": {"garage": false, "validated": false, "street": false, "lot": false, "valet": false}, "Wheelchair Accessible": false, "Outdoor Seating": true, "Price Range": 2}, "type": "business"}
{"business_id": "oU97TcNDBHZu0gGH2wiT7Q", "full_address": "Hauptstr. 37\n76344 Eggenstein-Leopoldshafen", "hours": {}, "open": true, "categories": ["Food", "Ice Cream & Frozen Yogurt"], "city": "Eggenstein-Leopoldshafen", "review_count": 10, "name": "Eisdiele Veneta", "neighborhoods": [], "longitude": 8.3890607, "state": "BW", "stars": 4.5, "latitude": 49.0789607, "attributes": {"Good For": {"dessert": false, "latenight": false, "lunch": false, "dinner": false, "breakfast": false, "brunch": false}, "Takes Reservations": false, "Wheelchair Accessible": false, "Outdoor Seating": true, "Parking": {"garage": false, "street": false, "validated": false, "lot": false, "valet": false}, "Smoking": "outdoor", "Accepts Credit Cards": false, "Good For Groups": false, "Price Range": 2}, "type": "business"}
{"business_id": "iiB7mtJQEkwxhr3ka7Wb_w", "full_address": "Martin-Luther-Str. 12\n76229 Karlsruhe", "hours": {"Monday": {"close": "21:00", "open": "12:00"}, "Tuesday": {"close": "21:00", "open": "12:00"}, "Friday": {"close": "21:00", "open": "12:00"}, "Wednesday": {"close": "21:00", "open": "12:00"}, "Thursday": {"close": "21:00", "open": "12:00"}, "Sunday": {"close": "21:00", "open": "12:00"}, "Saturday": {"close": "21:00", "open": "12:00"}}, "open": true, "categories": ["Food", "Ice Cream & Frozen Yogurt"], "city": "Karlsruhe", "review_count": 5, "name": "Eismarie", "neighborhoods": [], "longitude": 8.4967142, "state": "BW", "stars": 3.0, "latitude": 49.0054172, "attributes": {"Parking": {"garage": false, "street": false, "validated": false, "lot": false, "valet": false}, "Accepts Credit Cards": false, "Wi-Fi": "no", "Price Range": 2}, "type": "business"}
{"business_id": "J6OFcAKsbOvzZBoNqTe2dQ", "full_address": "Sophienstr. 98\nWeststadt\n76135 Karlsruhe", "hours": {}, "open": true, "categories": ["Food", "Ice Cream & Frozen Yogurt"], "city": "Karlsruhe", "review_count": 7, "name": "Eiscafe Am Sophienpark", "neighborhoods": [], "longitude": 8.38314, "state": "BW", "stars": 4.5, "latitude": 49.00804, "attributes": {"Accepts Credit Cards": false, "Takes Reservations": true, "Wi-Fi": "free", "Outdoor Seating": true, "Parking": {"garage": false, "validated": false, "street": false, "lot": false, "valet": false}, "Smoking": "no", "Wheelchair Accessible": true, "Price Range": 2}, "type": "business"}
{"business_id": "guaPlDZLMG3kljQv0OsCYA", "full_address": "Douglasstr. 32\n76133 Karlsruhe", "hours": {"Monday": {"close": "20:00", "open": "12:00"}, "Tuesday": {"close": "20:00", "open": "12:00"}, "Friday": {"close": "20:00", "open": "12:00"}, "Wednesday": {"close": "20:00", "open": "12:00"}, "Thursday": {"close": "20:00", "open": "12:00"}, "Saturday": {"close": "20:00", "open": "12:00"}}, "open": false, "categories": ["Food", "Ice Cream & Frozen Yogurt"], "city": "Karlsruhe", "review_count": 5, "name": "Yogurt Monster", "neighborhoods": [], "longitude": 8.3933518, "state": "BW", "stars": 4.5, "latitude": 49.0089285, "attributes": {"Outdoor Seating": false, "Takes Reservations": false, "Good For": {"dessert": false, "latenight": false, "lunch": false, "dinner": false, "breakfast": false, "brunch": false}, "Attire": "casual", "Alcohol": "none", "Smoking": "no", "Accepts Credit Cards": false, "Price Range": 2}, "type": "business"}
{"business_id": "NGVIpkvMko7HBIR5dSf97w", "full_address": "Ettlinger-Tor-Platz 1\n76133 Karlsruhe", "hours": {}, "open": true, "categories": ["Food", "Ice Cream & Frozen Yogurt"], "city": "Karlsruhe", "review_count": 4, "name": "Eiscaf\u00e9 Florenz", "neighborhoods": [], "longitude": 8.40342, "state": "BW", "stars": 3.5, "latitude": 49.0056, "attributes": {"Parking": {"garage": false, "street": false, "validated": false, "lot": false, "valet": false}, "Accepts Credit Cards": false, "Wi-Fi": "no", "Price Range": 3}, "type": "business"}
{"business_id": "rE-MBRj1Nf3pnzEQ0msotA", "full_address": "Schlo\u00dfplatz 6\n76275 Ettlingen", "hours": {}, "open": true, "categories": ["Food", "Ice Cream & Frozen Yogurt"], "city": "Ettlingen", "review_count": 6, "name": "Tiziano", "neighborhoods": [], "longitude": 8.40636807465739, "state": "BW", "stars": 3.5, "latitude": 48.9408228279515, "attributes": {"Price Range": 3, "Attire": "casual"}, "type": "business"}
{"business_id": "DUc-A2ZYS3BFE2wl-rslvw", "full_address": "Sch\u00f6llbronner Str. 57\n76275 Ettlingen", "hours": {}, "open": true, "categories": ["Food", "Ice Cream & Frozen Yogurt"], "city": "Ettlingen", "review_count": 4, "name": "Bruno's Eisladen", "neighborhoods": [], "longitude": 8.41583, "state": "BW", "stars": 4.0, "latitude": 48.9371, "attributes": {"Accepts Credit Cards": false, "Outdoor Seating": true, "Price Range": 1}, "type": "business"}
{"business_id": "klkVCqlVYBYvO3hvtmMHeA", "full_address": "Georg-Friedrich-Str. 30\n76131 Karlsruhe", "hours": {"Monday": {"close": "22:00", "open": "10:00"}, "Tuesday": {"close": "22:00", "open": "10:00"}, "Friday": {"close": "22:00", "open": "10:00"}, "Wednesday": {"close": "22:00", "open": "10:00"}, "Thursday": {"close": "22:00", "open": "10:00"}, "Sunday": {"close": "22:00", "open": "10:00"}, "Saturday": {"close": "22:00", "open": "10:00"}}, "open": true, "categories": ["Food", "Ice Cream & Frozen Yogurt"], "city": "Karlsruhe", "review_count": 27, "name": "Eis Casata", "neighborhoods": [], "longitude": 8.42338, "state": "BW", "stars": 4.5, "latitude": 49.009, "attributes": {"Take-out": true, "Wi-Fi": "no", "Good For": {"dessert": false, "latenight": false, "lunch": false, "dinner": false, "brunch": false, "breakfast": false}, "Caters": false, "Noise Level": "loud", "Takes Reservations": false, "Has TV": false, "Smoking": "outdoor", "Delivery": false, "Ambience": {"romantic": false, "intimate": false, "classy": false, "hipster": false, "divey": false, "touristy": false, "trendy": false, "upscale": false, "casual": false}, "Parking": {"garage": false, "street": true, "validated": false, "lot": false, "valet": false}, "Wheelchair Accessible": false, "Outdoor Seating": true, "Attire": "casual", "Alcohol": "none", "Waiter Service": false, "Accepts Credit Cards": false, "Good for Kids": true, "Good For Groups": true, "Price Range": 2}, "type": "business"}
{"business_id": "nrdrdEq0x2yPknCYCLjINw", "full_address": "Pfinztalstra\u00dfe\n76227 Karlsruhe", "hours": {}, "open": true, "categories": ["Food", "Ice Cream & Frozen Yogurt"], "city": "Karlsruhe", "review_count": 3, "name": "Gelatone", "neighborhoods": [], "longitude": 8.47008, "state": "BW", "stars": 5.0, "latitude": 48.9992, "attributes": {}, "type": "business"}
{"business_id": "He-DZK510V8MHobwyYBr4w", "full_address": "Kirchenplatz 5\n76275 Ettlingen", "hours": {}, "open": true, "categories": ["Food", "Ice Cream & Frozen Yogurt", "Cafes", "Restaurants"], "city": "Ettlingen", "review_count": 13, "name": "Caf\u00e9s Pierod", "neighborhoods": [], "longitude": 8.40803, "state": "BW", "stars": 4.5, "latitude": 48.9414, "attributes": {"Take-out": true, "Wi-Fi": "no", "Good For": {"dessert": false, "latenight": false, "lunch": false, "dinner": false, "brunch": false, "breakfast": false}, "Parking": {"garage": false, "validated": false, "street": false, "lot": false, "valet": false}, "Has TV": false, "Delivery": false, "Wheelchair Accessible": false, "Outdoor Seating": true, "Attire": "casual", "Alcohol": "beer_and_wine", "Smoking": "outdoor", "Accepts Credit Cards": false, "Good for Kids": true, "Good For Groups": true, "Price Range": 3}, "type": "business"}
{"business_id": "cxs28BsfEmlkRUTucx8a8w", "full_address": "Kaiserpassage 2\n76133 Karlsruhe", "hours": {}, "open": true, "categories": ["Food", "Ice Cream & Frozen Yogurt", "Coffee & Tea", "Cafes", "Restaurants"], "city": "Karlsruhe", "review_count": 4, "name": "Eiscafe Capri", "neighborhoods": [], "longitude": 8.39732, "state": "BW", "stars": 4.0, "latitude": 49.0102, "attributes": {"Take-out": true, "Good For Groups": true, "Price Range": 2}, "type": "business"}
{"business_id": "Umq7lcGqslqbIFtPHwvSYw", "full_address": "Kaiserstr. 124C\n76133 Karlsruhe", "hours": {}, "open": true, "categories": ["Food", "Ice Cream & Frozen Yogurt", "Coffee & Tea", "Cafes", "Restaurants"], "city": "Karlsruhe", "review_count": 28, "name": "Eiscafe Casal", "neighborhoods": [], "longitude": 8.3969286, "state": "BW", "stars": 4.5, "latitude": 49.0099839, "attributes": {"Take-out": true, "Wi-Fi": "no", "Good For": {"dessert": true, "latenight": false, "lunch": false, "dinner": false, "breakfast": false, "brunch": false}, "Caters": false, "Noise Level": "loud", "Takes Reservations": false, "Has TV": false, "Smoking": "outdoor", "Delivery": false, "Ambience": {"romantic": false, "intimate": false, "classy": false, "hipster": false, "divey": false, "touristy": false, "trendy": false, "upscale": false, "casual": false}, "Parking": {"garage": false, "street": false, "validated": false, "lot": false, "valet": false}, "Wheelchair Accessible": true, "Outdoor Seating": true, "Attire": "casual", "Alcohol": "beer_and_wine", "Waiter Service": true, "Accepts Credit Cards": false, "Good for Kids": true, "Good For Groups": true, "Price Range": 2}, "type": "business"}
{"business_id": "hJuw__aAzsTKNZjLpFUUcg", "full_address": "Kaiserstr. 101\n76133 Karlsruhe", "hours": {}, "open": true, "categories": ["Food", "Ice Cream & Frozen Yogurt", "Restaurants"], "city": "Karlsruhe", "review_count": 4, "name": "Cortina", "neighborhoods": [], "longitude": 8.40791, "state": "BW", "stars": 4.5, "latitude": 49.0094, "attributes": {"Good For": {"dessert": false, "latenight": false, "lunch": false, "dinner": false, "breakfast": false, "brunch": false}, "Noise Level": "average", "Takes Reservations": false, "Outdoor Seating": true, "Attire": "casual", "Waiter Service": true, "Good For Groups": true, "Price Range": 1}, "type": "business"}
{"business_id": "ZQ6HmK2N2EyP3EU-vtq6_Q", "full_address": "Lammstr. 7\n76133 Karlsruhe", "hours": {}, "open": true, "categories": ["Food", "Ice Cream & Frozen Yogurt", "Cafes", "Restaurants"], "city": "Karlsruhe", "review_count": 11, "name": "Da Vinci", "neighborhoods": [], "longitude": 8.40248, "state": "BW", "stars": 4.5, "latitude": 49.0093, "attributes": {"Take-out": true, "Parking": {"garage": false, "street": false, "validated": false, "lot": false, "valet": false}, "Delivery": false, "Outdoor Seating": true, "Attire": "casual", "Accepts Credit Cards": false, "Good for Kids": true, "Good For Groups": true, "Price Range": 2}, "type": "business"}
{"business_id": "Xd0RmBnBrogo0LETOm3ddA", "full_address": "Kaiserallee 7a\n76133 Karlsruhe", "hours": {}, "open": false, "categories": ["Food", "Ice Cream & Frozen Yogurt"], "city": "Karlsruhe", "review_count": 3, "name": "Eiscafe Dolomiti", "neighborhoods": [], "longitude": 8.3858862, "state": "BW", "stars": 4.5, "latitude": 49.0102097, "attributes": {"Parking": {"garage": false, "validated": false, "street": false, "lot": false, "valet": false}, "Outdoor Seating": true, "Price Range": 2}, "type": "business"}
{"business_id": "NBvCfBuShkbCfBVvtmKchQ", "full_address": "Kaiserstr. 133\n76133 Karlsruhe", "hours": {}, "open": true, "categories": ["Food", "Ice Cream & Frozen Yogurt", "Coffee & Tea", "Cafes", "Restaurants"], "city": "Karlsruhe", "review_count": 9, "name": "Cafe Pierod", "neighborhoods": [], "longitude": 8.40472, "state": "BW", "stars": 3.5, "latitude": 49.0096, "attributes": {}, "type": "business"}
{"business_id": "n7FOMSsN4wSv6PEMuRX_PA", "full_address": "Hellbergstr. 1\n76189 Karlsruhe", "hours": {"Monday": {"close": "20:00", "open": "11:00"}, "Tuesday": {"close": "20:00", "open": "11:00"}, "Friday": {"close": "20:00", "open": "11:00"}, "Wednesday": {"close": "20:00", "open": "11:00"}, "Thursday": {"close": "20:00", "open": "11:00"}, "Sunday": {"close": "20:00", "open": "11:00"}, "Saturday": {"close": "20:00", "open": "11:00"}}, "open": true, "categories": ["Food", "Ice Cream & Frozen Yogurt"], "city": "Karlsruhe", "review_count": 7, "name": "Eiscafe Eis-Oma", "neighborhoods": [], "longitude": 8.35395, "state": "BW", "stars": 4.0, "latitude": 48.9933, "attributes": {"Parking": {"garage": false, "validated": false, "street": false, "lot": false, "valet": false}, "Wheelchair Accessible": false, "Outdoor Seating": true, "Price Range": 2}, "type": "business"}
{"business_id": "oU97TcNDBHZu0gGH2wiT7Q", "full_address": "Hauptstr. 37\n76344 Eggenstein-Leopoldshafen", "hours": {}, "open": true, "categories": ["Food", "Ice Cream & Frozen Yogurt"], "city": "Eggenstein-Leopoldshafen", "review_count": 10, "name": "Eisdiele Veneta", "neighborhoods": [], "longitude": 8.3890607, "state": "BW", "stars": 4.5, "latitude": 49.0789607, "attributes": {"Good For": {"dessert": false, "latenight": false, "lunch": false, "dinner": false, "breakfast": false, "brunch": false}, "Takes Reservations": false, "Wheelchair Accessible": false, "Outdoor Seating": true, "Parking": {"garage": false, "street": false, "validated": false, "lot": false, "valet": false}, "Smoking": "outdoor", "Accepts Credit Cards": false, "Good For Groups": false, "Price Range": 2}, "type": "business"}
{"business_id": "iiB7mtJQEkwxhr3ka7Wb_w", "full_address": "Martin-Luther-Str. 12\n76229 Karlsruhe", "hours": {"Monday": {"close": "21:00", "open": "12:00"}, "Tuesday": {"close": "21:00", "open": "12:00"}, "Friday": {"close": "21:00", "open": "12:00"}, "Wednesday": {"close": "21:00", "open": "12:00"}, "Thursday": {"close": "21:00", "open": "12:00"}, "Sunday": {"close": "21:00", "open": "12:00"}, "Saturday": {"close": "21:00", "open": "12:00"}}, "open": true, "categories": ["Food", "Ice Cream & Frozen Yogurt"], "city": "Karlsruhe", "review_count": 5, "name": "Eismarie", "neighborhoods": [], "longitude": 8.4967142, "state": "BW", "stars": 3.0, "latitude": 49.0054172, "attributes": {"Parking": {"garage": false, "street": false, "validated": false, "lot": false, "valet": false}, "Accepts Credit Cards": false, "Wi-Fi": "no", "Price Range": 2}, "type": "business"}
{"business_id": "J6OFcAKsbOvzZBoNqTe2dQ", "full_address": "Sophienstr. 98\nWeststadt\n76135 Karlsruhe", "hours": {}, "open": true, "categories": ["Food", "Ice Cream & Frozen Yogurt"], "city": "Karlsruhe", "review_count": 7, "name": "Eiscafe Am Sophienpark", "neighborhoods": [], "longitude": 8.38314, "state": "BW", "stars": 4.5, "latitude": 49.00804, "attributes": {"Accepts Credit Cards": false, "Takes Reservations": true, "Wi-Fi": "free", "Outdoor Seating": true, "Parking": {"garage": false, "validated": false, "street": false, "lot": false, "valet": false}, "Smoking": "no", "Wheelchair Accessible": true, "Price Range": 2}, "type": "business"}
{"business_id": "guaPlDZLMG3kljQv0OsCYA", "full_address": "Douglasstr. 32\n76133 Karlsruhe", "hours": {"Monday": {"close": "20:00", "open": "12:00"}, "Tuesday": {"close": "20:00", "open": "12:00"}, "Friday": {"close": "20:00", "open": "12:00"}, "Wednesday": {"close": "20:00", "open": "12:00"}, "Thursday": {"close": "20:00", "open": "12:00"}, "Saturday": {"close": "20:00", "open": "12:00"}}, "open": false, "categories": ["Food", "Ice Cream & Frozen Yogurt"], "city": "Karlsruhe", "review_count": 5, "name": "Yogurt Monster", "neighborhoods": [], "longitude": 8.3933518, "state": "BW", "stars": 4.5, "latitude": 49.0089285, "attributes": {"Outdoor Seating": false, "Takes Reservations": false, "Good For": {"dessert": false, "latenight": false, "lunch": false, "dinner": false, "breakfast": false, "brunch": false}, "Attire": "casual", "Alcohol": "none", "Smoking": "no", "Accepts Credit Cards": false, "Price Range": 2}, "type": "business"}
{"business_id": "NGVIpkvMko7HBIR5dSf97w", "full_address": "Ettlinger-Tor-Platz 1\n76133 Karlsruhe", "hours": {}, "open": true, "categories": ["Food", "Ice Cream & Frozen Yogurt"], "city": "Karlsruhe", "review_count": 4, "name": "Eiscaf\u00e9 Florenz", "neighborhoods": [], "longitude": 8.40342, "state": "BW", "stars": 3.5, "latitude": 49.0056, "attributes": {"Parking": {"garage": false, "street": false, "validated": false, "lot": false, "valet": false}, "Accepts Credit Cards": false, "Wi-Fi": "no", "Price Range": 3}, "type": "business"}
{"business_id": "rE-MBRj1Nf3pnzEQ0msotA", "full_address": "Schlo\u00dfplatz 6\n76275 Ettlingen", "hours": {}, "open": true, "categories": ["Food", "Ice Cream & Frozen Yogurt"], "city": "Ettlingen", "review_count": 6, "name": "Tiziano", "neighborhoods": [], "longitude": 8.40636807465739, "state": "BW", "stars": 3.5, "latitude": 48.9408228279515, "attributes": {"Price Range": 3, "Attire": "casual"}, "type": "business"}
{"business_id": "DUc-A2ZYS3BFE2wl-rslvw", "full_address": "Sch\u00f6llbronner Str. 57\n76275 Ettlingen", "hours": {}, "open": true, "categories": ["Food", "Ice Cream & Frozen Yogurt"], "city": "Ettlingen", "review_count": 4, "name": "Bruno's Eisladen", "neighborhoods": [], "longitude": 8.41583, "state": "BW", "stars": 4.0, "latitude": 48.9371, "attributes": {"Accepts Credit Cards": false, "Outdoor Seating": true, "Price Range": 1}, "type": "business"}
{"business_id": "klkVCqlVYBYvO3hvtmMHeA", "full_address": "Georg-Friedrich-Str. 30\n76131 Karlsruhe", "hours": {"Monday": {"close": "22:00", "open": "10:00"}, "Tuesday": {"close": "22:00", "open": "10:00"}, "Friday": {"close": "22:00", "open": "10:00"}, "Wednesday": {"close": "22:00", "open": "10:00"}, "Thursday": {"close": "22:00", "open": "10:00"}, "Sunday": {"close": "22:00", "open": "10:00"}, "Saturday": {"close": "22:00", "open": "10:00"}}, "open": true, "categories": ["Food", "Ice Cream & Frozen Yogurt"], "city": "Karlsruhe", "review_count": 27, "name": "Eis Casata", "neighborhoods": [], "longitude": 8.42338, "state": "BW", "stars": 4.5, "latitude": 49.009, "attributes": {"Take-out": true, "Wi-Fi": "no", "Good For": {"dessert": false, "latenight": false, "lunch": false, "dinner": false, "brunch": false, "breakfast": false}, "Caters": false, "Noise Level": "loud", "Takes Reservations": false, "Has TV": false, "Smoking": "outdoor", "Delivery": false, "Ambience": {"romantic": false, "intimate": false, "classy": false, "hipster": false, "divey": false, "touristy": false, "trendy": false, "upscale": false, "casual": false}, "Parking": {"garage": false, "street": true, "validated": false, "lot": false, "valet": false}, "Wheelchair Accessible": false, "Outdoor Seating": true, "Attire": "casual", "Alcohol": "none", "Waiter Service": false, "Accepts Credit Cards": false, "Good for Kids": true, "Good For Groups": true, "Price Range": 2}, "type": "business"}
{"business_id": "nrdrdEq0x2yPknCYCLjINw", "full_address": "Pfinztalstra\u00dfe\n76227 Karlsruhe", "hours": {}, "open": true, "categories": ["Food", "Ice Cream & Frozen Yogurt"], "city": "Karlsruhe", "review_count": 3, "name": "Gelatone", "neighborhoods": [], "longitude": 8.47008, "state": "BW", "stars": 5.0, "latitude": 48.9992, "attributes": {}, "type": "business"}
{"business_id": "He-DZK510V8MHobwyYBr4w", "full_address": "Kirchenplatz 5\n76275 Ettlingen", "hours": {}, "open": true, "categories": ["Food", "Ice Cream & Frozen Yogurt", "Cafes", "Restaurants"], "city": "Ettlingen", "review_count": 13, "name": "Caf\u00e9s Pierod", "neighborhoods": [], "longitude": 8.40803, "state": "BW", "stars": 4.5, "latitude": 48.9414, "attributes": {"Take-out": true, "Wi-Fi": "no", "Good For": {"dessert": false, "latenight": false, "lunch": false, "dinner": false, "brunch": false, "breakfast": false}, "Parking": {"garage": false, "validated": false, "street": false, "lot": false, "valet": false}, "Has TV": false, "Delivery": false, "Wheelchair Accessible": false, "Outdoor Seating": true, "Attire": "casual", "Alcohol": "beer_and_wine", "Smoking": "outdoor", "Accepts Credit Cards": false, "Good for Kids": true, "Good For Groups": true, "Price Range": 3}, "type": "business"}
{"business_id": "cxs28BsfEmlkRUTucx8a8w", "full_address": "Kaiserpassage 2\n76133 Karlsruhe", "hours": {}, "open": true, "categories": ["Food", "Ice Cream & Frozen Yogurt", "Coffee & Tea", "Cafes", "Restaurants"], "city": "Karlsruhe", "review_count": 4, "name": "Eiscafe Capri", "neighborhoods": [], "longitude": 8.39732, "state": "BW", "stars": 4.0, "latitude": 49.0102, "attributes": {"Take-out": true, "Good For Groups": true, "Price Range": 2}, "type": "business"}
{"business_id": "Umq7lcGqslqbIFtPHwvSYw", "full_address": "Kaiserstr. 124C\n76133 Karlsruhe", "hours": {}, "open": true, "categories": ["Food", "Ice Cream & Frozen Yogurt", "Coffee & Tea", "Cafes", "Restaurants"], "city": "Karlsruhe", "review_count": 28, "name": "Eiscafe Casal", "neighborhoods": [], "longitude": 8.3969286, "state": "BW", "stars": 4.5, "latitude": 49.0099839, "attributes": {"Take-out": true, "Wi-Fi": "no", "Good For": {"dessert": true, "latenight": false, "lunch": false, "dinner": false, "breakfast": false, "brunch": false}, "Caters": false, "Noise Level": "loud", "Takes Reservations": false, "Has TV": false, "Smoking": "outdoor", "Delivery": false, "Ambience": {"romantic": false, "intimate": false, "classy": false, "hipster": false, "divey": false, "touristy": false, "trendy": false, "upscale": false, "casual": false}, "Parking": {"garage": false, "street": false, "validated": false, "lot": false, "valet": false}, "Wheelchair Accessible": true, "Outdoor Seating": true, "Attire": "casual", "Alcohol": "beer_and_wine", "Waiter Service": true, "Accepts Credit Cards": false, "Good for Kids": true, "Good For Groups": true, "Price Range": 2}, "type": "business"}
{"business_id": "hJuw__aAzsTKNZjLpFUUcg", "full_address": "Kaiserstr. 101\n76133 Karlsruhe", "hours": {}, "open": true, "categories": ["Food", "Ice Cream & Frozen Yogurt", "Restaurants"], "city": "Karlsruhe", "review_count": 4, "name": "Cortina", "neighborhoods": [], "longitude": 8.40791, "state": "BW", "stars": 4.5, "latitude": 49.0094, "attributes": {"Good For": {"dessert": false, "latenight": false, "lunch": false, "dinner": false, "breakfast": false, "brunch": false}, "Noise Level": "average", "Takes Reservations": false, "Outdoor Seating": true, "Attire": "casual", "Waiter Service": true, "Good For Groups": true, "Price Range": 1}, "type": "business"}
{"business_id": "ZQ6HmK2N2EyP3EU-vtq6_Q", "full_address": "Lammstr. 7\n76133 Karlsruhe", "hours": {}, "open": true, "categories": ["Food", "Ice Cream & Frozen Yogurt", "Cafes", "Restaurants"], "city": "Karlsruhe", "review_count": 11, "name": "Da Vinci", "neighborhoods": [], "longitude": 8.40248, "state": "BW", "stars": 4.5, "latitude": 49.0093, "attributes": {"Take-out": true, "Parking": {"garage": false, "street": false, "validated": false, "lot": false, "valet": false}, "Delivery": false, "Outdoor Seating": true, "Attire": "casual", "Accepts Credit Cards": false, "Good for Kids": true, "Good For Groups": true, "Price Range": 2}, "type": "business"}
{"business_id": "Xd0RmBnBrogo0LETOm3ddA", "full_address": "Kaiserallee 7a\n76133 Karlsruhe", "hours": {}, "open": false, "categories": ["Food", "Ice Cream & Frozen Yogurt"], "city": "Karlsruhe", "review_count": 3, "name": "Eiscafe Dolomiti", "neighborhoods": [], "longitude": 8.3858862, "state": "BW", "stars": 4.5, "latitude": 49.0102097, "attributes": {"Parking": {"garage": false, "validated": false, "street": false, "lot": false, "valet": false}, "Outdoor Seating": true, "Price Range": 2}, "type": "business"}
{"business_id": "NBvCfBuShkbCfBVvtmKchQ", "full_address": "Kaiserstr. 133\n76133 Karlsruhe", "hours": {}, "open": true, "categories": ["Food", "Ice Cream & Frozen Yogurt", "Coffee & Tea", "Cafes", "Restaurants"], "city": "Karlsruhe", "review_count": 9, "name": "Cafe Pierod", "neighborhoods": [], "longitude": 8.40472, "state": "BW", "stars": 3.5, "latitude": 49.0096, "attributes": {}, "type": "business"}
{"business_id": "n7FOMSsN4wSv6PEMuRX_PA", "full_address": "Hellbergstr. 1\n76189 Karlsruhe", "hours": {"Monday": {"close": "20:00", "open": "11:00"}, "Tuesday": {"close": "20:00", "open": "11:00"}, "Friday": {"close": "20:00", "open": "11:00"}, "Wednesday": {"close": "20:00", "open": "11:00"}, "Thursday": {"close": "20:00", "open": "11:00"}, "Sunday": {"close": "20:00", "open": "11:00"}, "Saturday": {"close": "20:00", "open": "11:00"}}, "open": true, "categories": ["Food", "Ice Cream & Frozen Yogurt"], "city": "Karlsruhe", "review_count": 7, "name": "Eiscafe Eis-Oma", "neighborhoods": [], "longitude": 8.35395, "state": "BW", "stars": 4.0, "latitude": 48.9933, "attributes": {"Parking": {"garage": false, "validated": false, "street": false, "lot": false, "valet": false}, "Wheelchair Accessible": false, "Outdoor Seating": true, "Price Range": 2}, "type": "business"}
{"business_id": "oU97TcNDBHZu0gGH2wiT7Q", "full_address": "Hauptstr. 37\n76344 Eggenstein-Leopoldshafen", "hours": {}, "open": true, "categories": ["Food", "Ice Cream & Frozen Yogurt"], "city": "Eggenstein-Leopoldshafen", "review_count": 10, "name": "Eisdiele Veneta", "neighborhoods": [], "longitude": 8.3890607, "state": "BW", "stars": 4.5, "latitude": 49.0789607, "attributes": {"Good For": {"dessert": false, "latenight": false, "lunch": false, "dinner": false, "breakfast": false, "brunch": false}, "Takes Reservations": false, "Wheelchair Accessible": false, "Outdoor Seating": true, "Parking": {"garage": false, "street": false, "validated": false, "lot": false, "valet": false}, "Smoking": "outdoor", "Accepts Credit Cards": false, "Good For Groups": false, "Price Range": 2}, "type": "business"}
{"business_id": "iiB7mtJQEkwxhr3ka7Wb_w", "full_address": "Martin-Luther-Str. 12\n76229 Karlsruhe", "hours": {"Monday": {"close": "21:00", "open": "12:00"}, "Tuesday": {"close": "21:00", "open": "12:00"}, "Friday": {"close": "21:00", "open": "12:00"}, "Wednesday": {"close": "21:00", "open": "12:00"}, "Thursday": {"close": "21:00", "open": "12:00"}, "Sunday": {"close": "21:00", "open": "12:00"}, "Saturday": {"close": "21:00", "open": "12:00"}}, "open": true, "categories": ["Food", "Ice Cream & Frozen Yogurt"], "city": "Karlsruhe", "review_count": 5, "name": "Eismarie", "neighborhoods": [], "longitude": 8.4967142, "state": "BW", "stars": 3.0, "latitude": 49.0054172, "attributes": {"Parking": {"garage": false, "street": false, "validated": false, "lot": false, "valet": false}, "Accepts Credit Cards": false, "Wi-Fi": "no", "Price Range": 2}, "type": "business"}
{"business_id": "J6OFcAKsbOvzZBoNqTe2dQ", "full_address": "Sophienstr. 98\nWeststadt\n76135 Karlsruhe", "hours": {}, "open": true, "categories": ["Food", "Ice Cream & Frozen Yogurt"], "city": "Karlsruhe", "review_count": 7, "name": "Eiscafe Am Sophienpark", "neighborhoods": [], "longitude": 8.38314, "state": "BW", "stars": 4.5, "latitude": 49.00804, "attributes": {"Accepts Credit Cards": false, "Takes Reservations": true, "Wi-Fi": "free", "Outdoor Seating": true, "Parking": {"garage": false, "validated": false, "street": false, "lot": false, "valet": false}, "Smoking": "no", "Wheelchair Accessible": true, "Price Range": 2}, "type": "business"}
{"business_id": "guaPlDZLMG3kljQv0OsCYA", "full_address": "Douglasstr. 32\n76133 Karlsruhe", "hours": {"Monday": {"close": "20:00", "open": "12:00"}, "Tuesday": {"close": "20:00", "open": "12:00"}, "Friday": {"close": "20:00", "open": "12:00"}, "Wednesday": {"close": "20:00", "open": "12:00"}, "Thursday": {"close": "20:00", "open": "12:00"}, "Saturday": {"close": "20:00", "open": "12:00"}}, "open": false, "categories": ["Food", "Ice Cream & Frozen Yogurt"], "city": "Karlsruhe", "review_count": 5, "name": "Yogurt Monster", "neighborhoods": [], "longitude": 8.3933518, "state": "BW", "stars": 4.5, "latitude": 49.0089285, "attributes": {"Outdoor Seating": false, "Takes Reservations": false, "Good For": {"dessert": false, "latenight": false, "lunch": false, "dinner": false, "breakfast": false, "brunch": false}, "Attire": "casual", "Alcohol": "none", "Smoking": "no", "Accepts Credit Cards": false, "Price Range": 2}, "type": "business"}
{"business_id": "NGVIpkvMko7HBIR5dSf97w", "full_address": "Ettlinger-Tor-Platz 1\n76133 Karlsruhe", "hours": {}, "open": true, "categories": ["Food", "Ice Cream & Frozen Yogurt"], "city": "Karlsruhe", "review_count": 4, "name": "Eiscaf\u00e9 Florenz", "neighborhoods": [], "longitude": 8.40342, "state": "BW", "stars": 3.5, "latitude": 49.0056, "attributes": {"Parking": {"garage": false, "street": false, "validated": false, "lot": false, "valet": false}, "Accepts Credit Cards": false, "Wi-Fi": "no", "Price Range": 3}, "type": "business"}
{"business_id": "rE-MBRj1Nf3pnzEQ0msotA", "full_address": "Schlo\u00dfplatz 6\n76275 Ettlingen", "hours": {}, "open": true, "categories": ["Food", "Ice Cream & Frozen Yogurt"], "city": "Ettlingen", "review_count": 6, "name": "Tiziano", "neighborhoods": [], "longitude": 8.40636807465739, "state": "BW", "stars": 3.5, "latitude": 48.9408228279515, "attributes": {"Price Range": 3, "Attire": "casual"}, "type": "business"}
{"business_id": "DUc-A2ZYS3BFE2wl-rslvw", "full_address": "Sch\u00f6llbronner Str. 57\n76275 Ettlingen", "hours": {}, "open": true, "categories": ["Food", "Ice Cream & Frozen Yogurt"], "city": "Ettlingen", "review_count": 4, "name": "Bruno's Eisladen", "neighborhoods": [], "longitude": 8.41583, "state": "BW", "stars": 4.0, "latitude": 48.9371, "attributes": {"Accepts Credit Cards": false, "Outdoor Seating": true, "Price Range": 1}, "type": "business"}
{"business_id": "klkVCqlVYBYvO3hvtmMHeA", "full_address": "Georg-Friedrich-Str. 30\n76131 Karlsruhe", "hours": {"Monday": {"close": "22:00", "open": "10:00"}, "Tuesday": {"close": "22:00", "open": "10:00"}, "Friday": {"close": "22:00", "open": "10:00"}, "Wednesday": {"close": "22:00", "open": "10:00"}, "Thursday": {"close": "22:00", "open": "10:00"}, "Sunday": {"close": "22:00", "open": "10:00"}, "Saturday": {"close": "22:00", "open": "10:00"}}, "open": true, "categories": ["Food", "Ice Cream & Frozen Yogurt"], "city": "Karlsruhe", "review_count": 27, "name": "Eis Casata", "neighborhoods": [], "longitude": 8.42338, "state": "BW", "stars": 4.5, "latitude": 49.009, "attributes": {"Take-out": true, "Wi-Fi": "no", "Good For": {"dessert": false, "latenight": false, "lunch": false, "dinner": false, "brunch": false, "breakfast": false}, "Caters": false, "Noise Level": "loud", "Takes Reservations": false, "Has TV": false, "Smoking": "outdoor", "Delivery": false, "Ambience": {"romantic": false, "intimate": false, "classy": false, "hipster": false, "divey": false, "touristy": false, "trendy": false, "upscale": false, "casual": false}, "Parking": {"garage": false, "street": true, "validated": false, "lot": false, "valet": false}, "Wheelchair Accessible": false, "Outdoor Seating": true, "Attire": "casual", "Alcohol": "none", "Waiter Service": false, "Accepts Credit Cards": false, "Good for Kids": true, "Good For Groups": true, "Price Range": 2}, "type": "business"}
{"business_id": "nrdrdEq0x2yPknCYCLjINw", "full_address": "Pfinztalstra\u00dfe\n76227 Karlsruhe", "hours": {}, "open": true, "categories": ["Food", "Ice Cream & Frozen Yogurt"], "city": "Karlsruhe", "review_count": 3, "name": "Gelatone", "neighborhoods": [], "longitude": 8.47008, "state": "BW", "stars": 5.0, "latitude": 48.9992, "attributes": {}, "type": "business"}
{"business_id": "He-DZK510V8MHobwyYBr4w", "full_address": "Kirchenplatz 5\n76275 Ettlingen", "hours": {}, "open": true, "categories": ["Food", "Ice Cream & Frozen Yogurt", "Cafes", "Restaurants"], "city": "Ettlingen", "review_count": 13, "name": "Caf\u00e9s Pierod", "neighborhoods": [], "longitude": 8.40803, "state": "BW", "stars": 4.5, "latitude": 48.9414, "attributes": {"Take-out": true, "Wi-Fi": "no", "Good For": {"dessert": false, "latenight": false, "lunch": false, "dinner": false, "brunch": false, "breakfast": false}, "Parking": {"garage": false, "validated": false, "street": false, "lot": false, "valet": false}, "Has TV": false, "Delivery": false, "Wheelchair Accessible": false, "Outdoor Seating": true, "Attire": "casual", "Alcohol": "beer_and_wine", "Smoking": "outdoor", "Accepts Credit Cards": false, "Good for Kids": true, "Good For Groups": true, "Price Range": 3}, "type": "business"}
{"business_id": "cxs28BsfEmlkRUTucx8a8w", "full_address": "Kaiserpassage 2\n76133 Karlsruhe", "hours": {}, "open": true, "categories": ["Food", "Ice Cream & Frozen Yogurt", "Coffee & Tea", "Cafes", "Restaurants"], "city": "Karlsruhe", "review_count": 4, "name": "Eiscafe Capri", "neighborhoods": [], "longitude": 8.39732, "state": "BW", "stars": 4.0, "latitude": 49.0102, "attributes": {"Take-out": true, "Good For Groups": true, "Price Range": 2}, "type": "business"}
{"business_id": "Umq7lcGqslqbIFtPHwvSYw", "full_address": "Kaiserstr. 124C\n76133 Karlsruhe", "hours": {}, "open": true, "categories": ["Food", "Ice Cream & Frozen Yogurt", "Coffee & Tea", "Cafes", "Restaurants"], "city": "Karlsruhe", "review_count": 28, "name": "Eiscafe Casal", "neighborhoods": [], "longitude": 8.3969286, "state": "BW", "stars": 4.5, "latitude": 49.0099839, "attributes": {"Take-out": true, "Wi-Fi": "no", "Good For": {"dessert": true, "latenight": false, "lunch": false, "dinner": false, "breakfast": false, "brunch": false}, "Caters": false, "Noise Level": "loud", "Takes Reservations": false, "Has TV": false, "Smoking": "outdoor", "Delivery": false, "Ambience": {"romantic": false, "intimate": false, "classy": false, "hipster": false, "divey": false, "touristy": false, "trendy": false, "upscale": false, "casual": false}, "Parking": {"garage": false, "street": false, "validated": false, "lot": false, "valet": false}, "Wheelchair Accessible": true, "Outdoor Seating": true, "Attire": "casual", "Alcohol": "beer_and_wine", "Waiter Service": true, "Accepts Credit Cards": false, "Good for Kids": true, "Good For Groups": true, "Price Range": 2}, "type": "business"}
{"business_id": "hJuw__aAzsTKNZjLpFUUcg", "full_address": "Kaiserstr. 101\n76133 Karlsruhe", "hours": {}, "open": true, "categories": ["Food", "Ice Cream & Frozen Yogurt", "Restaurants"], "city": "Karlsruhe", "review_count": 4, "name": "Cortina", "neighborhoods": [], "longitude": 8.40791, "state": "BW", "stars": 4.5, "latitude": 49.0094, "attributes": {"Good For": {"dessert": false, "latenight": false, "lunch": false, "dinner": false, "breakfast": false, "brunch": false}, "Noise Level": "average", "Takes Reservations": false, "Outdoor Seating": true, "Attire": "casual", "Waiter Service": true, "Good For Groups": true, "Price Range": 1}, "type": "business"}
{"business_id": "ZQ6HmK2N2EyP3EU-vtq6_Q", "full_address": "Lammstr. 7\n76133 Karlsruhe", "hours": {}, "open": true, "categories": ["Food", "Ice Cream & Frozen Yogurt", "Cafes", "Restaurants"], "city": "Karlsruhe", "review_count": 11, "name": "Da Vinci", "neighborhoods": [], "longitude": 8.40248, "state": "BW", "stars": 4.5, "latitude": 49.0093, "attributes": {"Take-out": true, "Parking": {"garage": false, "street": false, "validated": false, "lot": false, "valet": false}, "Delivery": false, "Outdoor Seating": true, "Attire": "casual", "Accepts Credit Cards": false, "Good for Kids": true, "Good For Groups": true, "Price Range": 2}, "type": "business"}
{"business_id": "Xd0RmBnBrogo0LETOm3ddA", "full_address": "Kaiserallee 7a\n76133 Karlsruhe", "hours": {}, "open": false, "categories": ["Food", "Ice Cream & Frozen Yogurt"], "city": "Karlsruhe", "review_count": 3, "name": "Eiscafe Dolomiti", "neighborhoods": [], "longitude": 8.3858862, "state": "BW", "stars": 4.5, "latitude": 49.0102097, "attributes": {"Parking": {"garage": false, "validated": false, "street": false, "lot": false, "valet": false}, "Outdoor Seating": true, "Price Range": 2}, "type": "business"}
{"business_id": "NBvCfBuShkbCfBVvtmKchQ", "full_address": "Kaiserstr. 133\n76133 Karlsruhe", "hours": {}, "open": true, "categories": ["Food", "Ice Cream & Frozen Yogurt", "Coffee & Tea", "Cafes", "Restaurants"], "city": "Karlsruhe", "review_count": 9, "name": "Cafe Pierod", "neighborhoods": [], "longitude": 8.40472, "state": "BW", "stars": 3.5, "latitude": 49.0096, "attributes": {}, "type": "business"}
{"business_id": "n7FOMSsN4wSv6PEMuRX_PA", "full_address": "Hellbergstr. 1\n76189 Karlsruhe", "hours": {"Monday": {"close": "20:00", "open": "11:00"}, "Tuesday": {"close": "20:00", "open": "11:00"}, "Friday": {"close": "20:00", "open": "11:00"}, "Wednesday": {"close": "20:00", "open": "11:00"}, "Thursday": {"close": "20:00", "open": "11:00"}, "Sunday": {"close": "20:00", "open": "11:00"}, "Saturday": {"close": "20:00", "open": "11:00"}}, "open": true, "categories": ["Food", "Ice Cream & Frozen Yogurt"], "city": "Karlsruhe", "review_count": 7, "name": "Eiscafe Eis-Oma", "neighborhoods": [], "longitude": 8.35395, "state": "BW", "stars": 4.0, "latitude": 48.9933, "attributes": {"Parking": {"garage": false, "validated": false, "street": false, "lot": false, "valet": false}, "Wheelchair Accessible": false, "Outdoor Seating": true, "Price Range": 2}, "type": "business"}
{"business_id": "oU97TcNDBHZu0gGH2wiT7Q", "full_address": "Hauptstr. 37\n76344 Eggenstein-Leopoldshafen", "hours": {}, "open": true, "categories": ["Food", "Ice Cream & Frozen Yogurt"], "city": "Eggenstein-Leopoldshafen", "review_count": 10, "name": "Eisdiele Veneta", "neighborhoods": [], "longitude": 8.3890607, "state": "BW", "stars": 4.5, "latitude": 49.0789607, "attributes": {"Good For": {"dessert": false, "latenight": false, "lunch": false, "dinner": false, "breakfast": false, "brunch": false}, "Takes Reservations": false, "Wheelchair Accessible": false, "Outdoor Seating": true, "Parking": {"garage": false, "street": false, "validated": false, "lot": false, "valet": false}, "Smoking": "outdoor", "Accepts Credit Cards": false, "Good For Groups": false, "Price Range": 2}, "type": "business"}
{"business_id": "iiB7mtJQEkwxhr3ka7Wb_w", "full_address": "Martin-Luther-Str. 12\n76229 Karlsruhe", "hours": {"Monday": {"close": "21:00", "open": "12:00"}, "Tuesday": {"close": "21:00", "open": "12:00"}, "Friday": {"close": "21:00", "open": "12:00"}, "Wednesday": {"close": "21:00", "open": "12:00"}, "Thursday": {"close": "21:00", "open": "12:00"}, "Sunday": {"close": "21:00", "open": "12:00"}, "Saturday": {"close": "21:00", "open": "12:00"}}, "open": true, "categories": ["Food", "Ice Cream & Frozen Yogurt"], "city": "Karlsruhe", "review_count": 5, "name": "Eismarie", "neighborhoods": [], "longitude": 8.4967142, "state": "BW", "stars": 3.0, "latitude": 49.0054172, "attributes": {"Parking": {"garage": false, "street": false, "validated": false, "lot": false, "valet": false}, "Accepts Credit Cards": false, "Wi-Fi": "no", "Price Range": 2}, "type": "business"}
{"business_id": "J6OFcAKsbOvzZBoNqTe2dQ", "full_address": "Sophienstr. 98\nWeststadt\n76135 Karlsruhe", "hours": {}, "open": true, "categories": ["Food", "Ice Cream & Frozen Yogurt"], "city": "Karlsruhe", "review_count": 7, "name": "Eiscafe Am Sophienpark", "neighborhoods": [], "longitude": 8.38314, "state": "BW", "stars": 4.5, "latitude": 49.00804, "attributes": {"Accepts Credit Cards": false, "Takes Reservations": true, "Wi-Fi": "free", "Outdoor Seating": true, "Parking": {"garage": false, "validated": false, "street": false, "lot": false, "valet": false}, "Smoking": "no", "Wheelchair Accessible": true, "Price Range": 2}, "type": "business"}
{"business_id": "guaPlDZLMG3kljQv0OsCYA", "full_address": "Douglasstr. 32\n76133 Karlsruhe", "hours": {"Monday": {"close": "20:00", "open": "12:00"}, "Tuesday": {"close": "20:00", "open": "12:00"}, "Friday": {"close": "20:00", "open": "12:00"}, "Wednesday": {"close": "20:00", "open": "12:00"}, "Thursday": {"close": "20:00", "open": "12:00"}, "Saturday": {"close": "20:00", "open": "12:00"}}, "open": false, "categories": ["Food", "Ice Cream & Frozen Yogurt"], "city": "Karlsruhe", "review_count": 5, "name": "Yogurt Monster", "neighborhoods": [], "longitude": 8.3933518, "state": "BW", "stars": 4.5, "latitude": 49.0089285, "attributes": {"Outdoor Seating": false, "Takes Reservations": false, "Good For": {"dessert": false, "latenight": false, "lunch": false, "dinner": false, "breakfast": false, "brunch": false}, "Attire": "casual", "Alcohol": "none", "Smoking": "no", "Accepts Credit Cards": false, "Price Range": 2}, "type": "business"}
{"business_id": "NGVIpkvMko7HBIR5dSf97w", "full_address": "Ettlinger-Tor-Platz 1\n76133 Karlsruhe", "hours": {}, "open": true, "categories": ["Food", "Ice Cream & Frozen Yogurt"], "city": "Karlsruhe", "review_count": 4, "name": "Eiscaf\u00e9 Florenz", "neighborhoods": [], "longitude": 8.40342, "state": "BW", "stars": 3.5, "latitude": 49.0056, "attributes": {"Parking": {"garage": false, "street": false, "validated": false, "lot": false, "valet": false}, "Accepts Credit Cards": false, "Wi-Fi": "no", "Price Range": 3}, "type": "business"}
{"business_id": "rE-MBRj1Nf3pnzEQ0msotA", "full_address": "Schlo\u00dfplatz 6\n76275 Ettlingen", "hours": {}, "open": true, "categories": ["Food", "Ice Cream & Frozen Yogurt"], "city": "Ettlingen", "review_count": 6, "name": "Tiziano", "neighborhoods": [], "longitude": 8.40636807465739, "state": "BW", "stars": 3.5, "latitude": 48.9408228279515, "attributes": {"Price Range": 3, "Attire": "casual"}, "type": "business"}
{"business_id": "DUc-A2ZYS3BFE2wl-rslvw", "full_address": "Sch\u00f6llbronner Str. 57\n76275 Ettlingen", "hours": {}, "open": true, "categories": ["Food", "Ice Cream & Frozen Yogurt"], "city": "Ettlingen", "review_count": 4, "name": "Bruno's Eisladen", "neighborhoods": [], "longitude": 8.41583, "state": "BW", "stars": 4.0, "latitude": 48.9371, "attributes": {"Accepts Credit Cards": false, "Outdoor Seating": true, "Price Range": 1}, "type": "business"}
{"business_id": "klkVCqlVYBYvO3hvtmMHeA", "full_address": "Georg-Friedrich-Str. 30\n76131 Karlsruhe", "hours": {"Monday": {"close": "22:00", "open": "10:00"}, "Tuesday": {"close": "22:00", "open": "10:00"}, "Friday": {"close": "22:00", "open": "10:00"}, "Wednesday": {"close": "22:00", "open": "10:00"}, "Thursday": {"close": "22:00", "open": "10:00"}, "Sunday": {"close": "22:00", "open": "10:00"}, "Saturday": {"close": "22:00", "open": "10:00"}}, "open": true, "categories": ["Food", "Ice Cream & Frozen Yogurt"], "city": "Karlsruhe", "review_count": 27, "name": "Eis Casata", "neighborhoods": [], "longitude": 8.42338, "state": "BW", "stars": 4.5, "latitude": 49.009, "attributes": {"Take-out": true, "Wi-Fi": "no", "Good For": {"dessert": false, "latenight": false, "lunch": false, "dinner": false, "brunch": false, "breakfast": false}, "Caters": false, "Noise Level": "loud", "Takes Reservations": false, "Has TV": false, "Smoking": "outdoor", "Delivery": false, "Ambience": {"romantic": false, "intimate": false, "classy": false, "hipster": false, "divey": false, "touristy": false, "trendy": false, "upscale": false, "casual": false}, "Parking": {"garage": false, "street": true, "validated": false, "lot": false, "valet": false}, "Wheelchair Accessible": false, "Outdoor Seating": true, "Attire": "casual", "Alcohol": "none", "Waiter Service": false, "Accepts Credit Cards": false, "Good for Kids": true, "Good For Groups": true, "Price Range": 2}, "type": "business"}
{"business_id": "nrdrdEq0x2yPknCYCLjINw", "full_address": "Pfinztalstra\u00dfe\n76227 Karlsruhe", "hours": {}, "open": true, "categories": ["Food", "Ice Cream & Frozen Yogurt"], "city": "Karlsruhe", "review_count": 3, "name": "Gelatone", "neighborhoods": [], "longitude": 8.47008, "state": "BW", "stars": 5.0, "latitude": 48.9992, "attributes": {}, "type": "business"}
{"business_id": "He-DZK510V8MHobwyYBr4w", "full_address": "Kirchenplatz 5\n76275 Ettlingen", "hours": {}, "open": true, "categories": ["Food", "Ice Cream & Frozen Yogurt", "Cafes", "Restaurants"], "city": "Ettlingen", "review_count": 13, "name": "Caf\u00e9s Pierod", "neighborhoods": [], "longitude": 8.40803, "state": "BW", "stars": 4.5, "latitude": 48.9414, "attributes": {"Take-out": true, "Wi-Fi": "no", "Good For": {"dessert": false, "latenight": false, "lunch": false, "dinner": false, "brunch": false, "breakfast": false}, "Parking": {"garage": false, "validated": false, "street": false, "lot": false, "valet": false}, "Has TV": false, "Delivery": false, "Wheelchair Accessible": false, "Outdoor Seating": true, "Attire": "casual", "Alcohol": "beer_and_wine", "Smoking": "outdoor", "Accepts Credit Cards": false, "Good for Kids": true, "Good For Groups": true, "Price Range": 3}, "type": "business"}
{"business_id": "cxs28BsfEmlkRUTucx8a8w", "full_address": "Kaiserpassage 2\n76133 Karlsruhe", "hours": {}, "open": true, "categories": ["Food", "Ice Cream & Frozen Yogurt", "Coffee & Tea", "Cafes", "Restaurants"], "city": "Karlsruhe", "review_count": 4, "name": "Eiscafe Capri", "neighborhoods": [], "longitude": 8.39732, "state": "BW", "stars": 4.0, "latitude": 49.0102, "attributes": {"Take-out": true, "Good For Groups": true, "Price Range": 2}, "type": "business"}
{"business_id": "Umq7lcGqslqbIFtPHwvSYw", "full_address": "Kaiserstr. 124C\n76133 Karlsruhe", "hours": {}, "open": true, "categories": ["Food", "Ice Cream & Frozen Yogurt", "Coffee & Tea", "Cafes", "Restaurants"], "city": "Karlsruhe", "review_count": 28, "name": "Eiscafe Casal", "neighborhoods": [], "longitude": 8.3969286, "state": "BW", "stars": 4.5, "latitude": 49.0099839, "attributes": {"Take-out": true, "Wi-Fi": "no", "Good For": {"dessert": true, "latenight": false, "lunch": false, "dinner": false, "breakfast": false, "brunch": false}, "Caters": false, "Noise Level": "loud", "Takes Reservations": false, "Has TV": false, "Smoking": "outdoor", "Delivery": false, "Ambience": {"romantic": false, "intimate": false, "classy": false, "hipster": false, "divey": false, "touristy": false, "trendy": false, "upscale": false, "casual": false}, "Parking": {"garage": false, "street": false, "validated": false, "lot": false, "valet": false}, "Wheelchair Accessible": true, "Outdoor Seating": true, "Attire": "casual", "Alcohol": "beer_and_wine", "Waiter Service": true, "Accepts Credit Cards": false, "Good for Kids": true, "Good For Groups": true, "Price Range": 2}, "type": "business"}
{"business_id": "hJuw__aAzsTKNZjLpFUUcg", "full_address": "Kaiserstr. 101\n76133 Karlsruhe", "hours": {}, "open": true, "categories": ["Food", "Ice Cream & Frozen Yogurt", "Restaurants"], "city": "Karlsruhe", "review_count": 4, "name": "Cortina", "neighborhoods": [], "longitude": 8.40791, "state": "BW", "stars": 4.5, "latitude": 49.0094, "attributes": {"Good For": {"dessert": false, "latenight": false, "lunch": false, "dinner": false, "breakfast": false, "brunch": false}, "Noise Level": "average", "Takes Reservations": false, "Outdoor Seating": true, "Attire": "casual", "Waiter Service": true, "Good For Groups": true, "Price Range": 1}, "type": "business"}
{"business_id": "ZQ6HmK2N2EyP3EU-vtq6_Q", "full_address": "Lammstr. 7\n76133 Karlsruhe", "hours": {}, "open": true, "categories": ["Food", "Ice Cream & Frozen Yogurt", "Cafes", "Restaurants"], "city": "Karlsruhe", "review_count": 11, "name": "Da Vinci", "neighborhoods": [], "longitude": 8.40248, "state": "BW", "stars": 4.5, "latitude": 49.0093, "attributes": {"Take-out": true, "Parking": {"garage": false, "street": false, "validated": false, "lot": false, "valet": false}, "Delivery": false, "Outdoor Seating": true, "Attire": "casual", "Accepts Credit Cards": false, "Good for Kids": true, "Good For Groups": true, "Price Range": 2}, "type": "business"}
{"business_id": "Xd0RmBnBrogo0LETOm3ddA", "full_address": "Kaiserallee 7a\n76133 Karlsruhe", "hours": {}, "open": false, "categories": ["Food", "Ice Cream & Frozen Yogurt"], "city": "Karlsruhe", "review_count": 3, "name": "Eiscafe Dolomiti", "neighborhoods": [], "longitude": 8.3858862, "state": "BW", "stars": 4.5, "latitude": 49.0102097, "attributes": {"Parking": {"garage": false, "validated": false, "street": false, "lot": false, "valet": false}, "Outdoor Seating": true, "Price Range": 2}, "type": "business"}
{"business_id": "NBvCfBuShkbCfBVvtmKchQ", "full_address": "Kaiserstr. 133\n76133 Karlsruhe", "hours": {}, "open": true, "categories": ["Food", "Ice Cream & Frozen Yogurt", "Coffee & Tea", "Cafes", "Restaurants"], "city": "Karlsruhe", "review_count": 9, "name": "Cafe Pierod", "neighborhoods": [], "longitude": 8.40472, "state": "BW", "stars": 3.5, "latitude": 49.0096, "attributes": {}, "type": "business"}
{"business_id": "n7FOMSsN4wSv6PEMuRX_PA", "full_address": "Hellbergstr. 1\n76189 Karlsruhe", "hours": {"Monday": {"close": "20:00", "open": "11:00"}, "Tuesday": {"close": "20:00", "open": "11:00"}, "Friday": {"close": "20:00", "open": "11:00"}, "Wednesday": {"close": "20:00", "open": "11:00"}, "Thursday": {"close": "20:00", "open": "11:00"}, "Sunday": {"close": "20:00", "open": "11:00"}, "Saturday": {"close": "20:00", "open": "11:00"}}, "open": true, "categories": ["Food", "Ice Cream & Frozen Yogurt"], "city": "Karlsruhe", "review_count": 7, "name": "Eiscafe Eis-Oma", "neighborhoods": [], "longitude": 8.35395, "state": "BW", "stars": 4.0, "latitude": 48.9933, "attributes": {"Parking": {"garage": false, "validated": false, "street": false, "lot": false, "valet": false}, "Wheelchair Accessible": false, "Outdoor Seating": true, "Price Range": 2}, "type": "business"}
{"business_id": "oU97TcNDBHZu0gGH2wiT7Q", "full_address": "Hauptstr. 37\n76344 Eggenstein-Leopoldshafen", "hours": {}, "open": true, "categories": ["Food", "Ice Cream & Frozen Yogurt"], "city": "Eggenstein-Leopoldshafen", "review_count": 10, "name": "Eisdiele Veneta", "neighborhoods": [], "longitude": 8.3890607, "state": "BW", "stars": 4.5, "latitude": 49.0789607, "attributes": {"Good For": {"dessert": false, "latenight": false, "lunch": false, "dinner": false, "breakfast": false, "brunch": false}, "Takes Reservations": false, "Wheelchair Accessible": false, "Outdoor Seating": true, "Parking": {"garage": false, "street": false, "validated": false, "lot": false, "valet": false}, "Smoking": "outdoor", "Accepts Credit Cards": false, "Good For Groups": false, "Price Range": 2}, "type": "business"}
{"business_id": "iiB7mtJQEkwxhr3ka7Wb_w", "full_address": "Martin-Luther-Str. 12\n76229 Karlsruhe", "hours": {"Monday": {"close": "21:00", "open": "12:00"}, "Tuesday": {"close": "21:00", "open": "12:00"}, "Friday": {"close": "21:00", "open": "12:00"}, "Wednesday": {"close": "21:00", "open": "12:00"}, "Thursday": {"close": "21:00", "open": "12:00"}, "Sunday": {"close": "21:00", "open": "12:00"}, "Saturday": {"close": "21:00", "open": "12:00"}}, "open": true, "categories": ["Food", "Ice Cream & Frozen Yogurt"], "city": "Karlsruhe", "review_count": 5, "name": "Eismarie", "neighborhoods": [], "longitude": 8.4967142, "state": "BW", "stars": 3.0, "latitude": 49.0054172, "attributes": {"Parking": {"garage": false, "street": false, "validated": false, "lot": false, "valet": false}, "Accepts Credit Cards": false, "Wi-Fi": "no", "Price Range": 2}, "type": "business"}
{"business_id": "J6OFcAKsbOvzZBoNqTe2dQ", "full_address": "Sophienstr. 98\nWeststadt\n76135 Karlsruhe", "hours": {}, "open": true, "categories": ["Food", "Ice Cream & Frozen Yogurt"], "city": "Karlsruhe", "review_count": 7, "name": "Eiscafe Am Sophienpark", "neighborhoods": [], "longitude": 8.38314, "state": "BW", "stars": 4.5, "latitude": 49.00804, "attributes": {"Accepts Credit Cards": false, "Takes Reservations": true, "Wi-Fi": "free", "Outdoor Seating": true, "Parking": {"garage": false, "validated": false, "street": false, "lot": false, "valet": false}, "Smoking": "no", "Wheelchair Accessible": true, "Price Range": 2}, "type": "business"}
{"business_id": "guaPlDZLMG3kljQv0OsCYA", "full_address": "Douglasstr. 32\n76133 Karlsruhe", "hours": {"Monday": {"close": "20:00", "open": "12:00"}, "Tuesday": {"close": "20:00", "open": "12:00"}, "Friday": {"close": "20:00", "open": "12:00"}, "Wednesday": {"close": "20:00", "open": "12:00"}, "Thursday": {"close": "20:00", "open": "12:00"}, "Saturday": {"close": "20:00", "open": "12:00"}}, "open": false, "categories": ["Food", "Ice Cream & Frozen Yogurt"], "city": "Karlsruhe", "review_count": 5, "name": "Yogurt Monster", "neighborhoods": [], "longitude": 8.3933518, "state": "BW", "stars": 4.5, "latitude": 49.0089285, "attributes": {"Outdoor Seating": false, "Takes Reservations": false, "Good For": {"dessert": false, "latenight": false, "lunch": false, "dinner": false, "breakfast": false, "brunch": false}, "Attire": "casual", "Alcohol": "none", "Smoking": "no", "Accepts Credit Cards": false, "Price Range": 2}, "type": "business"}
{"business_id": "NGVIpkvMko7HBIR5dSf97w", "full_address": "Ettlinger-Tor-Platz 1\n76133 Karlsruhe", "hours": {}, "open": true, "categories": ["Food", "Ice Cream & Frozen Yogurt"], "city": "Karlsruhe", "review_count": 4, "name": "Eiscaf\u00e9 Florenz", "neighborhoods": [], "longitude": 8.40342, "state": "BW", "stars": 3.5, "latitude": 49.0056, "attributes": {"Parking": {"garage": false, "street": false, "validated": false, "lot": false, "valet": false}, "Accepts Credit Cards": false, "Wi-Fi": "no", "Price Range": 3}, "type": "business"}
{"business_id": "rE-MBRj1Nf3pnzEQ0msotA", "full_address": "Schlo\u00dfplatz 6\n76275 Ettlingen", "hours": {}, "open": true, "categories": ["Food", "Ice Cream & Frozen Yogurt"], "city": "Ettlingen", "review_count": 6, "name": "Tiziano", "neighborhoods": [], "longitude": 8.40636807465739, "state": "BW", "stars": 3.5, "latitude": 48.9408228279515, "attributes": {"Price Range": 3, "Attire": "casual"}, "type": "business"}
{"business_id": "DUc-A2ZYS3BFE2wl-rslvw", "full_address": "Sch\u00f6llbronner Str. 57\n76275 Ettlingen", "hours": {}, "open": true, "categories": ["Food", "Ice Cream & Frozen Yogurt"], "city": "Ettlingen", "review_count": 4, "name": "Bruno's Eisladen", "neighborhoods": [], "longitude": 8.41583, "state": "BW", "stars": 4.0, "latitude": 48.9371, "attributes": {"Accepts Credit Cards": false, "Outdoor Seating": true, "Price Range": 1}, "type": "business"}
{"business_id": "klkVCqlVYBYvO3hvtmMHeA", "full_address": "Georg-Friedrich-Str. 30\n76131 Karlsruhe", "hours": {"Monday": {"close": "22:00", "open": "10:00"}, "Tuesday": {"close": "22:00", "open": "10:00"}, "Friday": {"close": "22:00", "open": "10:00"}, "Wednesday": {"close": "22:00", "open": "10:00"}, "Thursday": {"close": "22:00", "open": "10:00"}, "Sunday": {"close": "22:00", "open": "10:00"}, "Saturday": {"close": "22:00", "open": "10:00"}}, "open": true, "categories": ["Food", "Ice Cream & Frozen Yogurt"], "city": "Karlsruhe", "review_count": 27, "name": "Eis Casata", "neighborhoods": [], "longitude": 8.42338, "state": "BW", "stars": 4.5, "latitude": 49.009, "attributes": {"Take-out": true, "Wi-Fi": "no", "Good For": {"dessert": false, "latenight": false, "lunch": false, "dinner": false, "brunch": false, "breakfast": false}, "Caters": false, "Noise Level": "loud", "Takes Reservations": false, "Has TV": false, "Smoking": "outdoor", "Delivery": false, "Ambience": {"romantic": false, "intimate": false, "classy": false, "hipster": false, "divey": false, "touristy": false, "trendy": false, "upscale": false, "casual": false}, "Parking": {"garage": false, "street": true, "validated": false, "lot": false, "valet": false}, "Wheelchair Accessible": false, "Outdoor Seating": true, "Attire": "casual", "Alcohol": "none", "Waiter Service": false, "Accepts Credit Cards": false, "Good for Kids": true, "Good For Groups": true, "Price Range": 2}, "type": "business"}
{"business_id": "nrdrdEq0x2yPknCYCLjINw", "full_address": "Pfinztalstra\u00dfe\n76227 Karlsruhe", "hours": {}, "open": true, "categories": ["Food", "Ice Cream & Frozen Yogurt"], "city": "Karlsruhe", "review_count": 3, "name": "Gelatone", "neighborhoods": [], "longitude": 8.47008, "state": "BW", "stars": 5.0, "latitude": 48.9992, "attributes": {}, "type": "business"}
