{"business_id": "xGY-VLTZMWG-nVdn5yRorQ", "full_address": "Z\u00e4hringerstrasse. 96\n76133 Karlsruhe", "hours": {}, "open": true, "categories": ["Champagne Bars", "Bars", "Cocktail Bars", "Nightlife", "Lounges"], "city": "Karlsruhe", "review_count": 3, "name": "Leonardo Espressobar", "neighborhoods": [], "longitude": 8.40301717591566, "state": "BW", "stars": 4.5, "latitude": 49.0090802958294, "attributes": {}, "type": "business"}
{"business_id": "Qzpjop2y6h2B646l-fl4Iw", "full_address": "Alter Schlachthof 45\n76131 Karlsruhe", "hours": {}, "open": true, "categories": ["Champagne Bars", "Bars", "Nightlife"], "city": "Karlsruhe", "review_count": 6, "name": "Aurum", "neighborhoods": [], "longitude": 8.43061, "state": "BW", "stars": 3.5, "latitude": 49.0045, "attributes": {"Alcohol": "full_bar", "Good For Dancing": false, "Happy Hour": false, "Has TV": false, "Outdoor Seating": true, "Good For Groups": true, "Price Range": 3}, "type": "business"}
{"business_id": "xGY-VLTZMWG-nVdn5yRorQ", "full_address": "Z\u00e4hringerstrasse. 96\n76133 Karlsruhe", "hours": {}, "open": true, "categories": ["Champagne Bars", "Bars", "Cocktail Bars", "Nightlife", "Lounges"], "city": "Karlsruhe", "review_count": 3, "name": "Leonardo Espressobar", "neighborhoods": [], "longitude": 8.40301717591566, "state": "BW", "stars": 4.5, "latitude": 49.0090802958294, "attributes": {}, "type": "business"}
{"business_id": "Qzpjop2y6h2B646l-fl4Iw", "full_address": "Alter Schlachthof 45\n76131 Karlsruhe", "hours": {}, "open": true, "categories": ["Champagne Bars", "Bars", "Nightlife"], "city": "Karlsruhe", "review_count": 6, "name": "Aurum", "neighborhoods": [], "longitude": 8.43061, "state": "BW", "stars": 3.5, "latitude": 49.0045, "attributes": {"Alcohol": "full_bar", "Good For Dancing": false, "Happy Hour": false, "Has TV": false, "Outdoor Seating": true, "Good For Groups": true, "Price Range": 3}, "type": "business"}
{"business_id": "xGY-VLTZMWG-nVdn5yRorQ", "full_address": "Z\u00e4hringerstrasse. 96\n76133 Karlsruhe", "hours": {}, "open": true, "categories": ["Champagne Bars", "Bars", "Cocktail Bars", "Nightlife", "Lounges"], "city": "Karlsruhe", "review_count": 3, "name": "Leonardo Espressobar", "neighborhoods": [], "longitude": 8.40301717591566, "state": "BW", "stars": 4.5, "latitude": 49.0090802958294, "attributes": {}, "type": "business"}
{"business_id": "Qzpjop2y6h2B646l-fl4Iw", "full_address": "Alter Schlachthof 45\n76131 Karlsruhe", "hours": {}, "open": true, "categories": ["Champagne Bars", "Bars", "Nightlife"], "city": "Karlsruhe", "review_count": 6, "name": "Aurum", "neighborhoods": [], "longitude": 8.43061, "state": "BW", "stars": 3.5, "latitude": 49.0045, "attributes": {"Alcohol": "full_bar", "Good For Dancing": false, "Happy Hour": false, "Has TV": false, "Outdoor Seating": true, "Good For Groups": true, "Price Range": 3}, "type": "business"}
{"business_id": "xGY-VLTZMWG-nVdn5yRorQ", "full_address": "Z\u00e4hringerstrasse. 96\n76133 Karlsruhe", "hours": {}, "open": true, "categories": ["Champagne Bars", "Bars", "Cocktail Bars", "Nightlife", "Lounges"], "city": "Karlsruhe", "review_count": 3, "name": "Leonardo Espressobar", "neighborhoods": [], "longitude": 8.40301717591566, "state": "BW", "stars": 4.5, "latitude": 49.0090802958294, "attributes": {}, "type": "business"}
{"business_id": "Qzpjop2y6h2B646l-fl4Iw", "full_address": "Alter Schlachthof 45\n76131 Karlsruhe", "hours": {}, "open": true, "categories": ["Champagne Bars", "Bars", "Nightlife"], "city": "Karlsruhe", "review_count": 6, "name": "Aurum", "neighborhoods": [], "longitude": 8.43061, "state": "BW", "stars": 3.5, "latitude": 49.0045, "attributes": {"Alcohol": "full_bar", "Good For Dancing": false, "Happy Hour": false, "Has TV": false, "Outdoor Seating": true, "Good For Groups": true, "Price Range": 3}, "type": "business"}
{"business_id": "xGY-VLTZMWG-nVdn5yRorQ", "full_address": "Z\u00e4hringerstrasse. 96\n76133 Karlsruhe", "hours": {}, "open": true, "categories": ["Champagne Bars", "Bars", "Cocktail Bars", "Nightlife", "Lounges"], "city": "Karlsruhe", "review_count": 3, "name": "Leonardo Espressobar", "neighborhoods": [], "longitude": 8.40301717591566, "state": "BW", "stars": 4.5, "latitude": 49.0090802958294, "attributes": {}, "type": "business"}
{"business_id": "Qzpjop2y6h2B646l-fl4Iw", "full_address": "Alter Schlachthof 45\n76131 Karlsruhe", "hours": {}, "open": true, "categories": ["Champagne Bars", "Bars", "Nightlife"], "city": "Karlsruhe", "review_count": 6, "name": "Aurum", "neighborhoods": [], "longitude": 8.43061, "state": "BW", "stars": 3.5, "latitude": 49.0045, "attributes": {"Alcohol": "full_bar", "Good For Dancing": false, "Happy Hour": false, "Has TV": false, "Outdoor Seating": true, "Good For Groups": true, "Price Range": 3}, "type": "business"}
{"business_id": "xGY-VLTZMWG-nVdn5yRorQ", "full_address": "Z\u00e4hringerstrasse. 96\n76133 Karlsruhe", "hours": {}, "open": true, "categories": ["Champagne Bars", "Bars", "Cocktail Bars", "Nightlife", "Lounges"], "city": "Karlsruhe", "review_count": 3, "name": "Leonardo Espressobar", "neighborhoods": [], "longitude": 8.40301717591566, "state": "BW", "stars": 4.5, "latitude": 49.0090802958294, "attributes": {}, "type": "business"}
{"business_id": "Qzpjop2y6h2B646l-fl4Iw", "full_address": "Alter Schlachthof 45\n76131 Karlsruhe", "hours": {}, "open": true, "categories": ["Champagne Bars", "Bars", "Nightlife"], "city": "Karlsruhe", "review_count": 6, "name": "Aurum", "neighborhoods": [], "longitude": 8.43061, "state": "BW", "stars": 3.5, "latitude": 49.0045, "attributes": {"Alcohol": "full_bar", "Good For Dancing": false, "Happy Hour": false, "Has TV": false, "Outdoor Seating": true, "Good For Groups": true, "Price Range": 3}, "type": "business"}
