{"business_id": "hvr8NYKtGbJL0T7Y3WRv8w", "full_address": "Bahnhofstra\u00dfe\n76287 Rheinstetten", "hours": {}, "open": true, "categories": ["Hardware Stores", "Beer Garden", "Shopping", "Home & Garden", "Restaurants"], "city": "Rheinstetten", "review_count": 3, "name": "Biergarten J\u00e4ger", "neighborhoods": [], "longitude": 8.3410161, "state": "BW", "stars": 3.5, "latitude": 48.965887, "attributes": {"Take-out": true, "Wi-Fi": "no", "Good For": {"dessert": false, "latenight": false, "lunch": false, "dinner": false, "breakfast": false, "brunch": false}, "Parking": {"garage": false, "validated": false, "street": false, "lot": false, "valet": false}, "Delivery": false, "Wheelchair Accessible": true, "Outdoor Seating": true, "Takes Reservations": true, "Alcohol": "beer_and_wine", "Smoking": "yes", "Accepts Credit Cards": false, "Good For Groups": true, "Price Range": 2}, "type": "business"}
{"business_id": "uzIDDHatzLhcc0LagyCx8g", "full_address": "Printzstr. 2\n76139 Karlsruhe", "hours": {}, "open": true, "categories": ["Hardware Stores", "Shopping", "Home & Garden"], "city": "Karlsruhe", "review_count": 3, "name": "Praktiker Bau-und Heimwerkerm\u00e4rkte", "neighborhoods": [], "longitude": 8.46203, "state": "BW", "stars": 1.5, "latitude": 49.0201, "attributes": {}, "type": "business"}
{"business_id": "1TmQbb_tbgi-c81-Nh7XRQ", "full_address": "Am Storrenacker 6\n76139 Karlsruhe", "hours": {}, "open": true, "categories": ["Nurseries & Gardening", "Home Services", "Building Supplies", "Home & Garden", "Hardware Stores", "Shopping"], "city": "Karlsruhe", "review_count": 8, "name": "Hornbach", "neighborhoods": [], "longitude": 8.46165, "state": "BW", "stars": 4.5, "latitude": 49.0186, "attributes": {"Parking": {"garage": false, "street": false, "validated": false, "lot": false, "valet": false}, "Accepts Credit Cards": true, "Price Range": 2}, "type": "business"}
{"business_id": "tb7-JM1FYdITIQBWES7XRA", "full_address": "Benzstra\u00dfe 7 - 9\n76307 Karlsbad", "hours": {"Monday": {"close": "19:00", "open": "08:30"}, "Tuesday": {"close": "19:00", "open": "08:30"}, "Friday": {"close": "19:00", "open": "08:30"}, "Wednesday": {"close": "19:00", "open": "08:30"}, "Thursday": {"close": "19:00", "open": "08:30"}, "Saturday": {"close": "18:00", "open": "08:30"}}, "open": true, "categories": ["Hardware Stores", "Shopping", "Home & Garden"], "city": "Karlsbad", "review_count": 3, "name": "Profi Schroth Fachmarkt Center", "neighborhoods": [], "longitude": 8.50174, "state": "BW", "stars": 3.5, "latitude": 48.9201, "attributes": {"Accepts Credit Cards": true, "Price Range": 3}, "type": "business"}
{"business_id": "6G6T-7zxuPtAOLbt6SGwAg", "full_address": "K\u00e4ppelestr. 2\n76131 Karlsruhe", "hours": {}, "open": false, "categories": ["Hardware Stores", "Shopping", "Home Services", "Home & Garden"], "city": "Karlsruhe", "review_count": 9, "name": "Baumarkt Max Bahr GmbH & Co. KG", "neighborhoods": [], "longitude": 8.44044, "state": "BW", "stars": 3.0, "latitude": 49.00817, "attributes": {"Parking": {"garage": false, "validated": false, "street": false, "lot": false, "valet": false}, "Price Range": 2}, "type": "business"}
{"business_id": "hvr8NYKtGbJL0T7Y3WRv8w", "full_address": "Bahnhofstra\u00dfe\n76287 Rheinstetten", "hours": {}, "open": true, "categories": ["Hardware Stores", "Beer Garden", "Shopping", "Home & Garden", "Restaurants"], "city": "Rheinstetten", "review_count": 3, "name": "Biergarten J\u00e4ger", "neighborhoods": [], "longitude": 8.3410161, "state": "BW", "stars": 3.5, "latitude": 48.965887, "attributes": {"Take-out": true, "Wi-Fi": "no", "Good For": {"dessert": false, "latenight": false, "lunch": false, "dinner": false, "breakfast": false, "brunch": false}, "Parking": {"garage": false, "validated": false, "street": false, "lot": false, "valet": false}, "Delivery": false, "Wheelchair Accessible": true, "Outdoor Seating": true, "Takes Reservations": true, "Alcohol": "beer_and_wine", "Smoking": "yes", "Accepts Credit Cards": false, "Good For Groups": true, "Price Range": 2}, "type": "business"}
{"business_id": "uzIDDHatzLhcc0LagyCx8g", "full_address": "Printzstr. 2\n76139 Karlsruhe", "hours": {}, "open": true, "categories": ["Hardware Stores", "Shopping", "Home & Garden"], "city": "Karlsruhe", "review_count": 3, "name": "Praktiker Bau-und Heimwerkerm\u00e4rkte", "neighborhoods": [], "longitude": 8.46203, "state": "BW", "stars": 1.5, "latitude": 49.0201, "attributes": {}, "type": "business"}
{"business_id": "1TmQbb_tbgi-c81-Nh7XRQ", "full_address": "Am Storrenacker 6\n76139 Karlsruhe", "hours": {}, "open": true, "categories": ["Nurseries & Gardening", "Home Services", "Building Supplies", "Home & Garden", "Hardware Stores", "Shopping"], "city": "Karlsruhe", "review_count": 8, "name": "Hornbach", "neighborhoods": [], "longitude": 8.46165, "state": "BW", "stars": 4.5, "latitude": 49.0186, "attributes": {"Parking": {"garage": false, "street": false, "validated": false, "lot": false, "valet": false}, "Accepts Credit Cards": true, "Price Range": 2}, "type": "business"}
{"business_id": "tb7-JM1FYdITIQBWES7XRA", "full_address": "Benzstra\u00dfe 7 - 9\n76307 Karlsbad", "hours": {"Monday": {"close": "19:00", "open": "08:30"}, "Tuesday": {"close": "19:00", "open": "08:30"}, "Friday": {"close": "19:00", "open": "08:30"}, "Wednesday": {"close": "19:00", "open": "08:30"}, "Thursday": {"close": "19:00", "open": "08:30"}, "Saturday": {"close": "18:00", "open": "08:30"}}, "open": true, "categories": ["Hardware Stores", "Shopping", "Home & Garden"], "city": "Karlsbad", "review_count": 3, "name": "Profi Schroth Fachmarkt Center", "neighborhoods": [], "longitude": 8.50174, "state": "BW", "stars": 3.5, "latitude": 48.9201, "attributes": {"Accepts Credit Cards": true, "Price Range": 3}, "type": "business"}
{"business_id": "6G6T-7zxuPtAOLbt6SGwAg", "full_address": "K\u00e4ppelestr. 2\n76131 Karlsruhe", "hours": {}, "open": false, "categories": ["Hardware Stores", "Shopping", "Home Services", "Home & Garden"], "city": "Karlsruhe", "review_count": 9, "name": "Baumarkt Max Bahr GmbH & Co. KG", "neighborhoods": [], "longitude": 8.44044, "state": "BW", "stars": 3.0, "latitude": 49.00817, "attributes": {"Parking": {"garage": false, "validated": false, "street": false, "lot": false, "valet": false}, "Price Range": 2}, "type": "business"}
{"business_id": "hvr8NYKtGbJL0T7Y3WRv8w", "full_address": "Bahnhofstra\u00dfe\n76287 Rheinstetten", "hours": {}, "open": true, "categories": ["Hardware Stores", "Beer Garden", "Shopping", "Home & Garden", "Restaurants"], "city": "Rheinstetten", "review_count": 3, "name": "Biergarten J\u00e4ger", "neighborhoods": [], "longitude": 8.3410161, "state": "BW", "stars": 3.5, "latitude": 48.965887, "attributes": {"Take-out": true, "Wi-Fi": "no", "Good For": {"dessert": false, "latenight": false, "lunch": false, "dinner": false, "breakfast": false, "brunch": false}, "Parking": {"garage": false, "validated": false, "street": false, "lot": false, "valet": false}, "Delivery": false, "Wheelchair Accessible": true, "Outdoor Seating": true, "Takes Reservations": true, "Alcohol": "beer_and_wine", "Smoking": "yes", "Accepts Credit Cards": false, "Good For Groups": true, "Price Range": 2}, "type": "business"}
{"business_id": "uzIDDHatzLhcc0LagyCx8g", "full_address": "Printzstr. 2\n76139 Karlsruhe", "hours": {}, "open": true, "categories": ["Hardware Stores", "Shopping", "Home & Garden"], "city": "Karlsruhe", "review_count": 3, "name": "Praktiker Bau-und Heimwerkerm\u00e4rkte", "neighborhoods": [], "longitude": 8.46203, "state": "BW", "stars": 1.5, "latitude": 49.0201, "attributes": {}, "type": "business"}
{"business_id": "1TmQbb_tbgi-c81-Nh7XRQ", "full_address": "Am Storrenacker 6\n76139 Karlsruhe", "hours": {}, "open": true, "categories": ["Nurseries & Gardening", "Home Services", "Building Supplies", "Home & Garden", "Hardware Stores", "Shopping"], "city": "Karlsruhe", "review_count": 8, "name": "Hornbach", "neighborhoods": [], "longitude": 8.46165, "state": "BW", "stars": 4.5, "latitude": 49.0186, "attributes": {"Parking": {"garage": false, "street": false, "validated": false, "lot": false, "valet": false}, "Accepts Credit Cards": true, "Price Range": 2}, "type": "business"}
{"business_id": "tb7-JM1FYdITIQBWES7XRA", "full_address": "Benzstra\u00dfe 7 - 9\n76307 Karlsbad", "hours": {"Monday": {"close": "19:00", "open": "08:30"}, "Tuesday": {"close": "19:00", "open": "08:30"}, "Friday": {"close": "19:00", "open": "08:30"}, "Wednesday": {"close": "19:00", "open": "08:30"}, "Thursday": {"close": "19:00", "open": "08:30"}, "Saturday": {"close": "18:00", "open": "08:30"}}, "open": true, "categories": ["Hardware Stores", "Shopping", "Home & Garden"], "city": "Karlsbad", "review_count": 3, "name": "Profi Schroth Fachmarkt Center", "neighborhoods": [], "longitude": 8.50174, "state": "BW", "stars": 3.5, "latitude": 48.9201, "attributes": {"Accepts Credit Cards": true, "Price Range": 3}, "type": "business"}
{"business_id": "6G6T-7zxuPtAOLbt6SGwAg", "full_address": "K\u00e4ppelestr. 2\n76131 Karlsruhe", "hours": {}, "open": false, "categories": ["Hardware Stores", "Shopping", "Home Services", "Home & Garden"], "city": "Karlsruhe", "review_count": 9, "name": "Baumarkt Max Bahr GmbH & Co. KG", "neighborhoods": [], "longitude": 8.44044, "state": "BW", "stars": 3.0, "latitude": 49.00817, "attributes": {"Parking": {"garage": false, "validated": false, "street": false, "lot": false, "valet": false}, "Price Range": 2}, "type": "business"}
{"business_id": "hvr8NYKtGbJL0T7Y3WRv8w", "full_address": "Bahnhofstra\u00dfe\n76287 Rheinstetten", "hours": {}, "open": true, "categories": ["Hardware Stores", "Beer Garden", "Shopping", "Home & Garden", "Restaurants"], "city": "Rheinstetten", "review_count": 3, "name": "Biergarten J\u00e4ger", "neighborhoods": [], "longitude": 8.3410161, "state": "BW", "stars": 3.5, "latitude": 48.965887, "attributes": {"Take-out": true, "Wi-Fi": "no", "Good For": {"dessert": false, "latenight": false, "lunch": false, "dinner": false, "breakfast": false, "brunch": false}, "Parking": {"garage": false, "validated": false, "street": false, "lot": false, "valet": false}, "Delivery": false, "Wheelchair Accessible": true, "Outdoor Seating": true, "Takes Reservations": true, "Alcohol": "beer_and_wine", "Smoking": "yes", "Accepts Credit Cards": false, "Good For Groups": true, "Price Range": 2}, "type": "business"}
{"business_id": "uzIDDHatzLhcc0LagyCx8g", "full_address": "Printzstr. 2\n76139 Karlsruhe", "hours": {}, "open": true, "categories": ["Hardware Stores", "Shopping", "Home & Garden"], "city": "Karlsruhe", "review_count": 3, "name": "Praktiker Bau-und Heimwerkerm\u00e4rkte", "neighborhoods": [], "longitude": 8.46203, "state": "BW", "stars": 1.5, "latitude": 49.0201, "attributes": {}, "type": "business"}
{"business_id": "1TmQbb_tbgi-c81-Nh7XRQ", "full_address": "Am Storrenacker 6\n76139 Karlsruhe", "hours": {}, "open": true, "categories": ["Nurseries & Gardening", "Home Services", "Building Supplies", "Home & Garden", "Hardware Stores", "Shopping"], "city": "Karlsruhe", "review_count": 8, "name": "Hornbach", "neighborhoods": [], "longitude": 8.46165, "state": "BW", "stars": 4.5, "latitude": 49.0186, "attributes": {"Parking": {"garage": false, "street": false, "validated": false, "lot": false, "valet": false}, "Accepts Credit Cards": true, "Price Range": 2}, "type": "business"}
{"business_id": "tb7-JM1FYdITIQBWES7XRA", "full_address": "Benzstra\u00dfe 7 - 9\n76307 Karlsbad", "hours": {"Monday": {"close": "19:00", "open": "08:30"}, "Tuesday": {"close": "19:00", "open": "08:30"}, "Friday": {"close": "19:00", "open": "08:30"}, "Wednesday": {"close": "19:00", "open": "08:30"}, "Thursday": {"close": "19:00", "open": "08:30"}, "Saturday": {"close": "18:00", "open": "08:30"}}, "open": true, "categories": ["Hardware Stores", "Shopping", "Home & Garden"], "city": "Karlsbad", "review_count": 3, "name": "Profi Schroth Fachmarkt Center", "neighborhoods": [], "longitude": 8.50174, "state": "BW", "stars": 3.5, "latitude": 48.9201, "attributes": {"Accepts Credit Cards": true, "Price Range": 3}, "type": "business"}
{"business_id": "6G6T-7zxuPtAOLbt6SGwAg", "full_address": "K\u00e4ppelestr. 2\n76131 Karlsruhe", "hours": {}, "open": false, "categories": ["Hardware Stores", "Shopping", "Home Services", "Home & Garden"], "city": "Karlsruhe", "review_count": 9, "name": "Baumarkt Max Bahr GmbH & Co. KG", "neighborhoods": [], "longitude": 8.44044, "state": "BW", "stars": 3.0, "latitude": 49.00817, "attributes": {"Parking": {"garage": false, "validated": false, "street": false, "lot": false, "valet": false}, "Price Range": 2}, "type": "business"}
{"business_id": "hvr8NYKtGbJL0T7Y3WRv8w", "full_address": "Bahnhofstra\u00dfe\n76287 Rheinstetten", "hours": {}, "open": true, "categories": ["Hardware Stores", "Beer Garden", "Shopping", "Home & Garden", "Restaurants"], "city": "Rheinstetten", "review_count": 3, "name": "Biergarten J\u00e4ger", "neighborhoods": [], "longitude": 8.3410161, "state": "BW", "stars": 3.5, "latitude": 48.965887, "attributes": {"Take-out": true, "Wi-Fi": "no", "Good For": {"dessert": false, "latenight": false, "lunch": false, "dinner": false, "breakfast": false, "brunch": false}, "Parking": {"garage": false, "validated": false, "street": false, "lot": false, "valet": false}, "Delivery": false, "Wheelchair Accessible": true, "Outdoor Seating": true, "Takes Reservations": true, "Alcohol": "beer_and_wine", "Smoking": "yes", "Accepts Credit Cards": false, "Good For Groups": true, "Price Range": 2}, "type": "business"}
{"business_id": "uzIDDHatzLhcc0LagyCx8g", "full_address": "Printzstr. 2\n76139 Karlsruhe", "hours": {}, "open": true, "categories": ["Hardware Stores", "Shopping", "Home & Garden"], "city": "Karlsruhe", "review_count": 3, "name": "Praktiker Bau-und Heimwerkerm\u00e4rkte", "neighborhoods": [], "longitude": 8.46203, "state": "BW", "stars": 1.5, "latitude": 49.0201, "attributes": {}, "type": "business"}
{"business_id": "1TmQbb_tbgi-c81-Nh7XRQ", "full_address": "Am Storrenacker 6\n76139 Karlsruhe", "hours": {}, "open": true, "categories": ["Nurseries & Gardening", "Home Services", "Building Supplies", "Home & Garden", "Hardware Stores", "Shopping"], "city": "Karlsruhe", "review_count": 8, "name": "Hornbach", "neighborhoods": [], "longitude": 8.46165, "state": "BW", "stars": 4.5, "latitude": 49.0186, "attributes": {"Parking": {"garage": false, "street": false, "validated": false, "lot": false, "valet": false}, "Accepts Credit Cards": true, "Price Range": 2}, "type": "business"}
{"business_id": "tb7-JM1FYdITIQBWES7XRA", "full_address": "Benzstra\u00dfe 7 - 9\n76307 Karlsbad", "hours": {"Monday": {"close": "19:00", "open": "08:30"}, "Tuesday": {"close": "19:00", "open": "08:30"}, "Friday": {"close": "19:00", "open": "08:30"}, "Wednesday": {"close": "19:00", "open": "08:30"}, "Thursday": {"close": "19:00", "open": "08:30"}, "Saturday": {"close": "18:00", "open": "08:30"}}, "open": true, "categories": ["Hardware Stores", "Shopping", "Home & Garden"], "city": "Karlsbad", "review_count": 3, "name": "Profi Schroth Fachmarkt Center", "neighborhoods": [], "longitude": 8.50174, "state": "BW", "stars": 3.5, "latitude": 48.9201, "attributes": {"Accepts Credit Cards": true, "Price Range": 3}, "type": "business"}
{"business_id": "6G6T-7zxuPtAOLbt6SGwAg", "full_address": "K\u00e4ppelestr. 2\n76131 Karlsruhe", "hours": {}, "open": false, "categories": ["Hardware Stores", "Shopping", "Home Services", "Home & Garden"], "city": "Karlsruhe", "review_count": 9, "name": "Baumarkt Max Bahr GmbH & Co. KG", "neighborhoods": [], "longitude": 8.44044, "state": "BW", "stars": 3.0, "latitude": 49.00817, "attributes": {"Parking": {"garage": false, "validated": false, "street": false, "lot": false, "valet": false}, "Price Range": 2}, "type": "business"}
{"business_id": "hvr8NYKtGbJL0T7Y3WRv8w", "full_address": "Bahnhofstra\u00dfe\n76287 Rheinstetten", "hours": {}, "open": true, "categories": ["Hardware Stores", "Beer Garden", "Shopping", "Home & Garden", "Restaurants"], "city": "Rheinstetten", "review_count": 3, "name": "Biergarten J\u00e4ger", "neighborhoods": [], "longitude": 8.3410161, "state": "BW", "stars": 3.5, "latitude": 48.965887, "attributes": {"Take-out": true, "Wi-Fi": "no", "Good For": {"dessert": false, "latenight": false, "lunch": false, "dinner": false, "breakfast": false, "brunch": false}, "Parking": {"garage": false, "validated": false, "street": false, "lot": false, "valet": false}, "Delivery": false, "Wheelchair Accessible": true, "Outdoor Seating": true, "Takes Reservations": true, "Alcohol": "beer_and_wine", "Smoking": "yes", "Accepts Credit Cards": false, "Good For Groups": true, "Price Range": 2}, "type": "business"}
{"business_id": "uzIDDHatzLhcc0LagyCx8g", "full_address": "Printzstr. 2\n76139 Karlsruhe", "hours": {}, "open": true, "categories": ["Hardware Stores", "Shopping", "Home & Garden"], "city": "Karlsruhe", "review_count": 3, "name": "Praktiker Bau-und Heimwerkerm\u00e4rkte", "neighborhoods": [], "longitude": 8.46203, "state": "BW", "stars": 1.5, "latitude": 49.0201, "attributes": {}, "type": "business"}
{"business_id": "1TmQbb_tbgi-c81-Nh7XRQ", "full_address": "Am Storrenacker 6\n76139 Karlsruhe", "hours": {}, "open": true, "categories": ["Nurseries & Gardening", "Home Services", "Building Supplies", "Home & Garden", "Hardware Stores", "Shopping"], "city": "Karlsruhe", "review_count": 8, "name": "Hornbach", "neighborhoods": [], "longitude": 8.46165, "state": "BW", "stars": 4.5, "latitude": 49.0186, "attributes": {"Parking": {"garage": false, "street": false, "validated": false, "lot": false, "valet": false}, "Accepts Credit Cards": true, "Price Range": 2}, "type": "business"}
{"business_id": "tb7-JM1FYdITIQBWES7XRA", "full_address": "Benzstra\u00dfe 7 - 9\n76307 Karlsbad", "hours": {"Monday": {"close": "19:00", "open": "08:30"}, "Tuesday": {"close": "19:00", "open": "08:30"}, "Friday": {"close": "19:00", "open": "08:30"}, "Wednesday": {"close": "19:00", "open": "08:30"}, "Thursday": {"close": "19:00", "open": "08:30"}, "Saturday": {"close": "18:00", "open": "08:30"}}, "open": true, "categories": ["Hardware Stores", "Shopping", "Home & Garden"], "city": "Karlsbad", "review_count": 3, "name": "Profi Schroth Fachmarkt Center", "neighborhoods": [], "longitude": 8.50174, "state": "BW", "stars": 3.5, "latitude": 48.9201, "attributes": {"Accepts Credit Cards": true, "Price Range": 3}, "type": "business"}
{"business_id": "6G6T-7zxuPtAOLbt6SGwAg", "full_address": "K\u00e4ppelestr. 2\n76131 Karlsruhe", "hours": {}, "open": false, "categories": ["Hardware Stores", "Shopping", "Home Services", "Home & Garden"], "city": "Karlsruhe", "review_count": 9, "name": "Baumarkt Max Bahr GmbH & Co. KG", "neighborhoods": [], "longitude": 8.44044, "state": "BW", "stars": 3.0, "latitude": 49.00817, "attributes": {"Parking": {"garage": false, "validated": false, "street": false, "lot": false, "valet": false}, "Price Range": 2}, "type": "business"}
