{"business_id": "obsjrNe75ypTw8_rY_FRPw", "full_address": "Kronenstr. 4\n76133 Karlsruhe", "hours": {}, "open": true, "categories": ["Tobacco Shops", "Food", "Coffee & Tea", "Shopping"], "city": "Karlsruhe", "review_count": 3, "name": "Die Blubber", "neighborhoods": [], "longitude": 8.40745, "state": "BW", "stars": 3.5, "latitude": 49.0105, "attributes": {}, "type": "business"}
{"business_id": "Ggk-eOeMo1aNq7kSh71e_g", "full_address": "Rheinstr. 57\n76185 Karlsruhe", "hours": {"Monday": {"close": "18:30", "open": "09:00"}, "Tuesday": {"close": "18:30", "open": "09:00"}, "Friday": {"close": "18:30", "open": "09:00"}, "Wednesday": {"close": "18:30", "open": "09:00"}, "Thursday": {"close": "18:30", "open": "09:00"}, "Saturday": {"close": "14:00", "open": "09:00"}}, "open": true, "categories": ["Tobacco Shops", "Food", "Shopping"], "city": "Karlsruhe", "review_count": 4, "name": "Tabak-Heck", "neighborhoods": [], "longitude": 8.35952, "state": "BW", "stars": 5.0, "latitude": 49.0113, "attributes": {"Price Range": 2}, "type": "business"}
{"business_id": "obsjrNe75ypTw8_rY_FRPw", "full_address": "Kronenstr. 4\n76133 Karlsruhe", "hours": {}, "open": true, "categories": ["Tobacco Shops", "Food", "Coffee & Tea", "Shopping"], "city": "Karlsruhe", "review_count": 3, "name": "Die Blubber", "neighborhoods": [], "longitude": 8.40745, "state": "BW", "stars": 3.5, "latitude": 49.0105, "attributes": {}, "type": "business"}
{"business_id": "Ggk-eOeMo1aNq7kSh71e_g", "full_address": "Rheinstr. 57\n76185 Karlsruhe", "hours": {"Monday": {"close": "18:30", "open": "09:00"}, "Tuesday": {"close": "18:30", "open": "09:00"}, "Friday": {"close": "18:30", "open": "09:00"}, "Wednesday": {"close": "18:30", "open": "09:00"}, "Thursday": {"close": "18:30", "open": "09:00"}, "Saturday": {"close": "14:00", "open": "09:00"}}, "open": true, "categories": ["Tobacco Shops", "Food", "Shopping"], "city": "Karlsruhe", "review_count": 4, "name": "Tabak-Heck", "neighborhoods": [], "longitude": 8.35952, "state": "BW", "stars": 5.0, "latitude": 49.0113, "attributes": {"Price Range": 2}, "type": "business"}
{"business_id": "obsjrNe75ypTw8_rY_FRPw", "full_address": "Kronenstr. 4\n76133 Karlsruhe", "hours": {}, "open": true, "categories": ["Tobacco Shops", "Food", "Coffee & Tea", "Shopping"], "city": "Karlsruhe", "review_count": 3, "name": "Die Blubber", "neighborhoods": [], "longitude": 8.40745, "state": "BW", "stars": 3.5, "latitude": 49.0105, "attributes": {}, "type": "business"}
{"business_id": "Ggk-eOeMo1aNq7kSh71e_g", "full_address": "Rheinstr. 57\n76185 Karlsruhe", "hours": {"Monday": {"close": "18:30", "open": "09:00"}, "Tuesday": {"close": "18:30", "open": "09:00"}, "Friday": {"close": "18:30", "open": "09:00"}, "Wednesday": {"close": "18:30", "open": "09:00"}, "Thursday": {"close": "18:30", "open": "09:00"}, "Saturday": {"close": "14:00", "open": "09:00"}}, "open": true, "categories": ["Tobacco Shops", "Food", "Shopping"], "city": "Karlsruhe", "review_count": 4, "name": "Tabak-Heck", "neighborhoods": [], "longitude": 8.35952, "state": "BW", "stars": 5.0, "latitude": 49.0113, "attributes": {"Price Range": 2}, "type": "business"}
{"business_id": "obsjrNe75ypTw8_rY_FRPw", "full_address": "Kronenstr. 4\n76133 Karlsruhe", "hours": {}, "open": true, "categories": ["Tobacco Shops", "Food", "Coffee & Tea", "Shopping"], "city": "Karlsruhe", "review_count": 3, "name": "Die Blubber", "neighborhoods": [], "longitude": 8.40745, "state": "BW", "stars": 3.5, "latitude": 49.0105, "attributes": {}, "type": "business"}
{"business_id": "Ggk-eOeMo1aNq7kSh71e_g", "full_address": "Rheinstr. 57\n76185 Karlsruhe", "hours": {"Monday": {"close": "18:30", "open": "09:00"}, "Tuesday": {"close": "18:30", "open": "09:00"}, "Friday": {"close": "18:30", "open": "09:00"}, "Wednesday": {"close": "18:30", "open": "09:00"}, "Thursday": {"close": "18:30", "open": "09:00"}, "Saturday": {"close": "14:00", "open": "09:00"}}, "open": true, "categories": ["Tobacco Shops", "Food", "Shopping"], "city": "Karlsruhe", "review_count": 4, "name": "Tabak-Heck", "neighborhoods": [], "longitude": 8.35952, "state": "BW", "stars": 5.0, "latitude": 49.0113, "attributes": {"Price Range": 2}, "type": "business"}
{"business_id": "obsjrNe75ypTw8_rY_FRPw", "full_address": "Kronenstr. 4\n76133 Karlsruhe", "hours": {}, "open": true, "categories": ["Tobacco Shops", "Food", "Coffee & Tea", "Shopping"], "city": "Karlsruhe", "review_count": 3, "name": "Die Blubber", "neighborhoods": [], "longitude": 8.40745, "state": "BW", "stars": 3.5, "latitude": 49.0105, "attributes": {}, "type": "business"}
{"business_id": "Ggk-eOeMo1aNq7kSh71e_g", "full_address": "Rheinstr. 57\n76185 Karlsruhe", "hours": {"Monday": {"close": "18:30", "open": "09:00"}, "Tuesday": {"close": "18:30", "open": "09:00"}, "Friday": {"close": "18:30", "open": "09:00"}, "Wednesday": {"close": "18:30", "open": "09:00"}, "Thursday": {"close": "18:30", "open": "09:00"}, "Saturday": {"close": "14:00", "open": "09:00"}}, "open": true, "categories": ["Tobacco Shops", "Food", "Shopping"], "city": "Karlsruhe", "review_count": 4, "name": "Tabak-Heck", "neighborhoods": [], "longitude": 8.35952, "state": "BW", "stars": 5.0, "latitude": 49.0113, "attributes": {"Price Range": 2}, "type": "business"}
{"business_id": "obsjrNe75ypTw8_rY_FRPw", "full_address": "Kronenstr. 4\n76133 Karlsruhe", "hours": {}, "open": true, "categories": ["Tobacco Shops", "Food", "Coffee & Tea", "Shopping"], "city": "Karlsruhe", "review_count": 3, "name": "Die Blubber", "neighborhoods": [], "longitude": 8.40745, "state": "BW", "stars": 3.5, "latitude": 49.0105, "attributes": {}, "type": "business"}
{"business_id": "Ggk-eOeMo1aNq7kSh71e_g", "full_address": "Rheinstr. 57\n76185 Karlsruhe", "hours": {"Monday": {"close": "18:30", "open": "09:00"}, "Tuesday": {"close": "18:30", "open": "09:00"}, "Friday": {"close": "18:30", "open": "09:00"}, "Wednesday": {"close": "18:30", "open": "09:00"}, "Thursday": {"close": "18:30", "open": "09:00"}, "Saturday": {"close": "14:00", "open": "09:00"}}, "open": true, "categories": ["Tobacco Shops", "Food", "Shopping"], "city": "Karlsruhe", "review_count": 4, "name": "Tabak-Heck", "neighborhoods": [], "longitude": 8.35952, "state": "BW", "stars": 5.0, "latitude": 49.0113, "attributes": {"Price Range": 2}, "type": "business"}
