{"business_id": "4od9zZAKUnJ8XVnLP3XTfw", "full_address": "Honsellstra\u00dfe 39\n76189 Karlsruhe", "hours": {}, "open": true, "categories": ["Active Life", "Swimming Pools", "Kids Activities"], "city": "Karlsruhe", "review_count": 7, "name": "Sonnenbad", "neighborhoods": [], "longitude": 8.3468, "state": "BW", "stars": 4.5, "latitude": 49.01349, "attributes": {"Wheelchair Accessible": false, "Parking": {"garage": false, "validated": false, "street": false, "lot": false, "valet": false}}, "type": "business"}
{"business_id": "qrGmLp2qyvlVYLuGzn0W7Q", "full_address": "Kaiserallee 11\n76133 Karlsruhe", "hours": {}, "open": true, "categories": ["Arts & Entertainment", "Performing Arts", "Nightlife", "Active Life", "Kids Activities", "Comedy Clubs"], "city": "Karlsruhe", "review_count": 9, "name": "marotte Figurentheater", "neighborhoods": [], "longitude": 8.3847, "state": "BW", "stars": 5.0, "latitude": 49.0091, "attributes": {"Price Range": 2, "Alcohol": "beer_and_wine", "Coat Check": true, "Happy Hour": false, "Outdoor Seating": false, "Parking": {"garage": false, "validated": false, "street": false, "lot": false, "valet": false}, "Smoking": "outdoor", "Accepts Credit Cards": false, "Wheelchair Accessible": false}, "type": "business"}
{"business_id": "JACNqt4si0ciKrnKWfBKRw", "full_address": "Daimlerstr. 7\n76185 Karlsruhe", "hours": {}, "open": true, "categories": ["Active Life", "Kids Activities", "Event Planning & Services", "Party & Event Planning"], "city": "Karlsruhe", "review_count": 7, "name": "Kindorado", "neighborhoods": [], "longitude": 8.35607, "state": "BW", "stars": 3.0, "latitude": 49.0258, "attributes": {"Wheelchair Accessible": true, "Parking": {"garage": false, "validated": false, "street": false, "lot": false, "valet": false}}, "type": "business"}
{"business_id": "qb9ZA9SvLJ4Lhi4LQclseQ", "full_address": "Junker-und-Ruh-Weg\n76135 Karlsruhe", "hours": {}, "open": true, "categories": ["Active Life", "Hotels & Travel", "Parks", "Kids Activities"], "city": "Karlsruhe", "review_count": 15, "name": "G\u00fcnther-Klotz-Anlage", "neighborhoods": [], "longitude": 8.37373, "state": "BW", "stars": 4.5, "latitude": 48.9988, "attributes": {"Good for Kids": true, "Parking": {"garage": false, "validated": false, "street": false, "lot": false, "valet": false}, "Wheelchair Accessible": true, "Price Range": 1}, "type": "business"}
{"business_id": "4od9zZAKUnJ8XVnLP3XTfw", "full_address": "Honsellstra\u00dfe 39\n76189 Karlsruhe", "hours": {}, "open": true, "categories": ["Active Life", "Swimming Pools", "Kids Activities"], "city": "Karlsruhe", "review_count": 7, "name": "Sonnenbad", "neighborhoods": [], "longitude": 8.3468, "state": "BW", "stars": 4.5, "latitude": 49.01349, "attributes": {"Wheelchair Accessible": false, "Parking": {"garage": false, "validated": false, "street": false, "lot": false, "valet": false}}, "type": "business"}
{"business_id": "qrGmLp2qyvlVYLuGzn0W7Q", "full_address": "Kaiserallee 11\n76133 Karlsruhe", "hours": {}, "open": true, "categories": ["Arts & Entertainment", "Performing Arts", "Nightlife", "Active Life", "Kids Activities", "Comedy Clubs"], "city": "Karlsruhe", "review_count": 9, "name": "marotte Figurentheater", "neighborhoods": [], "longitude": 8.3847, "state": "BW", "stars": 5.0, "latitude": 49.0091, "attributes": {"Price Range": 2, "Alcohol": "beer_and_wine", "Coat Check": true, "Happy Hour": false, "Outdoor Seating": false, "Parking": {"garage": false, "validated": false, "street": false, "lot": false, "valet": false}, "Smoking": "outdoor", "Accepts Credit Cards": false, "Wheelchair Accessible": false}, "type": "business"}
{"business_id": "JACNqt4si0ciKrnKWfBKRw", "full_address": "Daimlerstr. 7\n76185 Karlsruhe", "hours": {}, "open": true, "categories": ["Active Life", "Kids Activities", "Event Planning & Services", "Party & Event Planning"], "city": "Karlsruhe", "review_count": 7, "name": "Kindorado", "neighborhoods": [], "longitude": 8.35607, "state": "BW", "stars": 3.0, "latitude": 49.0258, "attributes": {"Wheelchair Accessible": true, "Parking": {"garage": false, "validated": false, "street": false, "lot": false, "valet": false}}, "type": "business"}
{"business_id": "qb9ZA9SvLJ4Lhi4LQclseQ", "full_address": "Junker-und-Ruh-Weg\n76135 Karlsruhe", "hours": {}, "open": true, "categories": ["Active Life", "Hotels & Travel", "Parks", "Kids Activities"], "city": "Karlsruhe", "review_count": 15, "name": "G\u00fcnther-Klotz-Anlage", "neighborhoods": [], "longitude": 8.37373, "state": "BW", "stars": 4.5, "latitude": 48.9988, "attributes": {"Good for Kids": true, "Parking": {"garage": false, "validated": false, "street": false, "lot": false, "valet": false}, "Wheelchair Accessible": true, "Price Range": 1}, "type": "business"}
{"business_id": "4od9zZAKUnJ8XVnLP3XTfw", "full_address": "Honsellstra\u00dfe 39\n76189 Karlsruhe", "hours": {}, "open": true, "categories": ["Active Life", "Swimming Pools", "Kids Activities"], "city": "Karlsruhe", "review_count": 7, "name": "Sonnenbad", "neighborhoods": [], "longitude": 8.3468, "state": "BW", "stars": 4.5, "latitude": 49.01349, "attributes": {"Wheelchair Accessible": false, "Parking": {"garage": false, "validated": false, "street": false, "lot": false, "valet": false}}, "type": "business"}
{"business_id": "qrGmLp2qyvlVYLuGzn0W7Q", "full_address": "Kaiserallee 11\n76133 Karlsruhe", "hours": {}, "open": true, "categories": ["Arts & Entertainment", "Performing Arts", "Nightlife", "Active Life", "Kids Activities", "Comedy Clubs"], "city": "Karlsruhe", "review_count": 9, "name": "marotte Figurentheater", "neighborhoods": [], "longitude": 8.3847, "state": "BW", "stars": 5.0, "latitude": 49.0091, "attributes": {"Price Range": 2, "Alcohol": "beer_and_wine", "Coat Check": true, "Happy Hour": false, "Outdoor Seating": false, "Parking": {"garage": false, "validated": false, "street": false, "lot": false, "valet": false}, "Smoking": "outdoor", "Accepts Credit Cards": false, "Wheelchair Accessible": false}, "type": "business"}
{"business_id": "JACNqt4si0ciKrnKWfBKRw", "full_address": "Daimlerstr. 7\n76185 Karlsruhe", "hours": {}, "open": true, "categories": ["Active Life", "Kids Activities", "Event Planning & Services", "Party & Event Planning"], "city": "Karlsruhe", "review_count": 7, "name": "Kindorado", "neighborhoods": [], "longitude": 8.35607, "state": "BW", "stars": 3.0, "latitude": 49.0258, "attributes": {"Wheelchair Accessible": true, "Parking": {"garage": false, "validated": false, "street": false, "lot": false, "valet": false}}, "type": "business"}
{"business_id": "qb9ZA9SvLJ4Lhi4LQclseQ", "full_address": "Junker-und-Ruh-Weg\n76135 Karlsruhe", "hours": {}, "open": true, "categories": ["Active Life", "Hotels & Travel", "Parks", "Kids Activities"], "city": "Karlsruhe", "review_count": 15, "name": "G\u00fcnther-Klotz-Anlage", "neighborhoods": [], "longitude": 8.37373, "state": "BW", "stars": 4.5, "latitude": 48.9988, "attributes": {"Good for Kids": true, "Parking": {"garage": false, "validated": false, "street": false, "lot": false, "valet": false}, "Wheelchair Accessible": true, "Price Range": 1}, "type": "business"}
{"business_id": "4od9zZAKUnJ8XVnLP3XTfw", "full_address": "Honsellstra\u00dfe 39\n76189 Karlsruhe", "hours": {}, "open": true, "categories": ["Active Life", "Swimming Pools", "Kids Activities"], "city": "Karlsruhe", "review_count": 7, "name": "Sonnenbad", "neighborhoods": [], "longitude": 8.3468, "state": "BW", "stars": 4.5, "latitude": 49.01349, "attributes": {"Wheelchair Accessible": false, "Parking": {"garage": false, "validated": false, "street": false, "lot": false, "valet": false}}, "type": "business"}
{"business_id": "qrGmLp2qyvlVYLuGzn0W7Q", "full_address": "Kaiserallee 11\n76133 Karlsruhe", "hours": {}, "open": true, "categories": ["Arts & Entertainment", "Performing Arts", "Nightlife", "Active Life", "Kids Activities", "Comedy Clubs"], "city": "Karlsruhe", "review_count": 9, "name": "marotte Figurentheater", "neighborhoods": [], "longitude": 8.3847, "state": "BW", "stars": 5.0, "latitude": 49.0091, "attributes": {"Price Range": 2, "Alcohol": "beer_and_wine", "Coat Check": true, "Happy Hour": false, "Outdoor Seating": false, "Parking": {"garage": false, "validated": false, "street": false, "lot": false, "valet": false}, "Smoking": "outdoor", "Accepts Credit Cards": false, "Wheelchair Accessible": false}, "type": "business"}
{"business_id": "JACNqt4si0ciKrnKWfBKRw", "full_address": "Daimlerstr. 7\n76185 Karlsruhe", "hours": {}, "open": true, "categories": ["Active Life", "Kids Activities", "Event Planning & Services", "Party & Event Planning"], "city": "Karlsruhe", "review_count": 7, "name": "Kindorado", "neighborhoods": [], "longitude": 8.35607, "state": "BW", "stars": 3.0, "latitude": 49.0258, "attributes": {"Wheelchair Accessible": true, "Parking": {"garage": false, "validated": false, "street": false, "lot": false, "valet": false}}, "type": "business"}
{"business_id": "qb9ZA9SvLJ4Lhi4LQclseQ", "full_address": "Junker-und-Ruh-Weg\n76135 Karlsruhe", "hours": {}, "open": true, "categories": ["Active Life", "Hotels & Travel", "Parks", "Kids Activities"], "city": "Karlsruhe", "review_count": 15, "name": "G\u00fcnther-Klotz-Anlage", "neighborhoods": [], "longitude": 8.37373, "state": "BW", "stars": 4.5, "latitude": 48.9988, "attributes": {"Good for Kids": true, "Parking": {"garage": false, "validated": false, "street": false, "lot": false, "valet": false}, "Wheelchair Accessible": true, "Price Range": 1}, "type": "business"}
{"business_id": "4od9zZAKUnJ8XVnLP3XTfw", "full_address": "Honsellstra\u00dfe 39\n76189 Karlsruhe", "hours": {}, "open": true, "categories": ["Active Life", "Swimming Pools", "Kids Activities"], "city": "Karlsruhe", "review_count": 7, "name": "Sonnenbad", "neighborhoods": [], "longitude": 8.3468, "state": "BW", "stars": 4.5, "latitude": 49.01349, "attributes": {"Wheelchair Accessible": false, "Parking": {"garage": false, "validated": false, "street": false, "lot": false, "valet": false}}, "type": "business"}
{"business_id": "qrGmLp2qyvlVYLuGzn0W7Q", "full_address": "Kaiserallee 11\n76133 Karlsruhe", "hours": {}, "open": true, "categories": ["Arts & Entertainment", "Performing Arts", "Nightlife", "Active Life", "Kids Activities", "Comedy Clubs"], "city": "Karlsruhe", "review_count": 9, "name": "marotte Figurentheater", "neighborhoods": [], "longitude": 8.3847, "state": "BW", "stars": 5.0, "latitude": 49.0091, "attributes": {"Price Range": 2, "Alcohol": "beer_and_wine", "Coat Check": true, "Happy Hour": false, "Outdoor Seating": false, "Parking": {"garage": false, "validated": false, "street": false, "lot": false, "valet": false}, "Smoking": "outdoor", "Accepts Credit Cards": false, "Wheelchair Accessible": false}, "type": "business"}
{"business_id": "JACNqt4si0ciKrnKWfBKRw", "full_address": "Daimlerstr. 7\n76185 Karlsruhe", "hours": {}, "open": true, "categories": ["Active Life", "Kids Activities", "Event Planning & Services", "Party & Event Planning"], "city": "Karlsruhe", "review_count": 7, "name": "Kindorado", "neighborhoods": [], "longitude": 8.35607, "state": "BW", "stars": 3.0, "latitude": 49.0258, "attributes": {"Wheelchair Accessible": true, "Parking": {"garage": false, "validated": false, "street": false, "lot": false, "valet": false}}, "type": "business"}
{"business_id": "qb9ZA9SvLJ4Lhi4LQclseQ", "full_address": "Junker-und-Ruh-Weg\n76135 Karlsruhe", "hours": {}, "open": true, "categories": ["Active Life", "Hotels & Travel", "Parks", "Kids Activities"], "city": "Karlsruhe", "review_count": 15, "name": "G\u00fcnther-Klotz-Anlage", "neighborhoods": [], "longitude": 8.37373, "state": "BW", "stars": 4.5, "latitude": 48.9988, "attributes": {"Good for Kids": true, "Parking": {"garage": false, "validated": false, "street": false, "lot": false, "valet": false}, "Wheelchair Accessible": true, "Price Range": 1}, "type": "business"}
{"business_id": "4od9zZAKUnJ8XVnLP3XTfw", "full_address": "Honsellstra\u00dfe 39\n76189 Karlsruhe", "hours": {}, "open": true, "categories": ["Active Life", "Swimming Pools", "Kids Activities"], "city": "Karlsruhe", "review_count": 7, "name": "Sonnenbad", "neighborhoods": [], "longitude": 8.3468, "state": "BW", "stars": 4.5, "latitude": 49.01349, "attributes": {"Wheelchair Accessible": false, "Parking": {"garage": false, "validated": false, "street": false, "lot": false, "valet": false}}, "type": "business"}
{"business_id": "qrGmLp2qyvlVYLuGzn0W7Q", "full_address": "Kaiserallee 11\n76133 Karlsruhe", "hours": {}, "open": true, "categories": ["Arts & Entertainment", "Performing Arts", "Nightlife", "Active Life", "Kids Activities", "Comedy Clubs"], "city": "Karlsruhe", "review_count": 9, "name": "marotte Figurentheater", "neighborhoods": [], "longitude": 8.3847, "state": "BW", "stars": 5.0, "latitude": 49.0091, "attributes": {"Price Range": 2, "Alcohol": "beer_and_wine", "Coat Check": true, "Happy Hour": false, "Outdoor Seating": false, "Parking": {"garage": false, "validated": false, "street": false, "lot": false, "valet": false}, "Smoking": "outdoor", "Accepts Credit Cards": false, "Wheelchair Accessible": false}, "type": "business"}
{"business_id": "JACNqt4si0ciKrnKWfBKRw", "full_address": "Daimlerstr. 7\n76185 Karlsruhe", "hours": {}, "open": true, "categories": ["Active Life", "Kids Activities", "Event Planning & Services", "Party & Event Planning"], "city": "Karlsruhe", "review_count": 7, "name": "Kindorado", "neighborhoods": [], "longitude": 8.35607, "state": "BW", "stars": 3.0, "latitude": 49.0258, "attributes": {"Wheelchair Accessible": true, "Parking": {"garage": false, "validated": false, "street": false, "lot": false, "valet": false}}, "type": "business"}
{"business_id": "qb9ZA9SvLJ4Lhi4LQclseQ", "full_address": "Junker-und-Ruh-Weg\n76135 Karlsruhe", "hours": {}, "open": true, "categories": ["Active Life", "Hotels & Travel", "Parks", "Kids Activities"], "city": "Karlsruhe", "review_count": 15, "name": "G\u00fcnther-Klotz-Anlage", "neighborhoods": [], "longitude": 8.37373, "state": "BW", "stars": 4.5, "latitude": 48.9988, "attributes": {"Good for Kids": true, "Parking": {"garage": false, "validated": false, "street": false, "lot": false, "valet": false}, "Wheelchair Accessible": true, "Price Range": 1}, "type": "business"}
