{"business_id": "KVxIu47Od2rnDvGWmO1KCA", "full_address": "Zeppelinstr. 8\n76448 Durmersheim", "hours": {}, "open": true, "categories": ["Tires", "Automotive", "Car Dealers"], "city": "Durmersheim", "review_count": 3, "name": "Reifenhaus Feller", "neighborhoods": [], "longitude": 8.26244, "state": "BW", "stars": 1.5, "latitude": 48.9416, "attributes": {"Parking": {"garage": false, "validated": false, "street": false, "lot": false, "valet": false}, "Accepts Credit Cards": true, "Wheelchair Accessible": true, "Price Range": 3}, "type": "business"}
{"business_id": "KVxIu47Od2rnDvGWmO1KCA", "full_address": "Zeppelinstr. 8\n76448 Durmersheim", "hours": {}, "open": true, "categories": ["Tires", "Automotive", "Car Dealers"], "city": "Durmersheim", "review_count": 3, "name": "Reifenhaus Feller", "neighborhoods": [], "longitude": 8.26244, "state": "BW", "stars": 1.5, "latitude": 48.9416, "attributes": {"Parking": {"garage": false, "validated": false, "street": false, "lot": false, "valet": false}, "Accepts Credit Cards": true, "Wheelchair Accessible": true, "Price Range": 3}, "type": "business"}
{"business_id": "KVxIu47Od2rnDvGWmO1KCA", "full_address": "Zeppelinstr. 8\n76448 Durmersheim", "hours": {}, "open": true, "categories": ["Tires", "Automotive", "Car Dealers"], "city": "Durmersheim", "review_count": 3, "name": "Reifenhaus Feller", "neighborhoods": [], "longitude": 8.26244, "state": "BW", "stars": 1.5, "latitude": 48.9416, "attributes": {"Parking": {"garage": false, "validated": false, "street": false, "lot": false, "valet": false}, "Accepts Credit Cards": true, "Wheelchair Accessible": true, "Price Range": 3}, "type": "business"}
{"business_id": "KVxIu47Od2rnDvGWmO1KCA", "full_address": "Zeppelinstr. 8\n76448 Durmersheim", "hours": {}, "open": true, "categories": ["Tires", "Automotive", "Car Dealers"], "city": "Durmersheim", "review_count": 3, "name": "Reifenhaus Feller", "neighborhoods": [], "longitude": 8.26244, "state": "BW", "stars": 1.5, "latitude": 48.9416, "attributes": {"Parking": {"garage": false, "validated": false, "street": false, "lot": false, "valet": false}, "Accepts Credit Cards": true, "Wheelchair Accessible": true, "Price Range": 3}, "type": "business"}
{"business_id": "KVxIu47Od2rnDvGWmO1KCA", "full_address": "Zeppelinstr. 8\n76448 Durmersheim", "hours": {}, "open": true, "categories": ["Tires", "Automotive", "Car Dealers"], "city": "Durmersheim", "review_count": 3, "name": "Reifenhaus Feller", "neighborhoods": [], "longitude": 8.26244, "state": "BW", "stars": 1.5, "latitude": 48.9416, "attributes": {"Parking": {"garage": false, "validated": false, "street": false, "lot": false, "valet": false}, "Accepts Credit Cards": true, "Wheelchair Accessible": true, "Price Range": 3}, "type": "business"}
{"business_id": "KVxIu47Od2rnDvGWmO1KCA", "full_address": "Zeppelinstr. 8\n76448 Durmersheim", "hours": {}, "open": true, "categories": ["Tires", "Automotive", "Car Dealers"], "city": "Durmersheim", "review_count": 3, "name": "Reifenhaus Feller", "neighborhoods": [], "longitude": 8.26244, "state": "BW", "stars": 1.5, "latitude": 48.9416, "attributes": {"Parking": {"garage": false, "validated": false, "street": false, "lot": false, "valet": false}, "Accepts Credit Cards": true, "Wheelchair Accessible": true, "Price Range": 3}, "type": "business"}
