{"business_id": "wnvR-kWXT0q9fKk-yQYqOA", "full_address": "Liststr. 24\n76185 Karlsruhe", "hours": {"Monday": {"close": "23:00", "open": "16:00"}, "Tuesday": {"close": "23:00", "open": "13:00"}, "Friday": {"close": "02:00", "open": "13:00"}, "Wednesday": {"close": "23:00", "open": "13:00"}, "Thursday": {"close": "23:00", "open": "13:00"}, "Sunday": {"close": "23:00", "open": "09:00"}, "Saturday": {"close": "02:00", "open": "09:00"}}, "open": true, "categories": ["Active Life", "Laser Tag"], "city": "Karlsruhe", "review_count": 3, "name": "Laserbase", "neighborhoods": [], "longitude": 8.3590617, "state": "BW", "stars": 3.5, "latitude": 49.0081199, "attributes": {}, "type": "business"}
{"business_id": "wnvR-kWXT0q9fKk-yQYqOA", "full_address": "Liststr. 24\n76185 Karlsruhe", "hours": {"Monday": {"close": "23:00", "open": "16:00"}, "Tuesday": {"close": "23:00", "open": "13:00"}, "Friday": {"close": "02:00", "open": "13:00"}, "Wednesday": {"close": "23:00", "open": "13:00"}, "Thursday": {"close": "23:00", "open": "13:00"}, "Sunday": {"close": "23:00", "open": "09:00"}, "Saturday": {"close": "02:00", "open": "09:00"}}, "open": true, "categories": ["Active Life", "Laser Tag"], "city": "Karlsruhe", "review_count": 3, "name": "Laserbase", "neighborhoods": [], "longitude": 8.3590617, "state": "BW", "stars": 3.5, "latitude": 49.0081199, "attributes": {}, "type": "business"}
{"business_id": "wnvR-kWXT0q9fKk-yQYqOA", "full_address": "Liststr. 24\n76185 Karlsruhe", "hours": {"Monday": {"close": "23:00", "open": "16:00"}, "Tuesday": {"close": "23:00", "open": "13:00"}, "Friday": {"close": "02:00", "open": "13:00"}, "Wednesday": {"close": "23:00", "open": "13:00"}, "Thursday": {"close": "23:00", "open": "13:00"}, "Sunday": {"close": "23:00", "open": "09:00"}, "Saturday": {"close": "02:00", "open": "09:00"}}, "open": true, "categories": ["Active Life", "Laser Tag"], "city": "Karlsruhe", "review_count": 3, "name": "Laserbase", "neighborhoods": [], "longitude": 8.3590617, "state": "BW", "stars": 3.5, "latitude": 49.0081199, "attributes": {}, "type": "business"}
{"business_id": "wnvR-kWXT0q9fKk-yQYqOA", "full_address": "Liststr. 24\n76185 Karlsruhe", "hours": {"Monday": {"close": "23:00", "open": "16:00"}, "Tuesday": {"close": "23:00", "open": "13:00"}, "Friday": {"close": "02:00", "open": "13:00"}, "Wednesday": {"close": "23:00", "open": "13:00"}, "Thursday": {"close": "23:00", "open": "13:00"}, "Sunday": {"close": "23:00", "open": "09:00"}, "Saturday": {"close": "02:00", "open": "09:00"}}, "open": true, "categories": ["Active Life", "Laser Tag"], "city": "Karlsruhe", "review_count": 3, "name": "Laserbase", "neighborhoods": [], "longitude": 8.3590617, "state": "BW", "stars": 3.5, "latitude": 49.0081199, "attributes": {}, "type": "business"}
{"business_id": "wnvR-kWXT0q9fKk-yQYqOA", "full_address": "Liststr. 24\n76185 Karlsruhe", "hours": {"Monday": {"close": "23:00", "open": "16:00"}, "Tuesday": {"close": "23:00", "open": "13:00"}, "Friday": {"close": "02:00", "open": "13:00"}, "Wednesday": {"close": "23:00", "open": "13:00"}, "Thursday": {"close": "23:00", "open": "13:00"}, "Sunday": {"close": "23:00", "open": "09:00"}, "Saturday": {"close": "02:00", "open": "09:00"}}, "open": true, "categories": ["Active Life", "Laser Tag"], "city": "Karlsruhe", "review_count": 3, "name": "Laserbase", "neighborhoods": [], "longitude": 8.3590617, "state": "BW", "stars": 3.5, "latitude": 49.0081199, "attributes": {}, "type": "business"}
{"business_id": "wnvR-kWXT0q9fKk-yQYqOA", "full_address": "Liststr. 24\n76185 Karlsruhe", "hours": {"Monday": {"close": "23:00", "open": "16:00"}, "Tuesday": {"close": "23:00", "open": "13:00"}, "Friday": {"close": "02:00", "open": "13:00"}, "Wednesday": {"close": "23:00", "open": "13:00"}, "Thursday": {"close": "23:00", "open": "13:00"}, "Sunday": {"close": "23:00", "open": "09:00"}, "Saturday": {"close": "02:00", "open": "09:00"}}, "open": true, "categories": ["Active Life", "Laser Tag"], "city": "Karlsruhe", "review_count": 3, "name": "Laserbase", "neighborhoods": [], "longitude": 8.3590617, "state": "BW", "stars": 3.5, "latitude": 49.0081199, "attributes": {}, "type": "business"}
