{"business_id": "6dOjMBKFbK3bRju_n4Tmog", "full_address": "S\u00fcdendstr. 32\n76137 Karlsruhe", "hours": {}, "open": true, "categories": ["Hospitals", "Medical Centers", "Health & Medical"], "city": "Karlsruhe", "review_count": 3, "name": "St. Vincentius-Kliniken gAG Medizinische Klinik I", "neighborhoods": [], "longitude": 8.38875, "state": "BW", "stars": 2.5, "latitude": 48.9994, "attributes": {"By Appointment Only": false}, "type": "business"}
{"business_id": "_8DkBpvIb05yeT2bHsrBMQ", "full_address": "Moltkestr. 90\nMedizinisches Versorgungszentrum\n76133 Karlsruhe", "hours": {}, "open": true, "categories": ["Health & Medical", "Hospitals"], "city": "Karlsruhe", "review_count": 6, "name": "St\u00e4dtisches Klinikum Karlsruhe gGmbH", "neighborhoods": [], "longitude": 8.3746667, "state": "BW", "stars": 2.0, "latitude": 49.0156295, "attributes": {"By Appointment Only": false}, "type": "business"}
{"business_id": "yT2lyh79mSDSQaKR7JCMfw", "full_address": "Diakonissenstr. 28\n76199 Karlsruhe", "hours": {}, "open": true, "categories": ["Health & Medical", "Hospitals"], "city": "Karlsruhe", "review_count": 3, "name": "Diakonissen-Krankenhaus Akademisches Lehrkrankenhaus", "neighborhoods": [], "longitude": 8.41187, "state": "BW", "stars": 5.0, "latitude": 48.9725, "attributes": {"Accepts Credit Cards": false, "Wheelchair Accessible": true, "Parking": {"garage": false, "validated": false, "street": false, "lot": false, "valet": false}}, "type": "business"}
{"business_id": "6dOjMBKFbK3bRju_n4Tmog", "full_address": "S\u00fcdendstr. 32\n76137 Karlsruhe", "hours": {}, "open": true, "categories": ["Hospitals", "Medical Centers", "Health & Medical"], "city": "Karlsruhe", "review_count": 3, "name": "St. Vincentius-Kliniken gAG Medizinische Klinik I", "neighborhoods": [], "longitude": 8.38875, "state": "BW", "stars": 2.5, "latitude": 48.9994, "attributes": {"By Appointment Only": false}, "type": "business"}
{"business_id": "_8DkBpvIb05yeT2bHsrBMQ", "full_address": "Moltkestr. 90\nMedizinisches Versorgungszentrum\n76133 Karlsruhe", "hours": {}, "open": true, "categories": ["Health & Medical", "Hospitals"], "city": "Karlsruhe", "review_count": 6, "name": "St\u00e4dtisches Klinikum Karlsruhe gGmbH", "neighborhoods": [], "longitude": 8.3746667, "state": "BW", "stars": 2.0, "latitude": 49.0156295, "attributes": {"By Appointment Only": false}, "type": "business"}
{"business_id": "yT2lyh79mSDSQaKR7JCMfw", "full_address": "Diakonissenstr. 28\n76199 Karlsruhe", "hours": {}, "open": true, "categories": ["Health & Medical", "Hospitals"], "city": "Karlsruhe", "review_count": 3, "name": "Diakonissen-Krankenhaus Akademisches Lehrkrankenhaus", "neighborhoods": [], "longitude": 8.41187, "state": "BW", "stars": 5.0, "latitude": 48.9725, "attributes": {"Accepts Credit Cards": false, "Wheelchair Accessible": true, "Parking": {"garage": false, "validated": false, "street": false, "lot": false, "valet": false}}, "type": "business"}
{"business_id": "6dOjMBKFbK3bRju_n4Tmog", "full_address": "S\u00fcdendstr. 32\n76137 Karlsruhe", "hours": {}, "open": true, "categories": ["Hospitals", "Medical Centers", "Health & Medical"], "city": "Karlsruhe", "review_count": 3, "name": "St. Vincentius-Kliniken gAG Medizinische Klinik I", "neighborhoods": [], "longitude": 8.38875, "state": "BW", "stars": 2.5, "latitude": 48.9994, "attributes": {"By Appointment Only": false}, "type": "business"}
{"business_id": "_8DkBpvIb05yeT2bHsrBMQ", "full_address": "Moltkestr. 90\nMedizinisches Versorgungszentrum\n76133 Karlsruhe", "hours": {}, "open": true, "categories": ["Health & Medical", "Hospitals"], "city": "Karlsruhe", "review_count": 6, "name": "St\u00e4dtisches Klinikum Karlsruhe gGmbH", "neighborhoods": [], "longitude": 8.3746667, "state": "BW", "stars": 2.0, "latitude": 49.0156295, "attributes": {"By Appointment Only": false}, "type": "business"}
{"business_id": "yT2lyh79mSDSQaKR7JCMfw", "full_address": "Diakonissenstr. 28\n76199 Karlsruhe", "hours": {}, "open": true, "categories": ["Health & Medical", "Hospitals"], "city": "Karlsruhe", "review_count": 3, "name": "Diakonissen-Krankenhaus Akademisches Lehrkrankenhaus", "neighborhoods": [], "longitude": 8.41187, "state": "BW", "stars": 5.0, "latitude": 48.9725, "attributes": {"Accepts Credit Cards": false, "Wheelchair Accessible": true, "Parking": {"garage": false, "validated": false, "street": false, "lot": false, "valet": false}}, "type": "business"}
{"business_id": "6dOjMBKFbK3bRju_n4Tmog", "full_address": "S\u00fcdendstr. 32\n76137 Karlsruhe", "hours": {}, "open": true, "categories": ["Hospitals", "Medical Centers", "Health & Medical"], "city": "Karlsruhe", "review_count": 3, "name": "St. Vincentius-Kliniken gAG Medizinische Klinik I", "neighborhoods": [], "longitude": 8.38875, "state": "BW", "stars": 2.5, "latitude": 48.9994, "attributes": {"By Appointment Only": false}, "type": "business"}
{"business_id": "_8DkBpvIb05yeT2bHsrBMQ", "full_address": "Moltkestr. 90\nMedizinisches Versorgungszentrum\n76133 Karlsruhe", "hours": {}, "open": true, "categories": ["Health & Medical", "Hospitals"], "city": "Karlsruhe", "review_count": 6, "name": "St\u00e4dtisches Klinikum Karlsruhe gGmbH", "neighborhoods": [], "longitude": 8.3746667, "state": "BW", "stars": 2.0, "latitude": 49.0156295, "attributes": {"By Appointment Only": false}, "type": "business"}
{"business_id": "yT2lyh79mSDSQaKR7JCMfw", "full_address": "Diakonissenstr. 28\n76199 Karlsruhe", "hours": {}, "open": true, "categories": ["Health & Medical", "Hospitals"], "city": "Karlsruhe", "review_count": 3, "name": "Diakonissen-Krankenhaus Akademisches Lehrkrankenhaus", "neighborhoods": [], "longitude": 8.41187, "state": "BW", "stars": 5.0, "latitude": 48.9725, "attributes": {"Accepts Credit Cards": false, "Wheelchair Accessible": true, "Parking": {"garage": false, "validated": false, "street": false, "lot": false, "valet": false}}, "type": "business"}
{"business_id": "6dOjMBKFbK3bRju_n4Tmog", "full_address": "S\u00fcdendstr. 32\n76137 Karlsruhe", "hours": {}, "open": true, "categories": ["Hospitals", "Medical Centers", "Health & Medical"], "city": "Karlsruhe", "review_count": 3, "name": "St. Vincentius-Kliniken gAG Medizinische Klinik I", "neighborhoods": [], "longitude": 8.38875, "state": "BW", "stars": 2.5, "latitude": 48.9994, "attributes": {"By Appointment Only": false}, "type": "business"}
{"business_id": "_8DkBpvIb05yeT2bHsrBMQ", "full_address": "Moltkestr. 90\nMedizinisches Versorgungszentrum\n76133 Karlsruhe", "hours": {}, "open": true, "categories": ["Health & Medical", "Hospitals"], "city": "Karlsruhe", "review_count": 6, "name": "St\u00e4dtisches Klinikum Karlsruhe gGmbH", "neighborhoods": [], "longitude": 8.3746667, "state": "BW", "stars": 2.0, "latitude": 49.0156295, "attributes": {"By Appointment Only": false}, "type": "business"}
{"business_id": "yT2lyh79mSDSQaKR7JCMfw", "full_address": "Diakonissenstr. 28\n76199 Karlsruhe", "hours": {}, "open": true, "categories": ["Health & Medical", "Hospitals"], "city": "Karlsruhe", "review_count": 3, "name": "Diakonissen-Krankenhaus Akademisches Lehrkrankenhaus", "neighborhoods": [], "longitude": 8.41187, "state": "BW", "stars": 5.0, "latitude": 48.9725, "attributes": {"Accepts Credit Cards": false, "Wheelchair Accessible": true, "Parking": {"garage": false, "validated": false, "street": false, "lot": false, "valet": false}}, "type": "business"}
{"business_id": "6dOjMBKFbK3bRju_n4Tmog", "full_address": "S\u00fcdendstr. 32\n76137 Karlsruhe", "hours": {}, "open": true, "categories": ["Hospitals", "Medical Centers", "Health & Medical"], "city": "Karlsruhe", "review_count": 3, "name": "St. Vincentius-Kliniken gAG Medizinische Klinik I", "neighborhoods": [], "longitude": 8.38875, "state": "BW", "stars": 2.5, "latitude": 48.9994, "attributes": {"By Appointment Only": false}, "type": "business"}
{"business_id": "_8DkBpvIb05yeT2bHsrBMQ", "full_address": "Moltkestr. 90\nMedizinisches Versorgungszentrum\n76133 Karlsruhe", "hours": {}, "open": true, "categories": ["Health & Medical", "Hospitals"], "city": "Karlsruhe", "review_count": 6, "name": "St\u00e4dtisches Klinikum Karlsruhe gGmbH", "neighborhoods": [], "longitude": 8.3746667, "state": "BW", "stars": 2.0, "latitude": 49.0156295, "attributes": {"By Appointment Only": false}, "type": "business"}
{"business_id": "yT2lyh79mSDSQaKR7JCMfw", "full_address": "Diakonissenstr. 28\n76199 Karlsruhe", "hours": {}, "open": true, "categories": ["Health & Medical", "Hospitals"], "city": "Karlsruhe", "review_count": 3, "name": "Diakonissen-Krankenhaus Akademisches Lehrkrankenhaus", "neighborhoods": [], "longitude": 8.41187, "state": "BW", "stars": 5.0, "latitude": 48.9725, "attributes": {"Accepts Credit Cards": false, "Wheelchair Accessible": true, "Parking": {"garage": false, "validated": false, "street": false, "lot": false, "valet": false}}, "type": "business"}
