{"business_id": "D37k9DjJeF5h1ibjkdNTOQ", "full_address": "Herrenstr. 20\n76133 Karlsruhe", "hours": {}, "open": true, "categories": ["Fashion", "Shopping", "Shoe Stores"], "city": "Karlsruhe", "review_count": 4, "name": "Sigrun Woehr", "neighborhoods": [], "longitude": 8.39885, "state": "BW", "stars": 5.0, "latitude": 49.0096, "attributes": {"Parking": {"garage": false, "validated": false, "street": false, "lot": false, "valet": false}, "Accepts Credit Cards": true, "Price Range": 3}, "type": "business"}
{"business_id": "y4Y_PFthmrdSZuJH6Jl9GQ", "full_address": "Kaiserstra\u00dfe 181\n76133 Karlsruhe", "hours": {}, "open": true, "categories": ["Sporting Goods", "Fashion", "Shopping", "Shoe Stores"], "city": "Karlsruhe", "review_count": 6, "name": "Foot Locker", "neighborhoods": [], "longitude": 8.3990525, "state": "BW", "stars": 4.0, "latitude": 49.0096384, "attributes": {"Wheelchair Accessible": true, "Price Range": 3}, "type": "business"}
{"business_id": "HgdywOlTmkSZ_7WM1foXQA", "full_address": "Kaiserstr. 217\n76133 Karlsruhe", "hours": {}, "open": true, "categories": ["Fashion", "Shopping", "Shoe Stores"], "city": "Karlsruhe", "review_count": 3, "name": "G\u00f6rtz 17", "neighborhoods": [], "longitude": 8.39476, "state": "BW", "stars": 2.5, "latitude": 49.0097, "attributes": {"Price Range": 3}, "type": "business"}
{"business_id": "D2LF87_v_nC4sK7ZAAmQkw", "full_address": "Ettlinger-Tor-Platz 1\n76133 Karlsruhe", "hours": {}, "open": true, "categories": ["Fashion", "Shopping", "Shoe Stores"], "city": "Karlsruhe", "review_count": 3, "name": "Deichmann", "neighborhoods": [], "longitude": 8.40208, "state": "BW", "stars": 2.0, "latitude": 49.0067, "attributes": {"Accepts Credit Cards": true, "Price Range": 1}, "type": "business"}
{"business_id": "0dLjH5zWnbJDukuM3iQYvg", "full_address": "Kaiserstr. 211\n76133 Karlsruhe", "hours": {}, "open": true, "categories": ["Fashion", "Shopping", "Shoe Stores"], "city": "Karlsruhe", "review_count": 9, "name": "Humanic Filiale", "neighborhoods": [], "longitude": 8.3958862, "state": "BW", "stars": 3.5, "latitude": 49.0099485, "attributes": {"Accepts Credit Cards": true, "Price Range": 2}, "type": "business"}
{"business_id": "D37k9DjJeF5h1ibjkdNTOQ", "full_address": "Herrenstr. 20\n76133 Karlsruhe", "hours": {}, "open": true, "categories": ["Fashion", "Shopping", "Shoe Stores"], "city": "Karlsruhe", "review_count": 4, "name": "Sigrun Woehr", "neighborhoods": [], "longitude": 8.39885, "state": "BW", "stars": 5.0, "latitude": 49.0096, "attributes": {"Parking": {"garage": false, "validated": false, "street": false, "lot": false, "valet": false}, "Accepts Credit Cards": true, "Price Range": 3}, "type": "business"}
{"business_id": "y4Y_PFthmrdSZuJH6Jl9GQ", "full_address": "Kaiserstra\u00dfe 181\n76133 Karlsruhe", "hours": {}, "open": true, "categories": ["Sporting Goods", "Fashion", "Shopping", "Shoe Stores"], "city": "Karlsruhe", "review_count": 6, "name": "Foot Locker", "neighborhoods": [], "longitude": 8.3990525, "state": "BW", "stars": 4.0, "latitude": 49.0096384, "attributes": {"Wheelchair Accessible": true, "Price Range": 3}, "type": "business"}
{"business_id": "HgdywOlTmkSZ_7WM1foXQA", "full_address": "Kaiserstr. 217\n76133 Karlsruhe", "hours": {}, "open": true, "categories": ["Fashion", "Shopping", "Shoe Stores"], "city": "Karlsruhe", "review_count": 3, "name": "G\u00f6rtz 17", "neighborhoods": [], "longitude": 8.39476, "state": "BW", "stars": 2.5, "latitude": 49.0097, "attributes": {"Price Range": 3}, "type": "business"}
{"business_id": "D2LF87_v_nC4sK7ZAAmQkw", "full_address": "Ettlinger-Tor-Platz 1\n76133 Karlsruhe", "hours": {}, "open": true, "categories": ["Fashion", "Shopping", "Shoe Stores"], "city": "Karlsruhe", "review_count": 3, "name": "Deichmann", "neighborhoods": [], "longitude": 8.40208, "state": "BW", "stars": 2.0, "latitude": 49.0067, "attributes": {"Accepts Credit Cards": true, "Price Range": 1}, "type": "business"}
{"business_id": "0dLjH5zWnbJDukuM3iQYvg", "full_address": "Kaiserstr. 211\n76133 Karlsruhe", "hours": {}, "open": true, "categories": ["Fashion", "Shopping", "Shoe Stores"], "city": "Karlsruhe", "review_count": 9, "name": "Humanic Filiale", "neighborhoods": [], "longitude": 8.3958862, "state": "BW", "stars": 3.5, "latitude": 49.0099485, "attributes": {"Accepts Credit Cards": true, "Price Range": 2}, "type": "business"}
{"business_id": "D37k9DjJeF5h1ibjkdNTOQ", "full_address": "Herrenstr. 20\n76133 Karlsruhe", "hours": {}, "open": true, "categories": ["Fashion", "Shopping", "Shoe Stores"], "city": "Karlsruhe", "review_count": 4, "name": "Sigrun Woehr", "neighborhoods": [], "longitude": 8.39885, "state": "BW", "stars": 5.0, "latitude": 49.0096, "attributes": {"Parking": {"garage": false, "validated": false, "street": false, "lot": false, "valet": false}, "Accepts Credit Cards": true, "Price Range": 3}, "type": "business"}
{"business_id": "y4Y_PFthmrdSZuJH6Jl9GQ", "full_address": "Kaiserstra\u00dfe 181\n76133 Karlsruhe", "hours": {}, "open": true, "categories": ["Sporting Goods", "Fashion", "Shopping", "Shoe Stores"], "city": "Karlsruhe", "review_count": 6, "name": "Foot Locker", "neighborhoods": [], "longitude": 8.3990525, "state": "BW", "stars": 4.0, "latitude": 49.0096384, "attributes": {"Wheelchair Accessible": true, "Price Range": 3}, "type": "business"}
{"business_id": "HgdywOlTmkSZ_7WM1foXQA", "full_address": "Kaiserstr. 217\n76133 Karlsruhe", "hours": {}, "open": true, "categories": ["Fashion", "Shopping", "Shoe Stores"], "city": "Karlsruhe", "review_count": 3, "name": "G\u00f6rtz 17", "neighborhoods": [], "longitude": 8.39476, "state": "BW", "stars": 2.5, "latitude": 49.0097, "attributes": {"Price Range": 3}, "type": "business"}
{"business_id": "D2LF87_v_nC4sK7ZAAmQkw", "full_address": "Ettlinger-Tor-Platz 1\n76133 Karlsruhe", "hours": {}, "open": true, "categories": ["Fashion", "Shopping", "Shoe Stores"], "city": "Karlsruhe", "review_count": 3, "name": "Deichmann", "neighborhoods": [], "longitude": 8.40208, "state": "BW", "stars": 2.0, "latitude": 49.0067, "attributes": {"Accepts Credit Cards": true, "Price Range": 1}, "type": "business"}
{"business_id": "0dLjH5zWnbJDukuM3iQYvg", "full_address": "Kaiserstr. 211\n76133 Karlsruhe", "hours": {}, "open": true, "categories": ["Fashion", "Shopping", "Shoe Stores"], "city": "Karlsruhe", "review_count": 9, "name": "Humanic Filiale", "neighborhoods": [], "longitude": 8.3958862, "state": "BW", "stars": 3.5, "latitude": 49.0099485, "attributes": {"Accepts Credit Cards": true, "Price Range": 2}, "type": "business"}
{"business_id": "D37k9DjJeF5h1ibjkdNTOQ", "full_address": "Herrenstr. 20\n76133 Karlsruhe", "hours": {}, "open": true, "categories": ["Fashion", "Shopping", "Shoe Stores"], "city": "Karlsruhe", "review_count": 4, "name": "Sigrun Woehr", "neighborhoods": [], "longitude": 8.39885, "state": "BW", "stars": 5.0, "latitude": 49.0096, "attributes": {"Parking": {"garage": false, "validated": false, "street": false, "lot": false, "valet": false}, "Accepts Credit Cards": true, "Price Range": 3}, "type": "business"}
{"business_id": "y4Y_PFthmrdSZuJH6Jl9GQ", "full_address": "Kaiserstra\u00dfe 181\n76133 Karlsruhe", "hours": {}, "open": true, "categories": ["Sporting Goods", "Fashion", "Shopping", "Shoe Stores"], "city": "Karlsruhe", "review_count": 6, "name": "Foot Locker", "neighborhoods": [], "longitude": 8.3990525, "state": "BW", "stars": 4.0, "latitude": 49.0096384, "attributes": {"Wheelchair Accessible": true, "Price Range": 3}, "type": "business"}
{"business_id": "HgdywOlTmkSZ_7WM1foXQA", "full_address": "Kaiserstr. 217\n76133 Karlsruhe", "hours": {}, "open": true, "categories": ["Fashion", "Shopping", "Shoe Stores"], "city": "Karlsruhe", "review_count": 3, "name": "G\u00f6rtz 17", "neighborhoods": [], "longitude": 8.39476, "state": "BW", "stars": 2.5, "latitude": 49.0097, "attributes": {"Price Range": 3}, "type": "business"}
{"business_id": "D2LF87_v_nC4sK7ZAAmQkw", "full_address": "Ettlinger-Tor-Platz 1\n76133 Karlsruhe", "hours": {}, "open": true, "categories": ["Fashion", "Shopping", "Shoe Stores"], "city": "Karlsruhe", "review_count": 3, "name": "Deichmann", "neighborhoods": [], "longitude": 8.40208, "state": "BW", "stars": 2.0, "latitude": 49.0067, "attributes": {"Accepts Credit Cards": true, "Price Range": 1}, "type": "business"}
{"business_id": "0dLjH5zWnbJDukuM3iQYvg", "full_address": "Kaiserstr. 211\n76133 Karlsruhe", "hours": {}, "open": true, "categories": ["Fashion", "Shopping", "Shoe Stores"], "city": "Karlsruhe", "review_count": 9, "name": "Humanic Filiale", "neighborhoods": [], "longitude": 8.3958862, "state": "BW", "stars": 3.5, "latitude": 49.0099485, "attributes": {"Accepts Credit Cards": true, "Price Range": 2}, "type": "business"}
{"business_id": "D37k9DjJeF5h1ibjkdNTOQ", "full_address": "Herrenstr. 20\n76133 Karlsruhe", "hours": {}, "open": true, "categories": ["Fashion", "Shopping", "Shoe Stores"], "city": "Karlsruhe", "review_count": 4, "name": "Sigrun Woehr", "neighborhoods": [], "longitude": 8.39885, "state": "BW", "stars": 5.0, "latitude": 49.0096, "attributes": {"Parking": {"garage": false, "validated": false, "street": false, "lot": false, "valet": false}, "Accepts Credit Cards": true, "Price Range": 3}, "type": "business"}
{"business_id": "y4Y_PFthmrdSZuJH6Jl9GQ", "full_address": "Kaiserstra\u00dfe 181\n76133 Karlsruhe", "hours": {}, "open": true, "categories": ["Sporting Goods", "Fashion", "Shopping", "Shoe Stores"], "city": "Karlsruhe", "review_count": 6, "name": "Foot Locker", "neighborhoods": [], "longitude": 8.3990525, "state": "BW", "stars": 4.0, "latitude": 49.0096384, "attributes": {"Wheelchair Accessible": true, "Price Range": 3}, "type": "business"}
{"business_id": "HgdywOlTmkSZ_7WM1foXQA", "full_address": "Kaiserstr. 217\n76133 Karlsruhe", "hours": {}, "open": true, "categories": ["Fashion", "Shopping", "Shoe Stores"], "city": "Karlsruhe", "review_count": 3, "name": "G\u00f6rtz 17", "neighborhoods": [], "longitude": 8.39476, "state": "BW", "stars": 2.5, "latitude": 49.0097, "attributes": {"Price Range": 3}, "type": "business"}
{"business_id": "D2LF87_v_nC4sK7ZAAmQkw", "full_address": "Ettlinger-Tor-Platz 1\n76133 Karlsruhe", "hours": {}, "open": true, "categories": ["Fashion", "Shopping", "Shoe Stores"], "city": "Karlsruhe", "review_count": 3, "name": "Deichmann", "neighborhoods": [], "longitude": 8.40208, "state": "BW", "stars": 2.0, "latitude": 49.0067, "attributes": {"Accepts Credit Cards": true, "Price Range": 1}, "type": "business"}
{"business_id": "0dLjH5zWnbJDukuM3iQYvg", "full_address": "Kaiserstr. 211\n76133 Karlsruhe", "hours": {}, "open": true, "categories": ["Fashion", "Shopping", "Shoe Stores"], "city": "Karlsruhe", "review_count": 9, "name": "Humanic Filiale", "neighborhoods": [], "longitude": 8.3958862, "state": "BW", "stars": 3.5, "latitude": 49.0099485, "attributes": {"Accepts Credit Cards": true, "Price Range": 2}, "type": "business"}
{"business_id": "D37k9DjJeF5h1ibjkdNTOQ", "full_address": "Herrenstr. 20\n76133 Karlsruhe", "hours": {}, "open": true, "categories": ["Fashion", "Shopping", "Shoe Stores"], "city": "Karlsruhe", "review_count": 4, "name": "Sigrun Woehr", "neighborhoods": [], "longitude": 8.39885, "state": "BW", "stars": 5.0, "latitude": 49.0096, "attributes": {"Parking": {"garage": false, "validated": false, "street": false, "lot": false, "valet": false}, "Accepts Credit Cards": true, "Price Range": 3}, "type": "business"}
{"business_id": "y4Y_PFthmrdSZuJH6Jl9GQ", "full_address": "Kaiserstra\u00dfe 181\n76133 Karlsruhe", "hours": {}, "open": true, "categories": ["Sporting Goods", "Fashion", "Shopping", "Shoe Stores"], "city": "Karlsruhe", "review_count": 6, "name": "Foot Locker", "neighborhoods": [], "longitude": 8.3990525, "state": "BW", "stars": 4.0, "latitude": 49.0096384, "attributes": {"Wheelchair Accessible": true, "Price Range": 3}, "type": "business"}
{"business_id": "HgdywOlTmkSZ_7WM1foXQA", "full_address": "Kaiserstr. 217\n76133 Karlsruhe", "hours": {}, "open": true, "categories": ["Fashion", "Shopping", "Shoe Stores"], "city": "Karlsruhe", "review_count": 3, "name": "G\u00f6rtz 17", "neighborhoods": [], "longitude": 8.39476, "state": "BW", "stars": 2.5, "latitude": 49.0097, "attributes": {"Price Range": 3}, "type": "business"}
{"business_id": "D2LF87_v_nC4sK7ZAAmQkw", "full_address": "Ettlinger-Tor-Platz 1\n76133 Karlsruhe", "hours": {}, "open": true, "categories": ["Fashion", "Shopping", "Shoe Stores"], "city": "Karlsruhe", "review_count": 3, "name": "Deichmann", "neighborhoods": [], "longitude": 8.40208, "state": "BW", "stars": 2.0, "latitude": 49.0067, "attributes": {"Accepts Credit Cards": true, "Price Range": 1}, "type": "business"}
{"business_id": "0dLjH5zWnbJDukuM3iQYvg", "full_address": "Kaiserstr. 211\n76133 Karlsruhe", "hours": {}, "open": true, "categories": ["Fashion", "Shopping", "Shoe Stores"], "city": "Karlsruhe", "review_count": 9, "name": "Humanic Filiale", "neighborhoods": [], "longitude": 8.3958862, "state": "BW", "stars": 3.5, "latitude": 49.0099485, "attributes": {"Accepts Credit Cards": true, "Price Range": 2}, "type": "business"}
