{"business_id": "VBKXWU30nlsj7ivKBlvq6w", "full_address": "Kaiserstr. 78\n76133 Karlsruhe", "hours": {}, "open": true, "categories": ["Hair Salons", "Beauty & Spas"], "city": "Karlsruhe", "review_count": 3, "name": "Friseur am Marktplatz Sigrid Merz", "neighborhoods": [], "longitude": 8.36587, "state": "BW", "stars": 3.5, "latitude": 49.0115, "attributes": {}, "type": "business"}
{"business_id": "ktQpBOGvDKfM0-KRCY21aA", "full_address": "Mathystr. 7\n76133 Karlsruhe", "hours": {}, "open": true, "categories": ["Hair Salons", "Hair Stylists", "Beauty & Spas"], "city": "Karlsruhe", "review_count": 21, "name": "Colling & Friends", "neighborhoods": [], "longitude": 8.39548, "state": "BW", "stars": 4.5, "latitude": 49.0023, "attributes": {"Parking": {"garage": false, "validated": false, "street": false, "lot": false, "valet": false}, "Good for Kids": false, "Accepts Credit Cards": false, "Wheelchair Accessible": true, "Price Range": 3}, "type": "business"}
{"business_id": "dMC3AIQ23lDypgkMI1gM7Q", "full_address": "Putlitzstr. 26\n76137 Karlsruhe", "hours": {}, "open": true, "categories": ["Hair Salons", "Hair Stylists", "Beauty & Spas"], "city": "Karlsruhe", "review_count": 5, "name": "f\u00f6n hair friends", "neighborhoods": [], "longitude": 8.38685, "state": "BW", "stars": 3.0, "latitude": 49.0033, "attributes": {"Price Range": 4, "Parking": {"garage": false, "street": false, "validated": false, "lot": false, "valet": false}, "By Appointment Only": true, "Accepts Credit Cards": true, "Good for Kids": true, "Wheelchair Accessible": false}, "type": "business"}
{"business_id": "X3Tkf5L3966mwPL_FJ5d4g", "full_address": "Z\u00e4hringerstr. 47\n76133 Karlsruhe", "hours": {}, "open": true, "categories": ["Hair Salons", "Shopping", "Cosmetics & Beauty Supply", "Beauty & Spas"], "city": "Karlsruhe", "review_count": 3, "name": "Szenarium", "neighborhoods": [], "longitude": 8.40762, "state": "BW", "stars": 4.0, "latitude": 49.0088, "attributes": {"Accepts Credit Cards": false, "Wheelchair Accessible": true, "Price Range": 3}, "type": "business"}
{"business_id": "wIing_zr1975f75Joqs7Cg", "full_address": "Herrenstr. 25\n76133 Karlsruhe", "hours": {"Friday": {"close": "19:30", "open": "09:00"}, "Tuesday": {"close": "19:30", "open": "09:00"}, "Thursday": {"close": "19:30", "open": "09:00"}, "Wednesday": {"close": "19:00", "open": "09:30"}, "Monday": {"close": "18:30", "open": "09:30"}}, "open": true, "categories": ["Hair Salons", "Beauty & Spas"], "city": "Karlsruhe", "review_count": 12, "name": "mod's hair", "neighborhoods": [], "longitude": 8.3979757, "state": "BW", "stars": 3.5, "latitude": 49.0084435, "attributes": {"By Appointment Only": true, "Good for Kids": true, "Price Range": 3}, "type": "business"}
{"business_id": "dSaFXpDRwbL-YAbJFoe7Ag", "full_address": "Douglasstr. 15\n76133 Karlsruhe", "hours": {"Tuesday": {"close": "19:00", "open": "09:00"}, "Friday": {"close": "19:00", "open": "09:00"}, "Wednesday": {"close": "19:00", "open": "09:00"}, "Thursday": {"close": "19:00", "open": "09:00"}}, "open": true, "categories": ["Hair Salons", "Beauty & Spas"], "city": "Karlsruhe", "review_count": 11, "name": "Biosthetique Friseur ScherundKamm Eric Schneider", "neighborhoods": [], "longitude": 8.3936, "state": "BW", "stars": 4.5, "latitude": 49.0103, "attributes": {"Parking": {"garage": false, "validated": false, "street": false, "lot": false, "valet": false}, "Accepts Credit Cards": true, "Price Range": 2}, "type": "business"}
{"business_id": "7NGxiZ5ya3FYIncTCU4jIA", "full_address": "Kriegsstra\u00dfe 5\nBeim Renaissance Hotel\n76131 Karlsruhe", "hours": {}, "open": true, "categories": ["Hair Salons", "Food", "Grocery", "Beauty & Spas"], "city": "Karlsruhe", "review_count": 7, "name": "Erna", "neighborhoods": [], "longitude": 8.4303821, "state": "BW", "stars": 4.5, "latitude": 49.0116951, "attributes": {"Parking": {"garage": false, "validated": false, "street": false, "lot": false, "valet": false}, "Accepts Credit Cards": false, "Wheelchair Accessible": true, "Price Range": 3}, "type": "business"}
{"business_id": "pK-tkeJh-nc37duo9Hg8xw", "full_address": "Schillerstra\u00dfe 31\n76137 Karlsruhe", "hours": {}, "open": true, "categories": ["Hair Salons", "Hair Stylists", "Beauty & Spas"], "city": "Karlsruhe", "review_count": 4, "name": "The Hair Cafe Thc", "neighborhoods": [], "longitude": 8.3796933, "state": "BW", "stars": 5.0, "latitude": 49.0086495, "attributes": {"Parking": {"garage": false, "validated": false, "street": false, "lot": false, "valet": false}, "Wheelchair Accessible": false, "Price Range": 3}, "type": "business"}
{"business_id": "8E-1IU5PdnuitFwffFF0Wg", "full_address": "sophienstra\u00dfe 99\nEingang Scheffelstra\u00dfe\n76135 Karlsruhe", "hours": {"Tuesday": {"close": "19:30", "open": "09:00"}, "Friday": {"close": "19:30", "open": "09:00"}, "Wednesday": {"close": "19:30", "open": "09:00"}, "Thursday": {"close": "19:30", "open": "09:00"}, "Saturday": {"close": "14:00", "open": "10:00"}}, "open": true, "categories": ["Hair Salons", "Hair Stylists", "Beauty & Spas"], "city": "Karlsruhe", "review_count": 3, "name": "spliss - der fris\u00f6r", "neighborhoods": [], "longitude": 8.3814841, "state": "BW", "stars": 5.0, "latitude": 49.0079468, "attributes": {}, "type": "business"}
{"business_id": "MozQ5aTlhJwaI2OjeMM7EQ", "full_address": "Herrenstr. 66\n76133 Karlsruhe", "hours": {}, "open": true, "categories": ["Hair Salons", "Hair Stylists", "Beauty & Spas"], "city": "Karlsruhe", "review_count": 4, "name": "Die Fris\u00f6re Enrico und Beata", "neighborhoods": [], "longitude": 8.39551, "state": "BW", "stars": 4.5, "latitude": 49.0065, "attributes": {"Price Range": 3}, "type": "business"}
{"business_id": "Vu5RhYLqBigUSXHrQbdpTQ", "full_address": "Kaiserstr. 67\n76131 Karlsruhe", "hours": {}, "open": true, "categories": ["Hair Salons", "Beauty & Spas"], "city": "Karlsruhe", "review_count": 12, "name": "Friseurstyle Forum", "neighborhoods": [], "longitude": 8.41089, "state": "BW", "stars": 2.5, "latitude": 49.0092, "attributes": {"By Appointment Only": false, "Parking": {"garage": false, "validated": false, "street": false, "lot": false, "valet": false}, "Accepts Credit Cards": false, "Good for Kids": true, "Price Range": 1}, "type": "business"}
{"business_id": "QAeEEK-XQlpWQl6LJYOtnA", "full_address": "Karlstr. 40\n76133 Karlsruhe", "hours": {"Monday": {"close": "19:30", "open": "09:00"}, "Tuesday": {"close": "19:30", "open": "09:00"}, "Friday": {"close": "19:30", "open": "09:00"}, "Wednesday": {"close": "19:30", "open": "09:00"}, "Thursday": {"close": "19:30", "open": "09:00"}, "Saturday": {"close": "19:30", "open": "09:00"}}, "open": true, "categories": ["Hair Salons", "Beauty & Spas"], "city": "Karlsruhe", "review_count": 3, "name": "Mewan Friseurstudio", "neighborhoods": [], "longitude": 8.3944912, "state": "BW", "stars": 5.0, "latitude": 49.006398, "attributes": {"Price Range": 1}, "type": "business"}
{"business_id": "M5qaph3f4UYT13TVbXiq3Q", "full_address": "Karlstra\u00dfe 21\n76133 Karlsruhe", "hours": {}, "open": true, "categories": ["Hair Salons", "Beauty & Spas"], "city": "Karlsruhe", "review_count": 4, "name": "C&M Friseur", "neighborhoods": [], "longitude": 8.3953327, "state": "BW", "stars": 2.5, "latitude": 49.0092009, "attributes": {"Wheelchair Accessible": false, "Price Range": 1}, "type": "business"}
{"business_id": "n5EMZZ4EfnPIgCfN3z4sfQ", "full_address": "Sophienstr. 68\n76133 Karlsruhe", "hours": {"Tuesday": {"close": "19:00", "open": "10:00"}, "Friday": {"close": "19:00", "open": "10:00"}, "Wednesday": {"close": "19:00", "open": "10:00"}, "Thursday": {"close": "19:00", "open": "10:00"}, "Saturday": {"close": "14:00", "open": "09:00"}}, "open": true, "categories": ["Hair Salons", "Beauty & Spas"], "city": "Karlsruhe", "review_count": 6, "name": "Kamm'In", "neighborhoods": [], "longitude": 8.38672, "state": "BW", "stars": 4.5, "latitude": 49.0078, "attributes": {"Price Range": 3}, "type": "business"}
{"business_id": "GLZnniRlevgOYkdLoVze-A", "full_address": "Leopoldstr. 56\n76275 Ettlingen", "hours": {}, "open": true, "categories": ["Hair Salons", "Hair Stylists", "Beauty & Spas"], "city": "Ettlingen", "review_count": 5, "name": "Hairkiller", "neighborhoods": [], "longitude": 8.4089486, "state": "BW", "stars": 5.0, "latitude": 48.9397829, "attributes": {"Parking": {"garage": false, "validated": false, "street": false, "lot": false, "valet": false}, "Accepts Credit Cards": false, "Wheelchair Accessible": false, "Price Range": 1}, "type": "business"}
{"business_id": "WF050Paitkk6zu1nYvxnfQ", "full_address": "R\u00fcppurer Stra\u00dfe 132\n76137 Karlsruhe", "hours": {}, "open": true, "categories": ["Hair Salons", "Hair Stylists", "Beauty & Spas"], "city": "Karlsruhe", "review_count": 5, "name": "dierollendenfriseure.de", "neighborhoods": [], "longitude": 8.4054053, "state": "BW", "stars": 5.0, "latitude": 48.9960045, "attributes": {"Accepts Credit Cards": true, "Wheelchair Accessible": true, "Price Range": 2}, "type": "business"}
{"business_id": "OSqi_tZwydODzqff2LCLtQ", "full_address": "Kaiserstr. 38\n76133 Karlsruhe", "hours": {}, "open": true, "categories": ["Hair Salons", "Hair Stylists", "Beauty & Spas"], "city": "Karlsruhe", "review_count": 9, "name": "Hairkiller", "neighborhoods": [], "longitude": 8.40767, "state": "BW", "stars": 4.0, "latitude": 49.0096, "attributes": {"Good for Kids": true, "Price Range": 1}, "type": "business"}
{"business_id": "tFsknMJ5yAafN1tAcfMVKA", "full_address": "Amalienstr. 25A\n76133 Karlsruhe", "hours": {}, "open": true, "categories": ["Hair Salons", "Hair Stylists", "Beauty & Spas"], "city": "Karlsruhe", "review_count": 4, "name": "Salon Friseur Jung / Haircut", "neighborhoods": [], "longitude": 8.3941, "state": "BW", "stars": 4.5, "latitude": 49.0081, "attributes": {"By Appointment Only": false, "Good for Kids": true, "Parking": {"garage": false, "street": false, "validated": false, "lot": false, "valet": false}, "Wheelchair Accessible": true, "Price Range": 1}, "type": "business"}
{"business_id": "UX8ORZVzrGK8AfZpIBd82A", "full_address": "Sophienstra\u00dfe 232\n76185 Karlsruhe", "hours": {"Tuesday": {"close": "18:30", "open": "09:00"}, "Friday": {"close": "20:00", "open": "09:00"}, "Wednesday": {"close": "18:30", "open": "09:00"}, "Thursday": {"close": "18:30", "open": "09:00"}, "Saturday": {"close": "15:00", "open": "09:00"}}, "open": true, "categories": ["Hair Salons", "Hair Stylists", "Beauty & Spas"], "city": "Karlsruhe", "review_count": 3, "name": "Glatzenf\u00f6hner", "neighborhoods": [], "longitude": 8.3654629, "state": "BW", "stars": 3.5, "latitude": 49.0101799, "attributes": {"Price Range": 2}, "type": "business"}
{"business_id": "j-v-m38xQvnFtdGsm6GXkQ", "full_address": "Ebertstr. 4\n76137 Karlsruhe", "hours": {"Tuesday": {"close": "19:00", "open": "09:00"}, "Friday": {"close": "18:00", "open": "09:00"}, "Wednesday": {"close": "18:00", "open": "09:00"}, "Thursday": {"close": "22:00", "open": "09:30"}, "Saturday": {"close": "13:00", "open": "08:00"}}, "open": true, "categories": ["Hair Salons", "Beauty & Spas"], "city": "Karlsruhe", "review_count": 7, "name": "ATIC Friseure", "neighborhoods": [], "longitude": 8.3974989, "state": "BW", "stars": 4.5, "latitude": 48.9945138, "attributes": {}, "type": "business"}
{"business_id": "Gg5MtU-QEaeazysV3jmn3A", "full_address": "Waldstr. 41\n76133 Karlsruhe", "hours": {"Monday": {"close": "20:00", "open": "11:00"}, "Tuesday": {"close": "20:00", "open": "11:00"}, "Friday": {"close": "20:00", "open": "11:00"}, "Wednesday": {"close": "20:00", "open": "11:00"}, "Thursday": {"close": "20:00", "open": "11:00"}, "Saturday": {"close": "18:00", "open": "11:00"}}, "open": true, "categories": ["Hair Salons", "Beauty & Spas"], "city": "Karlsruhe", "review_count": 3, "name": "Unisex", "neighborhoods": [], "longitude": 8.3808372, "state": "BW", "stars": 2.0, "latitude": 49.0176507, "attributes": {"Accepts Credit Cards": true, "Price Range": 3}, "type": "business"}
{"business_id": "cHuREuonkS-83voJLeQdqw", "full_address": "Waldstr. 40a\n76133 Karlsruhe", "hours": {"Monday": {"close": "20:00", "open": "06:00"}, "Tuesday": {"close": "20:00", "open": "06:00"}, "Friday": {"close": "20:00", "open": "06:00"}, "Wednesday": {"close": "20:00", "open": "06:00"}, "Thursday": {"close": "20:00", "open": "06:00"}, "Saturday": {"close": "14:00", "open": "06:00"}}, "open": true, "categories": ["Hair Salons", "Beauty & Spas"], "city": "Karlsruhe", "review_count": 6, "name": "Friseur Erwin G\u00e4rtner", "neighborhoods": [], "longitude": 8.3951608, "state": "BW", "stars": 4.5, "latitude": 49.0087709, "attributes": {"Parking": {"garage": false, "street": true, "validated": false, "lot": false, "valet": false}, "Price Range": 2}, "type": "business"}
{"business_id": "S_N2AIRJLgv8MVNnwe40Qg", "full_address": "Ettlinger Tor Platz 1\n76133 Karlsruhe", "hours": {"Monday": {"close": "20:00", "open": "09:00"}, "Tuesday": {"close": "20:00", "open": "09:00"}, "Friday": {"close": "20:00", "open": "09:00"}, "Wednesday": {"close": "20:00", "open": "09:00"}, "Thursday": {"close": "22:00", "open": "09:00"}, "Saturday": {"close": "20:00", "open": "09:00"}}, "open": true, "categories": ["Hair Salons", "Beauty & Spas"], "city": "Karlsruhe", "review_count": 5, "name": "Keller Hair Company", "neighborhoods": [], "longitude": 8.40342, "state": "BW", "stars": 3.5, "latitude": 49.0056, "attributes": {"Price Range": 2}, "type": "business"}
{"business_id": "MEqB2Dve64rklDl9GE-kRg", "full_address": "Georg Friedrich Str. 25\n76131 Karlsruhe", "hours": {}, "open": true, "categories": ["Hair Salons", "Beauty & Spas"], "city": "Karlsruhe", "review_count": 3, "name": "Salon Georg Friedrich", "neighborhoods": [], "longitude": 8.42393, "state": "BW", "stars": 3.5, "latitude": 49.0079, "attributes": {"Price Range": 1}, "type": "business"}
{"business_id": "bemaKNgSiq2pWvfUCmK6Zw", "full_address": "ECE-Center-Ettlinger-Tor\n76133 Karlsruhe", "hours": {}, "open": true, "categories": ["Hair Salons", "Hair Stylists", "Beauty & Spas"], "city": "Karlsruhe", "review_count": 3, "name": "Hair 'N' More", "neighborhoods": [], "longitude": 8.40376, "state": "BW", "stars": 4.5, "latitude": 49.0081, "attributes": {"Parking": {"garage": false, "validated": false, "street": false, "lot": false, "valet": false}, "Accepts Credit Cards": true, "Wheelchair Accessible": true, "Price Range": 2}, "type": "business"}
{"business_id": "mMo3W7sBDKXdYeWVSeKqMw", "full_address": "Kreuzstr. 19\n76133 Karlsruhe", "hours": {}, "open": true, "categories": ["Hair Salons", "Hair Stylists", "Beauty & Spas"], "city": "Karlsruhe", "review_count": 5, "name": "Max Lui", "neighborhoods": [], "longitude": 8.40578, "state": "BW", "stars": 4.0, "latitude": 49.007, "attributes": {"Parking": {"garage": false, "street": false, "validated": false, "lot": false, "valet": false}, "Price Range": 3}, "type": "business"}
{"business_id": "VBKXWU30nlsj7ivKBlvq6w", "full_address": "Kaiserstr. 78\n76133 Karlsruhe", "hours": {}, "open": true, "categories": ["Hair Salons", "Beauty & Spas"], "city": "Karlsruhe", "review_count": 3, "name": "Friseur am Marktplatz Sigrid Merz", "neighborhoods": [], "longitude": 8.36587, "state": "BW", "stars": 3.5, "latitude": 49.0115, "attributes": {}, "type": "business"}
{"business_id": "ktQpBOGvDKfM0-KRCY21aA", "full_address": "Mathystr. 7\n76133 Karlsruhe", "hours": {}, "open": true, "categories": ["Hair Salons", "Hair Stylists", "Beauty & Spas"], "city": "Karlsruhe", "review_count": 21, "name": "Colling & Friends", "neighborhoods": [], "longitude": 8.39548, "state": "BW", "stars": 4.5, "latitude": 49.0023, "attributes": {"Parking": {"garage": false, "validated": false, "street": false, "lot": false, "valet": false}, "Good for Kids": false, "Accepts Credit Cards": false, "Wheelchair Accessible": true, "Price Range": 3}, "type": "business"}
{"business_id": "dMC3AIQ23lDypgkMI1gM7Q", "full_address": "Putlitzstr. 26\n76137 Karlsruhe", "hours": {}, "open": true, "categories": ["Hair Salons", "Hair Stylists", "Beauty & Spas"], "city": "Karlsruhe", "review_count": 5, "name": "f\u00f6n hair friends", "neighborhoods": [], "longitude": 8.38685, "state": "BW", "stars": 3.0, "latitude": 49.0033, "attributes": {"Price Range": 4, "Parking": {"garage": false, "street": false, "validated": false, "lot": false, "valet": false}, "By Appointment Only": true, "Accepts Credit Cards": true, "Good for Kids": true, "Wheelchair Accessible": false}, "type": "business"}
{"business_id": "X3Tkf5L3966mwPL_FJ5d4g", "full_address": "Z\u00e4hringerstr. 47\n76133 Karlsruhe", "hours": {}, "open": true, "categories": ["Hair Salons", "Shopping", "Cosmetics & Beauty Supply", "Beauty & Spas"], "city": "Karlsruhe", "review_count": 3, "name": "Szenarium", "neighborhoods": [], "longitude": 8.40762, "state": "BW", "stars": 4.0, "latitude": 49.0088, "attributes": {"Accepts Credit Cards": false, "Wheelchair Accessible": true, "Price Range": 3}, "type": "business"}
{"business_id": "wIing_zr1975f75Joqs7Cg", "full_address": "Herrenstr. 25\n76133 Karlsruhe", "hours": {"Friday": {"close": "19:30", "open": "09:00"}, "Tuesday": {"close": "19:30", "open": "09:00"}, "Thursday": {"close": "19:30", "open": "09:00"}, "Wednesday": {"close": "19:00", "open": "09:30"}, "Monday": {"close": "18:30", "open": "09:30"}}, "open": true, "categories": ["Hair Salons", "Beauty & Spas"], "city": "Karlsruhe", "review_count": 12, "name": "mod's hair", "neighborhoods": [], "longitude": 8.3979757, "state": "BW", "stars": 3.5, "latitude": 49.0084435, "attributes": {"By Appointment Only": true, "Good for Kids": true, "Price Range": 3}, "type": "business"}
{"business_id": "dSaFXpDRwbL-YAbJFoe7Ag", "full_address": "Douglasstr. 15\n76133 Karlsruhe", "hours": {"Tuesday": {"close": "19:00", "open": "09:00"}, "Friday": {"close": "19:00", "open": "09:00"}, "Wednesday": {"close": "19:00", "open": "09:00"}, "Thursday": {"close": "19:00", "open": "09:00"}}, "open": true, "categories": ["Hair Salons", "Beauty & Spas"], "city": "Karlsruhe", "review_count": 11, "name": "Biosthetique Friseur ScherundKamm Eric Schneider", "neighborhoods": [], "longitude": 8.3936, "state": "BW", "stars": 4.5, "latitude": 49.0103, "attributes": {"Parking": {"garage": false, "validated": false, "street": false, "lot": false, "valet": false}, "Accepts Credit Cards": true, "Price Range": 2}, "type": "business"}
{"business_id": "7NGxiZ5ya3FYIncTCU4jIA", "full_address": "Kriegsstra\u00dfe 5\nBeim Renaissance Hotel\n76131 Karlsruhe", "hours": {}, "open": true, "categories": ["Hair Salons", "Food", "Grocery", "Beauty & Spas"], "city": "Karlsruhe", "review_count": 7, "name": "Erna", "neighborhoods": [], "longitude": 8.4303821, "state": "BW", "stars": 4.5, "latitude": 49.0116951, "attributes": {"Parking": {"garage": false, "validated": false, "street": false, "lot": false, "valet": false}, "Accepts Credit Cards": false, "Wheelchair Accessible": true, "Price Range": 3}, "type": "business"}
{"business_id": "pK-tkeJh-nc37duo9Hg8xw", "full_address": "Schillerstra\u00dfe 31\n76137 Karlsruhe", "hours": {}, "open": true, "categories": ["Hair Salons", "Hair Stylists", "Beauty & Spas"], "city": "Karlsruhe", "review_count": 4, "name": "The Hair Cafe Thc", "neighborhoods": [], "longitude": 8.3796933, "state": "BW", "stars": 5.0, "latitude": 49.0086495, "attributes": {"Parking": {"garage": false, "validated": false, "street": false, "lot": false, "valet": false}, "Wheelchair Accessible": false, "Price Range": 3}, "type": "business"}
{"business_id": "8E-1IU5PdnuitFwffFF0Wg", "full_address": "sophienstra\u00dfe 99\nEingang Scheffelstra\u00dfe\n76135 Karlsruhe", "hours": {"Tuesday": {"close": "19:30", "open": "09:00"}, "Friday": {"close": "19:30", "open": "09:00"}, "Wednesday": {"close": "19:30", "open": "09:00"}, "Thursday": {"close": "19:30", "open": "09:00"}, "Saturday": {"close": "14:00", "open": "10:00"}}, "open": true, "categories": ["Hair Salons", "Hair Stylists", "Beauty & Spas"], "city": "Karlsruhe", "review_count": 3, "name": "spliss - der fris\u00f6r", "neighborhoods": [], "longitude": 8.3814841, "state": "BW", "stars": 5.0, "latitude": 49.0079468, "attributes": {}, "type": "business"}
{"business_id": "MozQ5aTlhJwaI2OjeMM7EQ", "full_address": "Herrenstr. 66\n76133 Karlsruhe", "hours": {}, "open": true, "categories": ["Hair Salons", "Hair Stylists", "Beauty & Spas"], "city": "Karlsruhe", "review_count": 4, "name": "Die Fris\u00f6re Enrico und Beata", "neighborhoods": [], "longitude": 8.39551, "state": "BW", "stars": 4.5, "latitude": 49.0065, "attributes": {"Price Range": 3}, "type": "business"}
{"business_id": "Vu5RhYLqBigUSXHrQbdpTQ", "full_address": "Kaiserstr. 67\n76131 Karlsruhe", "hours": {}, "open": true, "categories": ["Hair Salons", "Beauty & Spas"], "city": "Karlsruhe", "review_count": 12, "name": "Friseurstyle Forum", "neighborhoods": [], "longitude": 8.41089, "state": "BW", "stars": 2.5, "latitude": 49.0092, "attributes": {"By Appointment Only": false, "Parking": {"garage": false, "validated": false, "street": false, "lot": false, "valet": false}, "Accepts Credit Cards": false, "Good for Kids": true, "Price Range": 1}, "type": "business"}
{"business_id": "QAeEEK-XQlpWQl6LJYOtnA", "full_address": "Karlstr. 40\n76133 Karlsruhe", "hours": {"Monday": {"close": "19:30", "open": "09:00"}, "Tuesday": {"close": "19:30", "open": "09:00"}, "Friday": {"close": "19:30", "open": "09:00"}, "Wednesday": {"close": "19:30", "open": "09:00"}, "Thursday": {"close": "19:30", "open": "09:00"}, "Saturday": {"close": "19:30", "open": "09:00"}}, "open": true, "categories": ["Hair Salons", "Beauty & Spas"], "city": "Karlsruhe", "review_count": 3, "name": "Mewan Friseurstudio", "neighborhoods": [], "longitude": 8.3944912, "state": "BW", "stars": 5.0, "latitude": 49.006398, "attributes": {"Price Range": 1}, "type": "business"}
{"business_id": "M5qaph3f4UYT13TVbXiq3Q", "full_address": "Karlstra\u00dfe 21\n76133 Karlsruhe", "hours": {}, "open": true, "categories": ["Hair Salons", "Beauty & Spas"], "city": "Karlsruhe", "review_count": 4, "name": "C&M Friseur", "neighborhoods": [], "longitude": 8.3953327, "state": "BW", "stars": 2.5, "latitude": 49.0092009, "attributes": {"Wheelchair Accessible": false, "Price Range": 1}, "type": "business"}
{"business_id": "n5EMZZ4EfnPIgCfN3z4sfQ", "full_address": "Sophienstr. 68\n76133 Karlsruhe", "hours": {"Tuesday": {"close": "19:00", "open": "10:00"}, "Friday": {"close": "19:00", "open": "10:00"}, "Wednesday": {"close": "19:00", "open": "10:00"}, "Thursday": {"close": "19:00", "open": "10:00"}, "Saturday": {"close": "14:00", "open": "09:00"}}, "open": true, "categories": ["Hair Salons", "Beauty & Spas"], "city": "Karlsruhe", "review_count": 6, "name": "Kamm'In", "neighborhoods": [], "longitude": 8.38672, "state": "BW", "stars": 4.5, "latitude": 49.0078, "attributes": {"Price Range": 3}, "type": "business"}
{"business_id": "GLZnniRlevgOYkdLoVze-A", "full_address": "Leopoldstr. 56\n76275 Ettlingen", "hours": {}, "open": true, "categories": ["Hair Salons", "Hair Stylists", "Beauty & Spas"], "city": "Ettlingen", "review_count": 5, "name": "Hairkiller", "neighborhoods": [], "longitude": 8.4089486, "state": "BW", "stars": 5.0, "latitude": 48.9397829, "attributes": {"Parking": {"garage": false, "validated": false, "street": false, "lot": false, "valet": false}, "Accepts Credit Cards": false, "Wheelchair Accessible": false, "Price Range": 1}, "type": "business"}
{"business_id": "WF050Paitkk6zu1nYvxnfQ", "full_address": "R\u00fcppurer Stra\u00dfe 132\n76137 Karlsruhe", "hours": {}, "open": true, "categories": ["Hair Salons", "Hair Stylists", "Beauty & Spas"], "city": "Karlsruhe", "review_count": 5, "name": "dierollendenfriseure.de", "neighborhoods": [], "longitude": 8.4054053, "state": "BW", "stars": 5.0, "latitude": 48.9960045, "attributes": {"Accepts Credit Cards": true, "Wheelchair Accessible": true, "Price Range": 2}, "type": "business"}
{"business_id": "OSqi_tZwydODzqff2LCLtQ", "full_address": "Kaiserstr. 38\n76133 Karlsruhe", "hours": {}, "open": true, "categories": ["Hair Salons", "Hair Stylists", "Beauty & Spas"], "city": "Karlsruhe", "review_count": 9, "name": "Hairkiller", "neighborhoods": [], "longitude": 8.40767, "state": "BW", "stars": 4.0, "latitude": 49.0096, "attributes": {"Good for Kids": true, "Price Range": 1}, "type": "business"}
{"business_id": "tFsknMJ5yAafN1tAcfMVKA", "full_address": "Amalienstr. 25A\n76133 Karlsruhe", "hours": {}, "open": true, "categories": ["Hair Salons", "Hair Stylists", "Beauty & Spas"], "city": "Karlsruhe", "review_count": 4, "name": "Salon Friseur Jung / Haircut", "neighborhoods": [], "longitude": 8.3941, "state": "BW", "stars": 4.5, "latitude": 49.0081, "attributes": {"By Appointment Only": false, "Good for Kids": true, "Parking": {"garage": false, "street": false, "validated": false, "lot": false, "valet": false}, "Wheelchair Accessible": true, "Price Range": 1}, "type": "business"}
{"business_id": "UX8ORZVzrGK8AfZpIBd82A", "full_address": "Sophienstra\u00dfe 232\n76185 Karlsruhe", "hours": {"Tuesday": {"close": "18:30", "open": "09:00"}, "Friday": {"close": "20:00", "open": "09:00"}, "Wednesday": {"close": "18:30", "open": "09:00"}, "Thursday": {"close": "18:30", "open": "09:00"}, "Saturday": {"close": "15:00", "open": "09:00"}}, "open": true, "categories": ["Hair Salons", "Hair Stylists", "Beauty & Spas"], "city": "Karlsruhe", "review_count": 3, "name": "Glatzenf\u00f6hner", "neighborhoods": [], "longitude": 8.3654629, "state": "BW", "stars": 3.5, "latitude": 49.0101799, "attributes": {"Price Range": 2}, "type": "business"}
{"business_id": "j-v-m38xQvnFtdGsm6GXkQ", "full_address": "Ebertstr. 4\n76137 Karlsruhe", "hours": {"Tuesday": {"close": "19:00", "open": "09:00"}, "Friday": {"close": "18:00", "open": "09:00"}, "Wednesday": {"close": "18:00", "open": "09:00"}, "Thursday": {"close": "22:00", "open": "09:30"}, "Saturday": {"close": "13:00", "open": "08:00"}}, "open": true, "categories": ["Hair Salons", "Beauty & Spas"], "city": "Karlsruhe", "review_count": 7, "name": "ATIC Friseure", "neighborhoods": [], "longitude": 8.3974989, "state": "BW", "stars": 4.5, "latitude": 48.9945138, "attributes": {}, "type": "business"}
{"business_id": "Gg5MtU-QEaeazysV3jmn3A", "full_address": "Waldstr. 41\n76133 Karlsruhe", "hours": {"Monday": {"close": "20:00", "open": "11:00"}, "Tuesday": {"close": "20:00", "open": "11:00"}, "Friday": {"close": "20:00", "open": "11:00"}, "Wednesday": {"close": "20:00", "open": "11:00"}, "Thursday": {"close": "20:00", "open": "11:00"}, "Saturday": {"close": "18:00", "open": "11:00"}}, "open": true, "categories": ["Hair Salons", "Beauty & Spas"], "city": "Karlsruhe", "review_count": 3, "name": "Unisex", "neighborhoods": [], "longitude": 8.3808372, "state": "BW", "stars": 2.0, "latitude": 49.0176507, "attributes": {"Accepts Credit Cards": true, "Price Range": 3}, "type": "business"}
{"business_id": "cHuREuonkS-83voJLeQdqw", "full_address": "Waldstr. 40a\n76133 Karlsruhe", "hours": {"Monday": {"close": "20:00", "open": "06:00"}, "Tuesday": {"close": "20:00", "open": "06:00"}, "Friday": {"close": "20:00", "open": "06:00"}, "Wednesday": {"close": "20:00", "open": "06:00"}, "Thursday": {"close": "20:00", "open": "06:00"}, "Saturday": {"close": "14:00", "open": "06:00"}}, "open": true, "categories": ["Hair Salons", "Beauty & Spas"], "city": "Karlsruhe", "review_count": 6, "name": "Friseur Erwin G\u00e4rtner", "neighborhoods": [], "longitude": 8.3951608, "state": "BW", "stars": 4.5, "latitude": 49.0087709, "attributes": {"Parking": {"garage": false, "street": true, "validated": false, "lot": false, "valet": false}, "Price Range": 2}, "type": "business"}
{"business_id": "S_N2AIRJLgv8MVNnwe40Qg", "full_address": "Ettlinger Tor Platz 1\n76133 Karlsruhe", "hours": {"Monday": {"close": "20:00", "open": "09:00"}, "Tuesday": {"close": "20:00", "open": "09:00"}, "Friday": {"close": "20:00", "open": "09:00"}, "Wednesday": {"close": "20:00", "open": "09:00"}, "Thursday": {"close": "22:00", "open": "09:00"}, "Saturday": {"close": "20:00", "open": "09:00"}}, "open": true, "categories": ["Hair Salons", "Beauty & Spas"], "city": "Karlsruhe", "review_count": 5, "name": "Keller Hair Company", "neighborhoods": [], "longitude": 8.40342, "state": "BW", "stars": 3.5, "latitude": 49.0056, "attributes": {"Price Range": 2}, "type": "business"}
{"business_id": "MEqB2Dve64rklDl9GE-kRg", "full_address": "Georg Friedrich Str. 25\n76131 Karlsruhe", "hours": {}, "open": true, "categories": ["Hair Salons", "Beauty & Spas"], "city": "Karlsruhe", "review_count": 3, "name": "Salon Georg Friedrich", "neighborhoods": [], "longitude": 8.42393, "state": "BW", "stars": 3.5, "latitude": 49.0079, "attributes": {"Price Range": 1}, "type": "business"}
{"business_id": "bemaKNgSiq2pWvfUCmK6Zw", "full_address": "ECE-Center-Ettlinger-Tor\n76133 Karlsruhe", "hours": {}, "open": true, "categories": ["Hair Salons", "Hair Stylists", "Beauty & Spas"], "city": "Karlsruhe", "review_count": 3, "name": "Hair 'N' More", "neighborhoods": [], "longitude": 8.40376, "state": "BW", "stars": 4.5, "latitude": 49.0081, "attributes": {"Parking": {"garage": false, "validated": false, "street": false, "lot": false, "valet": false}, "Accepts Credit Cards": true, "Wheelchair Accessible": true, "Price Range": 2}, "type": "business"}
{"business_id": "mMo3W7sBDKXdYeWVSeKqMw", "full_address": "Kreuzstr. 19\n76133 Karlsruhe", "hours": {}, "open": true, "categories": ["Hair Salons", "Hair Stylists", "Beauty & Spas"], "city": "Karlsruhe", "review_count": 5, "name": "Max Lui", "neighborhoods": [], "longitude": 8.40578, "state": "BW", "stars": 4.0, "latitude": 49.007, "attributes": {"Parking": {"garage": false, "street": false, "validated": false, "lot": false, "valet": false}, "Price Range": 3}, "type": "business"}
{"business_id": "VBKXWU30nlsj7ivKBlvq6w", "full_address": "Kaiserstr. 78\n76133 Karlsruhe", "hours": {}, "open": true, "categories": ["Hair Salons", "Beauty & Spas"], "city": "Karlsruhe", "review_count": 3, "name": "Friseur am Marktplatz Sigrid Merz", "neighborhoods": [], "longitude": 8.36587, "state": "BW", "stars": 3.5, "latitude": 49.0115, "attributes": {}, "type": "business"}
{"business_id": "ktQpBOGvDKfM0-KRCY21aA", "full_address": "Mathystr. 7\n76133 Karlsruhe", "hours": {}, "open": true, "categories": ["Hair Salons", "Hair Stylists", "Beauty & Spas"], "city": "Karlsruhe", "review_count": 21, "name": "Colling & Friends", "neighborhoods": [], "longitude": 8.39548, "state": "BW", "stars": 4.5, "latitude": 49.0023, "attributes": {"Parking": {"garage": false, "validated": false, "street": false, "lot": false, "valet": false}, "Good for Kids": false, "Accepts Credit Cards": false, "Wheelchair Accessible": true, "Price Range": 3}, "type": "business"}
{"business_id": "dMC3AIQ23lDypgkMI1gM7Q", "full_address": "Putlitzstr. 26\n76137 Karlsruhe", "hours": {}, "open": true, "categories": ["Hair Salons", "Hair Stylists", "Beauty & Spas"], "city": "Karlsruhe", "review_count": 5, "name": "f\u00f6n hair friends", "neighborhoods": [], "longitude": 8.38685, "state": "BW", "stars": 3.0, "latitude": 49.0033, "attributes": {"Price Range": 4, "Parking": {"garage": false, "street": false, "validated": false, "lot": false, "valet": false}, "By Appointment Only": true, "Accepts Credit Cards": true, "Good for Kids": true, "Wheelchair Accessible": false}, "type": "business"}
{"business_id": "X3Tkf5L3966mwPL_FJ5d4g", "full_address": "Z\u00e4hringerstr. 47\n76133 Karlsruhe", "hours": {}, "open": true, "categories": ["Hair Salons", "Shopping", "Cosmetics & Beauty Supply", "Beauty & Spas"], "city": "Karlsruhe", "review_count": 3, "name": "Szenarium", "neighborhoods": [], "longitude": 8.40762, "state": "BW", "stars": 4.0, "latitude": 49.0088, "attributes": {"Accepts Credit Cards": false, "Wheelchair Accessible": true, "Price Range": 3}, "type": "business"}
{"business_id": "wIing_zr1975f75Joqs7Cg", "full_address": "Herrenstr. 25\n76133 Karlsruhe", "hours": {"Friday": {"close": "19:30", "open": "09:00"}, "Tuesday": {"close": "19:30", "open": "09:00"}, "Thursday": {"close": "19:30", "open": "09:00"}, "Wednesday": {"close": "19:00", "open": "09:30"}, "Monday": {"close": "18:30", "open": "09:30"}}, "open": true, "categories": ["Hair Salons", "Beauty & Spas"], "city": "Karlsruhe", "review_count": 12, "name": "mod's hair", "neighborhoods": [], "longitude": 8.3979757, "state": "BW", "stars": 3.5, "latitude": 49.0084435, "attributes": {"By Appointment Only": true, "Good for Kids": true, "Price Range": 3}, "type": "business"}
{"business_id": "dSaFXpDRwbL-YAbJFoe7Ag", "full_address": "Douglasstr. 15\n76133 Karlsruhe", "hours": {"Tuesday": {"close": "19:00", "open": "09:00"}, "Friday": {"close": "19:00", "open": "09:00"}, "Wednesday": {"close": "19:00", "open": "09:00"}, "Thursday": {"close": "19:00", "open": "09:00"}}, "open": true, "categories": ["Hair Salons", "Beauty & Spas"], "city": "Karlsruhe", "review_count": 11, "name": "Biosthetique Friseur ScherundKamm Eric Schneider", "neighborhoods": [], "longitude": 8.3936, "state": "BW", "stars": 4.5, "latitude": 49.0103, "attributes": {"Parking": {"garage": false, "validated": false, "street": false, "lot": false, "valet": false}, "Accepts Credit Cards": true, "Price Range": 2}, "type": "business"}
{"business_id": "7NGxiZ5ya3FYIncTCU4jIA", "full_address": "Kriegsstra\u00dfe 5\nBeim Renaissance Hotel\n76131 Karlsruhe", "hours": {}, "open": true, "categories": ["Hair Salons", "Food", "Grocery", "Beauty & Spas"], "city": "Karlsruhe", "review_count": 7, "name": "Erna", "neighborhoods": [], "longitude": 8.4303821, "state": "BW", "stars": 4.5, "latitude": 49.0116951, "attributes": {"Parking": {"garage": false, "validated": false, "street": false, "lot": false, "valet": false}, "Accepts Credit Cards": false, "Wheelchair Accessible": true, "Price Range": 3}, "type": "business"}
{"business_id": "pK-tkeJh-nc37duo9Hg8xw", "full_address": "Schillerstra\u00dfe 31\n76137 Karlsruhe", "hours": {}, "open": true, "categories": ["Hair Salons", "Hair Stylists", "Beauty & Spas"], "city": "Karlsruhe", "review_count": 4, "name": "The Hair Cafe Thc", "neighborhoods": [], "longitude": 8.3796933, "state": "BW", "stars": 5.0, "latitude": 49.0086495, "attributes": {"Parking": {"garage": false, "validated": false, "street": false, "lot": false, "valet": false}, "Wheelchair Accessible": false, "Price Range": 3}, "type": "business"}
{"business_id": "8E-1IU5PdnuitFwffFF0Wg", "full_address": "sophienstra\u00dfe 99\nEingang Scheffelstra\u00dfe\n76135 Karlsruhe", "hours": {"Tuesday": {"close": "19:30", "open": "09:00"}, "Friday": {"close": "19:30", "open": "09:00"}, "Wednesday": {"close": "19:30", "open": "09:00"}, "Thursday": {"close": "19:30", "open": "09:00"}, "Saturday": {"close": "14:00", "open": "10:00"}}, "open": true, "categories": ["Hair Salons", "Hair Stylists", "Beauty & Spas"], "city": "Karlsruhe", "review_count": 3, "name": "spliss - der fris\u00f6r", "neighborhoods": [], "longitude": 8.3814841, "state": "BW", "stars": 5.0, "latitude": 49.0079468, "attributes": {}, "type": "business"}
{"business_id": "MozQ5aTlhJwaI2OjeMM7EQ", "full_address": "Herrenstr. 66\n76133 Karlsruhe", "hours": {}, "open": true, "categories": ["Hair Salons", "Hair Stylists", "Beauty & Spas"], "city": "Karlsruhe", "review_count": 4, "name": "Die Fris\u00f6re Enrico und Beata", "neighborhoods": [], "longitude": 8.39551, "state": "BW", "stars": 4.5, "latitude": 49.0065, "attributes": {"Price Range": 3}, "type": "business"}
{"business_id": "Vu5RhYLqBigUSXHrQbdpTQ", "full_address": "Kaiserstr. 67\n76131 Karlsruhe", "hours": {}, "open": true, "categories": ["Hair Salons", "Beauty & Spas"], "city": "Karlsruhe", "review_count": 12, "name": "Friseurstyle Forum", "neighborhoods": [], "longitude": 8.41089, "state": "BW", "stars": 2.5, "latitude": 49.0092, "attributes": {"By Appointment Only": false, "Parking": {"garage": false, "validated": false, "street": false, "lot": false, "valet": false}, "Accepts Credit Cards": false, "Good for Kids": true, "Price Range": 1}, "type": "business"}
{"business_id": "QAeEEK-XQlpWQl6LJYOtnA", "full_address": "Karlstr. 40\n76133 Karlsruhe", "hours": {"Monday": {"close": "19:30", "open": "09:00"}, "Tuesday": {"close": "19:30", "open": "09:00"}, "Friday": {"close": "19:30", "open": "09:00"}, "Wednesday": {"close": "19:30", "open": "09:00"}, "Thursday": {"close": "19:30", "open": "09:00"}, "Saturday": {"close": "19:30", "open": "09:00"}}, "open": true, "categories": ["Hair Salons", "Beauty & Spas"], "city": "Karlsruhe", "review_count": 3, "name": "Mewan Friseurstudio", "neighborhoods": [], "longitude": 8.3944912, "state": "BW", "stars": 5.0, "latitude": 49.006398, "attributes": {"Price Range": 1}, "type": "business"}
{"business_id": "M5qaph3f4UYT13TVbXiq3Q", "full_address": "Karlstra\u00dfe 21\n76133 Karlsruhe", "hours": {}, "open": true, "categories": ["Hair Salons", "Beauty & Spas"], "city": "Karlsruhe", "review_count": 4, "name": "C&M Friseur", "neighborhoods": [], "longitude": 8.3953327, "state": "BW", "stars": 2.5, "latitude": 49.0092009, "attributes": {"Wheelchair Accessible": false, "Price Range": 1}, "type": "business"}
{"business_id": "n5EMZZ4EfnPIgCfN3z4sfQ", "full_address": "Sophienstr. 68\n76133 Karlsruhe", "hours": {"Tuesday": {"close": "19:00", "open": "10:00"}, "Friday": {"close": "19:00", "open": "10:00"}, "Wednesday": {"close": "19:00", "open": "10:00"}, "Thursday": {"close": "19:00", "open": "10:00"}, "Saturday": {"close": "14:00", "open": "09:00"}}, "open": true, "categories": ["Hair Salons", "Beauty & Spas"], "city": "Karlsruhe", "review_count": 6, "name": "Kamm'In", "neighborhoods": [], "longitude": 8.38672, "state": "BW", "stars": 4.5, "latitude": 49.0078, "attributes": {"Price Range": 3}, "type": "business"}
{"business_id": "GLZnniRlevgOYkdLoVze-A", "full_address": "Leopoldstr. 56\n76275 Ettlingen", "hours": {}, "open": true, "categories": ["Hair Salons", "Hair Stylists", "Beauty & Spas"], "city": "Ettlingen", "review_count": 5, "name": "Hairkiller", "neighborhoods": [], "longitude": 8.4089486, "state": "BW", "stars": 5.0, "latitude": 48.9397829, "attributes": {"Parking": {"garage": false, "validated": false, "street": false, "lot": false, "valet": false}, "Accepts Credit Cards": false, "Wheelchair Accessible": false, "Price Range": 1}, "type": "business"}
{"business_id": "WF050Paitkk6zu1nYvxnfQ", "full_address": "R\u00fcppurer Stra\u00dfe 132\n76137 Karlsruhe", "hours": {}, "open": true, "categories": ["Hair Salons", "Hair Stylists", "Beauty & Spas"], "city": "Karlsruhe", "review_count": 5, "name": "dierollendenfriseure.de", "neighborhoods": [], "longitude": 8.4054053, "state": "BW", "stars": 5.0, "latitude": 48.9960045, "attributes": {"Accepts Credit Cards": true, "Wheelchair Accessible": true, "Price Range": 2}, "type": "business"}
{"business_id": "OSqi_tZwydODzqff2LCLtQ", "full_address": "Kaiserstr. 38\n76133 Karlsruhe", "hours": {}, "open": true, "categories": ["Hair Salons", "Hair Stylists", "Beauty & Spas"], "city": "Karlsruhe", "review_count": 9, "name": "Hairkiller", "neighborhoods": [], "longitude": 8.40767, "state": "BW", "stars": 4.0, "latitude": 49.0096, "attributes": {"Good for Kids": true, "Price Range": 1}, "type": "business"}
{"business_id": "tFsknMJ5yAafN1tAcfMVKA", "full_address": "Amalienstr. 25A\n76133 Karlsruhe", "hours": {}, "open": true, "categories": ["Hair Salons", "Hair Stylists", "Beauty & Spas"], "city": "Karlsruhe", "review_count": 4, "name": "Salon Friseur Jung / Haircut", "neighborhoods": [], "longitude": 8.3941, "state": "BW", "stars": 4.5, "latitude": 49.0081, "attributes": {"By Appointment Only": false, "Good for Kids": true, "Parking": {"garage": false, "street": false, "validated": false, "lot": false, "valet": false}, "Wheelchair Accessible": true, "Price Range": 1}, "type": "business"}
{"business_id": "UX8ORZVzrGK8AfZpIBd82A", "full_address": "Sophienstra\u00dfe 232\n76185 Karlsruhe", "hours": {"Tuesday": {"close": "18:30", "open": "09:00"}, "Friday": {"close": "20:00", "open": "09:00"}, "Wednesday": {"close": "18:30", "open": "09:00"}, "Thursday": {"close": "18:30", "open": "09:00"}, "Saturday": {"close": "15:00", "open": "09:00"}}, "open": true, "categories": ["Hair Salons", "Hair Stylists", "Beauty & Spas"], "city": "Karlsruhe", "review_count": 3, "name": "Glatzenf\u00f6hner", "neighborhoods": [], "longitude": 8.3654629, "state": "BW", "stars": 3.5, "latitude": 49.0101799, "attributes": {"Price Range": 2}, "type": "business"}
{"business_id": "j-v-m38xQvnFtdGsm6GXkQ", "full_address": "Ebertstr. 4\n76137 Karlsruhe", "hours": {"Tuesday": {"close": "19:00", "open": "09:00"}, "Friday": {"close": "18:00", "open": "09:00"}, "Wednesday": {"close": "18:00", "open": "09:00"}, "Thursday": {"close": "22:00", "open": "09:30"}, "Saturday": {"close": "13:00", "open": "08:00"}}, "open": true, "categories": ["Hair Salons", "Beauty & Spas"], "city": "Karlsruhe", "review_count": 7, "name": "ATIC Friseure", "neighborhoods": [], "longitude": 8.3974989, "state": "BW", "stars": 4.5, "latitude": 48.9945138, "attributes": {}, "type": "business"}
{"business_id": "Gg5MtU-QEaeazysV3jmn3A", "full_address": "Waldstr. 41\n76133 Karlsruhe", "hours": {"Monday": {"close": "20:00", "open": "11:00"}, "Tuesday": {"close": "20:00", "open": "11:00"}, "Friday": {"close": "20:00", "open": "11:00"}, "Wednesday": {"close": "20:00", "open": "11:00"}, "Thursday": {"close": "20:00", "open": "11:00"}, "Saturday": {"close": "18:00", "open": "11:00"}}, "open": true, "categories": ["Hair Salons", "Beauty & Spas"], "city": "Karlsruhe", "review_count": 3, "name": "Unisex", "neighborhoods": [], "longitude": 8.3808372, "state": "BW", "stars": 2.0, "latitude": 49.0176507, "attributes": {"Accepts Credit Cards": true, "Price Range": 3}, "type": "business"}
{"business_id": "cHuREuonkS-83voJLeQdqw", "full_address": "Waldstr. 40a\n76133 Karlsruhe", "hours": {"Monday": {"close": "20:00", "open": "06:00"}, "Tuesday": {"close": "20:00", "open": "06:00"}, "Friday": {"close": "20:00", "open": "06:00"}, "Wednesday": {"close": "20:00", "open": "06:00"}, "Thursday": {"close": "20:00", "open": "06:00"}, "Saturday": {"close": "14:00", "open": "06:00"}}, "open": true, "categories": ["Hair Salons", "Beauty & Spas"], "city": "Karlsruhe", "review_count": 6, "name": "Friseur Erwin G\u00e4rtner", "neighborhoods": [], "longitude": 8.3951608, "state": "BW", "stars": 4.5, "latitude": 49.0087709, "attributes": {"Parking": {"garage": false, "street": true, "validated": false, "lot": false, "valet": false}, "Price Range": 2}, "type": "business"}
{"business_id": "S_N2AIRJLgv8MVNnwe40Qg", "full_address": "Ettlinger Tor Platz 1\n76133 Karlsruhe", "hours": {"Monday": {"close": "20:00", "open": "09:00"}, "Tuesday": {"close": "20:00", "open": "09:00"}, "Friday": {"close": "20:00", "open": "09:00"}, "Wednesday": {"close": "20:00", "open": "09:00"}, "Thursday": {"close": "22:00", "open": "09:00"}, "Saturday": {"close": "20:00", "open": "09:00"}}, "open": true, "categories": ["Hair Salons", "Beauty & Spas"], "city": "Karlsruhe", "review_count": 5, "name": "Keller Hair Company", "neighborhoods": [], "longitude": 8.40342, "state": "BW", "stars": 3.5, "latitude": 49.0056, "attributes": {"Price Range": 2}, "type": "business"}
{"business_id": "MEqB2Dve64rklDl9GE-kRg", "full_address": "Georg Friedrich Str. 25\n76131 Karlsruhe", "hours": {}, "open": true, "categories": ["Hair Salons", "Beauty & Spas"], "city": "Karlsruhe", "review_count": 3, "name": "Salon Georg Friedrich", "neighborhoods": [], "longitude": 8.42393, "state": "BW", "stars": 3.5, "latitude": 49.0079, "attributes": {"Price Range": 1}, "type": "business"}
{"business_id": "bemaKNgSiq2pWvfUCmK6Zw", "full_address": "ECE-Center-Ettlinger-Tor\n76133 Karlsruhe", "hours": {}, "open": true, "categories": ["Hair Salons", "Hair Stylists", "Beauty & Spas"], "city": "Karlsruhe", "review_count": 3, "name": "Hair 'N' More", "neighborhoods": [], "longitude": 8.40376, "state": "BW", "stars": 4.5, "latitude": 49.0081, "attributes": {"Parking": {"garage": false, "validated": false, "street": false, "lot": false, "valet": false}, "Accepts Credit Cards": true, "Wheelchair Accessible": true, "Price Range": 2}, "type": "business"}
{"business_id": "mMo3W7sBDKXdYeWVSeKqMw", "full_address": "Kreuzstr. 19\n76133 Karlsruhe", "hours": {}, "open": true, "categories": ["Hair Salons", "Hair Stylists", "Beauty & Spas"], "city": "Karlsruhe", "review_count": 5, "name": "Max Lui", "neighborhoods": [], "longitude": 8.40578, "state": "BW", "stars": 4.0, "latitude": 49.007, "attributes": {"Parking": {"garage": false, "street": false, "validated": false, "lot": false, "valet": false}, "Price Range": 3}, "type": "business"}
{"business_id": "VBKXWU30nlsj7ivKBlvq6w", "full_address": "Kaiserstr. 78\n76133 Karlsruhe", "hours": {}, "open": true, "categories": ["Hair Salons", "Beauty & Spas"], "city": "Karlsruhe", "review_count": 3, "name": "Friseur am Marktplatz Sigrid Merz", "neighborhoods": [], "longitude": 8.36587, "state": "BW", "stars": 3.5, "latitude": 49.0115, "attributes": {}, "type": "business"}
{"business_id": "ktQpBOGvDKfM0-KRCY21aA", "full_address": "Mathystr. 7\n76133 Karlsruhe", "hours": {}, "open": true, "categories": ["Hair Salons", "Hair Stylists", "Beauty & Spas"], "city": "Karlsruhe", "review_count": 21, "name": "Colling & Friends", "neighborhoods": [], "longitude": 8.39548, "state": "BW", "stars": 4.5, "latitude": 49.0023, "attributes": {"Parking": {"garage": false, "validated": false, "street": false, "lot": false, "valet": false}, "Good for Kids": false, "Accepts Credit Cards": false, "Wheelchair Accessible": true, "Price Range": 3}, "type": "business"}
{"business_id": "dMC3AIQ23lDypgkMI1gM7Q", "full_address": "Putlitzstr. 26\n76137 Karlsruhe", "hours": {}, "open": true, "categories": ["Hair Salons", "Hair Stylists", "Beauty & Spas"], "city": "Karlsruhe", "review_count": 5, "name": "f\u00f6n hair friends", "neighborhoods": [], "longitude": 8.38685, "state": "BW", "stars": 3.0, "latitude": 49.0033, "attributes": {"Price Range": 4, "Parking": {"garage": false, "street": false, "validated": false, "lot": false, "valet": false}, "By Appointment Only": true, "Accepts Credit Cards": true, "Good for Kids": true, "Wheelchair Accessible": false}, "type": "business"}
{"business_id": "X3Tkf5L3966mwPL_FJ5d4g", "full_address": "Z\u00e4hringerstr. 47\n76133 Karlsruhe", "hours": {}, "open": true, "categories": ["Hair Salons", "Shopping", "Cosmetics & Beauty Supply", "Beauty & Spas"], "city": "Karlsruhe", "review_count": 3, "name": "Szenarium", "neighborhoods": [], "longitude": 8.40762, "state": "BW", "stars": 4.0, "latitude": 49.0088, "attributes": {"Accepts Credit Cards": false, "Wheelchair Accessible": true, "Price Range": 3}, "type": "business"}
{"business_id": "wIing_zr1975f75Joqs7Cg", "full_address": "Herrenstr. 25\n76133 Karlsruhe", "hours": {"Friday": {"close": "19:30", "open": "09:00"}, "Tuesday": {"close": "19:30", "open": "09:00"}, "Thursday": {"close": "19:30", "open": "09:00"}, "Wednesday": {"close": "19:00", "open": "09:30"}, "Monday": {"close": "18:30", "open": "09:30"}}, "open": true, "categories": ["Hair Salons", "Beauty & Spas"], "city": "Karlsruhe", "review_count": 12, "name": "mod's hair", "neighborhoods": [], "longitude": 8.3979757, "state": "BW", "stars": 3.5, "latitude": 49.0084435, "attributes": {"By Appointment Only": true, "Good for Kids": true, "Price Range": 3}, "type": "business"}
{"business_id": "dSaFXpDRwbL-YAbJFoe7Ag", "full_address": "Douglasstr. 15\n76133 Karlsruhe", "hours": {"Tuesday": {"close": "19:00", "open": "09:00"}, "Friday": {"close": "19:00", "open": "09:00"}, "Wednesday": {"close": "19:00", "open": "09:00"}, "Thursday": {"close": "19:00", "open": "09:00"}}, "open": true, "categories": ["Hair Salons", "Beauty & Spas"], "city": "Karlsruhe", "review_count": 11, "name": "Biosthetique Friseur ScherundKamm Eric Schneider", "neighborhoods": [], "longitude": 8.3936, "state": "BW", "stars": 4.5, "latitude": 49.0103, "attributes": {"Parking": {"garage": false, "validated": false, "street": false, "lot": false, "valet": false}, "Accepts Credit Cards": true, "Price Range": 2}, "type": "business"}
{"business_id": "7NGxiZ5ya3FYIncTCU4jIA", "full_address": "Kriegsstra\u00dfe 5\nBeim Renaissance Hotel\n76131 Karlsruhe", "hours": {}, "open": true, "categories": ["Hair Salons", "Food", "Grocery", "Beauty & Spas"], "city": "Karlsruhe", "review_count": 7, "name": "Erna", "neighborhoods": [], "longitude": 8.4303821, "state": "BW", "stars": 4.5, "latitude": 49.0116951, "attributes": {"Parking": {"garage": false, "validated": false, "street": false, "lot": false, "valet": false}, "Accepts Credit Cards": false, "Wheelchair Accessible": true, "Price Range": 3}, "type": "business"}
{"business_id": "pK-tkeJh-nc37duo9Hg8xw", "full_address": "Schillerstra\u00dfe 31\n76137 Karlsruhe", "hours": {}, "open": true, "categories": ["Hair Salons", "Hair Stylists", "Beauty & Spas"], "city": "Karlsruhe", "review_count": 4, "name": "The Hair Cafe Thc", "neighborhoods": [], "longitude": 8.3796933, "state": "BW", "stars": 5.0, "latitude": 49.0086495, "attributes": {"Parking": {"garage": false, "validated": false, "street": false, "lot": false, "valet": false}, "Wheelchair Accessible": false, "Price Range": 3}, "type": "business"}
{"business_id": "8E-1IU5PdnuitFwffFF0Wg", "full_address": "sophienstra\u00dfe 99\nEingang Scheffelstra\u00dfe\n76135 Karlsruhe", "hours": {"Tuesday": {"close": "19:30", "open": "09:00"}, "Friday": {"close": "19:30", "open": "09:00"}, "Wednesday": {"close": "19:30", "open": "09:00"}, "Thursday": {"close": "19:30", "open": "09:00"}, "Saturday": {"close": "14:00", "open": "10:00"}}, "open": true, "categories": ["Hair Salons", "Hair Stylists", "Beauty & Spas"], "city": "Karlsruhe", "review_count": 3, "name": "spliss - der fris\u00f6r", "neighborhoods": [], "longitude": 8.3814841, "state": "BW", "stars": 5.0, "latitude": 49.0079468, "attributes": {}, "type": "business"}
{"business_id": "MozQ5aTlhJwaI2OjeMM7EQ", "full_address": "Herrenstr. 66\n76133 Karlsruhe", "hours": {}, "open": true, "categories": ["Hair Salons", "Hair Stylists", "Beauty & Spas"], "city": "Karlsruhe", "review_count": 4, "name": "Die Fris\u00f6re Enrico und Beata", "neighborhoods": [], "longitude": 8.39551, "state": "BW", "stars": 4.5, "latitude": 49.0065, "attributes": {"Price Range": 3}, "type": "business"}
{"business_id": "Vu5RhYLqBigUSXHrQbdpTQ", "full_address": "Kaiserstr. 67\n76131 Karlsruhe", "hours": {}, "open": true, "categories": ["Hair Salons", "Beauty & Spas"], "city": "Karlsruhe", "review_count": 12, "name": "Friseurstyle Forum", "neighborhoods": [], "longitude": 8.41089, "state": "BW", "stars": 2.5, "latitude": 49.0092, "attributes": {"By Appointment Only": false, "Parking": {"garage": false, "validated": false, "street": false, "lot": false, "valet": false}, "Accepts Credit Cards": false, "Good for Kids": true, "Price Range": 1}, "type": "business"}
{"business_id": "QAeEEK-XQlpWQl6LJYOtnA", "full_address": "Karlstr. 40\n76133 Karlsruhe", "hours": {"Monday": {"close": "19:30", "open": "09:00"}, "Tuesday": {"close": "19:30", "open": "09:00"}, "Friday": {"close": "19:30", "open": "09:00"}, "Wednesday": {"close": "19:30", "open": "09:00"}, "Thursday": {"close": "19:30", "open": "09:00"}, "Saturday": {"close": "19:30", "open": "09:00"}}, "open": true, "categories": ["Hair Salons", "Beauty & Spas"], "city": "Karlsruhe", "review_count": 3, "name": "Mewan Friseurstudio", "neighborhoods": [], "longitude": 8.3944912, "state": "BW", "stars": 5.0, "latitude": 49.006398, "attributes": {"Price Range": 1}, "type": "business"}
{"business_id": "M5qaph3f4UYT13TVbXiq3Q", "full_address": "Karlstra\u00dfe 21\n76133 Karlsruhe", "hours": {}, "open": true, "categories": ["Hair Salons", "Beauty & Spas"], "city": "Karlsruhe", "review_count": 4, "name": "C&M Friseur", "neighborhoods": [], "longitude": 8.3953327, "state": "BW", "stars": 2.5, "latitude": 49.0092009, "attributes": {"Wheelchair Accessible": false, "Price Range": 1}, "type": "business"}
{"business_id": "n5EMZZ4EfnPIgCfN3z4sfQ", "full_address": "Sophienstr. 68\n76133 Karlsruhe", "hours": {"Tuesday": {"close": "19:00", "open": "10:00"}, "Friday": {"close": "19:00", "open": "10:00"}, "Wednesday": {"close": "19:00", "open": "10:00"}, "Thursday": {"close": "19:00", "open": "10:00"}, "Saturday": {"close": "14:00", "open": "09:00"}}, "open": true, "categories": ["Hair Salons", "Beauty & Spas"], "city": "Karlsruhe", "review_count": 6, "name": "Kamm'In", "neighborhoods": [], "longitude": 8.38672, "state": "BW", "stars": 4.5, "latitude": 49.0078, "attributes": {"Price Range": 3}, "type": "business"}
{"business_id": "GLZnniRlevgOYkdLoVze-A", "full_address": "Leopoldstr. 56\n76275 Ettlingen", "hours": {}, "open": true, "categories": ["Hair Salons", "Hair Stylists", "Beauty & Spas"], "city": "Ettlingen", "review_count": 5, "name": "Hairkiller", "neighborhoods": [], "longitude": 8.4089486, "state": "BW", "stars": 5.0, "latitude": 48.9397829, "attributes": {"Parking": {"garage": false, "validated": false, "street": false, "lot": false, "valet": false}, "Accepts Credit Cards": false, "Wheelchair Accessible": false, "Price Range": 1}, "type": "business"}
{"business_id": "WF050Paitkk6zu1nYvxnfQ", "full_address": "R\u00fcppurer Stra\u00dfe 132\n76137 Karlsruhe", "hours": {}, "open": true, "categories": ["Hair Salons", "Hair Stylists", "Beauty & Spas"], "city": "Karlsruhe", "review_count": 5, "name": "dierollendenfriseure.de", "neighborhoods": [], "longitude": 8.4054053, "state": "BW", "stars": 5.0, "latitude": 48.9960045, "attributes": {"Accepts Credit Cards": true, "Wheelchair Accessible": true, "Price Range": 2}, "type": "business"}
{"business_id": "OSqi_tZwydODzqff2LCLtQ", "full_address": "Kaiserstr. 38\n76133 Karlsruhe", "hours": {}, "open": true, "categories": ["Hair Salons", "Hair Stylists", "Beauty & Spas"], "city": "Karlsruhe", "review_count": 9, "name": "Hairkiller", "neighborhoods": [], "longitude": 8.40767, "state": "BW", "stars": 4.0, "latitude": 49.0096, "attributes": {"Good for Kids": true, "Price Range": 1}, "type": "business"}
{"business_id": "tFsknMJ5yAafN1tAcfMVKA", "full_address": "Amalienstr. 25A\n76133 Karlsruhe", "hours": {}, "open": true, "categories": ["Hair Salons", "Hair Stylists", "Beauty & Spas"], "city": "Karlsruhe", "review_count": 4, "name": "Salon Friseur Jung / Haircut", "neighborhoods": [], "longitude": 8.3941, "state": "BW", "stars": 4.5, "latitude": 49.0081, "attributes": {"By Appointment Only": false, "Good for Kids": true, "Parking": {"garage": false, "street": false, "validated": false, "lot": false, "valet": false}, "Wheelchair Accessible": true, "Price Range": 1}, "type": "business"}
{"business_id": "UX8ORZVzrGK8AfZpIBd82A", "full_address": "Sophienstra\u00dfe 232\n76185 Karlsruhe", "hours": {"Tuesday": {"close": "18:30", "open": "09:00"}, "Friday": {"close": "20:00", "open": "09:00"}, "Wednesday": {"close": "18:30", "open": "09:00"}, "Thursday": {"close": "18:30", "open": "09:00"}, "Saturday": {"close": "15:00", "open": "09:00"}}, "open": true, "categories": ["Hair Salons", "Hair Stylists", "Beauty & Spas"], "city": "Karlsruhe", "review_count": 3, "name": "Glatzenf\u00f6hner", "neighborhoods": [], "longitude": 8.3654629, "state": "BW", "stars": 3.5, "latitude": 49.0101799, "attributes": {"Price Range": 2}, "type": "business"}
{"business_id": "j-v-m38xQvnFtdGsm6GXkQ", "full_address": "Ebertstr. 4\n76137 Karlsruhe", "hours": {"Tuesday": {"close": "19:00", "open": "09:00"}, "Friday": {"close": "18:00", "open": "09:00"}, "Wednesday": {"close": "18:00", "open": "09:00"}, "Thursday": {"close": "22:00", "open": "09:30"}, "Saturday": {"close": "13:00", "open": "08:00"}}, "open": true, "categories": ["Hair Salons", "Beauty & Spas"], "city": "Karlsruhe", "review_count": 7, "name": "ATIC Friseure", "neighborhoods": [], "longitude": 8.3974989, "state": "BW", "stars": 4.5, "latitude": 48.9945138, "attributes": {}, "type": "business"}
{"business_id": "Gg5MtU-QEaeazysV3jmn3A", "full_address": "Waldstr. 41\n76133 Karlsruhe", "hours": {"Monday": {"close": "20:00", "open": "11:00"}, "Tuesday": {"close": "20:00", "open": "11:00"}, "Friday": {"close": "20:00", "open": "11:00"}, "Wednesday": {"close": "20:00", "open": "11:00"}, "Thursday": {"close": "20:00", "open": "11:00"}, "Saturday": {"close": "18:00", "open": "11:00"}}, "open": true, "categories": ["Hair Salons", "Beauty & Spas"], "city": "Karlsruhe", "review_count": 3, "name": "Unisex", "neighborhoods": [], "longitude": 8.3808372, "state": "BW", "stars": 2.0, "latitude": 49.0176507, "attributes": {"Accepts Credit Cards": true, "Price Range": 3}, "type": "business"}
{"business_id": "cHuREuonkS-83voJLeQdqw", "full_address": "Waldstr. 40a\n76133 Karlsruhe", "hours": {"Monday": {"close": "20:00", "open": "06:00"}, "Tuesday": {"close": "20:00", "open": "06:00"}, "Friday": {"close": "20:00", "open": "06:00"}, "Wednesday": {"close": "20:00", "open": "06:00"}, "Thursday": {"close": "20:00", "open": "06:00"}, "Saturday": {"close": "14:00", "open": "06:00"}}, "open": true, "categories": ["Hair Salons", "Beauty & Spas"], "city": "Karlsruhe", "review_count": 6, "name": "Friseur Erwin G\u00e4rtner", "neighborhoods": [], "longitude": 8.3951608, "state": "BW", "stars": 4.5, "latitude": 49.0087709, "attributes": {"Parking": {"garage": false, "street": true, "validated": false, "lot": false, "valet": false}, "Price Range": 2}, "type": "business"}
{"business_id": "S_N2AIRJLgv8MVNnwe40Qg", "full_address": "Ettlinger Tor Platz 1\n76133 Karlsruhe", "hours": {"Monday": {"close": "20:00", "open": "09:00"}, "Tuesday": {"close": "20:00", "open": "09:00"}, "Friday": {"close": "20:00", "open": "09:00"}, "Wednesday": {"close": "20:00", "open": "09:00"}, "Thursday": {"close": "22:00", "open": "09:00"}, "Saturday": {"close": "20:00", "open": "09:00"}}, "open": true, "categories": ["Hair Salons", "Beauty & Spas"], "city": "Karlsruhe", "review_count": 5, "name": "Keller Hair Company", "neighborhoods": [], "longitude": 8.40342, "state": "BW", "stars": 3.5, "latitude": 49.0056, "attributes": {"Price Range": 2}, "type": "business"}
{"business_id": "MEqB2Dve64rklDl9GE-kRg", "full_address": "Georg Friedrich Str. 25\n76131 Karlsruhe", "hours": {}, "open": true, "categories": ["Hair Salons", "Beauty & Spas"], "city": "Karlsruhe", "review_count": 3, "name": "Salon Georg Friedrich", "neighborhoods": [], "longitude": 8.42393, "state": "BW", "stars": 3.5, "latitude": 49.0079, "attributes": {"Price Range": 1}, "type": "business"}
{"business_id": "bemaKNgSiq2pWvfUCmK6Zw", "full_address": "ECE-Center-Ettlinger-Tor\n76133 Karlsruhe", "hours": {}, "open": true, "categories": ["Hair Salons", "Hair Stylists", "Beauty & Spas"], "city": "Karlsruhe", "review_count": 3, "name": "Hair 'N' More", "neighborhoods": [], "longitude": 8.40376, "state": "BW", "stars": 4.5, "latitude": 49.0081, "attributes": {"Parking": {"garage": false, "validated": false, "street": false, "lot": false, "valet": false}, "Accepts Credit Cards": true, "Wheelchair Accessible": true, "Price Range": 2}, "type": "business"}
{"business_id": "mMo3W7sBDKXdYeWVSeKqMw", "full_address": "Kreuzstr. 19\n76133 Karlsruhe", "hours": {}, "open": true, "categories": ["Hair Salons", "Hair Stylists", "Beauty & Spas"], "city": "Karlsruhe", "review_count": 5, "name": "Max Lui", "neighborhoods": [], "longitude": 8.40578, "state": "BW", "stars": 4.0, "latitude": 49.007, "attributes": {"Parking": {"garage": false, "street": false, "validated": false, "lot": false, "valet": false}, "Price Range": 3}, "type": "business"}
{"business_id": "VBKXWU30nlsj7ivKBlvq6w", "full_address": "Kaiserstr. 78\n76133 Karlsruhe", "hours": {}, "open": true, "categories": ["Hair Salons", "Beauty & Spas"], "city": "Karlsruhe", "review_count": 3, "name": "Friseur am Marktplatz Sigrid Merz", "neighborhoods": [], "longitude": 8.36587, "state": "BW", "stars": 3.5, "latitude": 49.0115, "attributes": {}, "type": "business"}
{"business_id": "ktQpBOGvDKfM0-KRCY21aA", "full_address": "Mathystr. 7\n76133 Karlsruhe", "hours": {}, "open": true, "categories": ["Hair Salons", "Hair Stylists", "Beauty & Spas"], "city": "Karlsruhe", "review_count": 21, "name": "Colling & Friends", "neighborhoods": [], "longitude": 8.39548, "state": "BW", "stars": 4.5, "latitude": 49.0023, "attributes": {"Parking": {"garage": false, "validated": false, "street": false, "lot": false, "valet": false}, "Good for Kids": false, "Accepts Credit Cards": false, "Wheelchair Accessible": true, "Price Range": 3}, "type": "business"}
{"business_id": "dMC3AIQ23lDypgkMI1gM7Q", "full_address": "Putlitzstr. 26\n76137 Karlsruhe", "hours": {}, "open": true, "categories": ["Hair Salons", "Hair Stylists", "Beauty & Spas"], "city": "Karlsruhe", "review_count": 5, "name": "f\u00f6n hair friends", "neighborhoods": [], "longitude": 8.38685, "state": "BW", "stars": 3.0, "latitude": 49.0033, "attributes": {"Price Range": 4, "Parking": {"garage": false, "street": false, "validated": false, "lot": false, "valet": false}, "By Appointment Only": true, "Accepts Credit Cards": true, "Good for Kids": true, "Wheelchair Accessible": false}, "type": "business"}
{"business_id": "X3Tkf5L3966mwPL_FJ5d4g", "full_address": "Z\u00e4hringerstr. 47\n76133 Karlsruhe", "hours": {}, "open": true, "categories": ["Hair Salons", "Shopping", "Cosmetics & Beauty Supply", "Beauty & Spas"], "city": "Karlsruhe", "review_count": 3, "name": "Szenarium", "neighborhoods": [], "longitude": 8.40762, "state": "BW", "stars": 4.0, "latitude": 49.0088, "attributes": {"Accepts Credit Cards": false, "Wheelchair Accessible": true, "Price Range": 3}, "type": "business"}
{"business_id": "wIing_zr1975f75Joqs7Cg", "full_address": "Herrenstr. 25\n76133 Karlsruhe", "hours": {"Friday": {"close": "19:30", "open": "09:00"}, "Tuesday": {"close": "19:30", "open": "09:00"}, "Thursday": {"close": "19:30", "open": "09:00"}, "Wednesday": {"close": "19:00", "open": "09:30"}, "Monday": {"close": "18:30", "open": "09:30"}}, "open": true, "categories": ["Hair Salons", "Beauty & Spas"], "city": "Karlsruhe", "review_count": 12, "name": "mod's hair", "neighborhoods": [], "longitude": 8.3979757, "state": "BW", "stars": 3.5, "latitude": 49.0084435, "attributes": {"By Appointment Only": true, "Good for Kids": true, "Price Range": 3}, "type": "business"}
{"business_id": "dSaFXpDRwbL-YAbJFoe7Ag", "full_address": "Douglasstr. 15\n76133 Karlsruhe", "hours": {"Tuesday": {"close": "19:00", "open": "09:00"}, "Friday": {"close": "19:00", "open": "09:00"}, "Wednesday": {"close": "19:00", "open": "09:00"}, "Thursday": {"close": "19:00", "open": "09:00"}}, "open": true, "categories": ["Hair Salons", "Beauty & Spas"], "city": "Karlsruhe", "review_count": 11, "name": "Biosthetique Friseur ScherundKamm Eric Schneider", "neighborhoods": [], "longitude": 8.3936, "state": "BW", "stars": 4.5, "latitude": 49.0103, "attributes": {"Parking": {"garage": false, "validated": false, "street": false, "lot": false, "valet": false}, "Accepts Credit Cards": true, "Price Range": 2}, "type": "business"}
{"business_id": "7NGxiZ5ya3FYIncTCU4jIA", "full_address": "Kriegsstra\u00dfe 5\nBeim Renaissance Hotel\n76131 Karlsruhe", "hours": {}, "open": true, "categories": ["Hair Salons", "Food", "Grocery", "Beauty & Spas"], "city": "Karlsruhe", "review_count": 7, "name": "Erna", "neighborhoods": [], "longitude": 8.4303821, "state": "BW", "stars": 4.5, "latitude": 49.0116951, "attributes": {"Parking": {"garage": false, "validated": false, "street": false, "lot": false, "valet": false}, "Accepts Credit Cards": false, "Wheelchair Accessible": true, "Price Range": 3}, "type": "business"}
{"business_id": "pK-tkeJh-nc37duo9Hg8xw", "full_address": "Schillerstra\u00dfe 31\n76137 Karlsruhe", "hours": {}, "open": true, "categories": ["Hair Salons", "Hair Stylists", "Beauty & Spas"], "city": "Karlsruhe", "review_count": 4, "name": "The Hair Cafe Thc", "neighborhoods": [], "longitude": 8.3796933, "state": "BW", "stars": 5.0, "latitude": 49.0086495, "attributes": {"Parking": {"garage": false, "validated": false, "street": false, "lot": false, "valet": false}, "Wheelchair Accessible": false, "Price Range": 3}, "type": "business"}
{"business_id": "8E-1IU5PdnuitFwffFF0Wg", "full_address": "sophienstra\u00dfe 99\nEingang Scheffelstra\u00dfe\n76135 Karlsruhe", "hours": {"Tuesday": {"close": "19:30", "open": "09:00"}, "Friday": {"close": "19:30", "open": "09:00"}, "Wednesday": {"close": "19:30", "open": "09:00"}, "Thursday": {"close": "19:30", "open": "09:00"}, "Saturday": {"close": "14:00", "open": "10:00"}}, "open": true, "categories": ["Hair Salons", "Hair Stylists", "Beauty & Spas"], "city": "Karlsruhe", "review_count": 3, "name": "spliss - der fris\u00f6r", "neighborhoods": [], "longitude": 8.3814841, "state": "BW", "stars": 5.0, "latitude": 49.0079468, "attributes": {}, "type": "business"}
{"business_id": "MozQ5aTlhJwaI2OjeMM7EQ", "full_address": "Herrenstr. 66\n76133 Karlsruhe", "hours": {}, "open": true, "categories": ["Hair Salons", "Hair Stylists", "Beauty & Spas"], "city": "Karlsruhe", "review_count": 4, "name": "Die Fris\u00f6re Enrico und Beata", "neighborhoods": [], "longitude": 8.39551, "state": "BW", "stars": 4.5, "latitude": 49.0065, "attributes": {"Price Range": 3}, "type": "business"}
{"business_id": "Vu5RhYLqBigUSXHrQbdpTQ", "full_address": "Kaiserstr. 67\n76131 Karlsruhe", "hours": {}, "open": true, "categories": ["Hair Salons", "Beauty & Spas"], "city": "Karlsruhe", "review_count": 12, "name": "Friseurstyle Forum", "neighborhoods": [], "longitude": 8.41089, "state": "BW", "stars": 2.5, "latitude": 49.0092, "attributes": {"By Appointment Only": false, "Parking": {"garage": false, "validated": false, "street": false, "lot": false, "valet": false}, "Accepts Credit Cards": false, "Good for Kids": true, "Price Range": 1}, "type": "business"}
{"business_id": "QAeEEK-XQlpWQl6LJYOtnA", "full_address": "Karlstr. 40\n76133 Karlsruhe", "hours": {"Monday": {"close": "19:30", "open": "09:00"}, "Tuesday": {"close": "19:30", "open": "09:00"}, "Friday": {"close": "19:30", "open": "09:00"}, "Wednesday": {"close": "19:30", "open": "09:00"}, "Thursday": {"close": "19:30", "open": "09:00"}, "Saturday": {"close": "19:30", "open": "09:00"}}, "open": true, "categories": ["Hair Salons", "Beauty & Spas"], "city": "Karlsruhe", "review_count": 3, "name": "Mewan Friseurstudio", "neighborhoods": [], "longitude": 8.3944912, "state": "BW", "stars": 5.0, "latitude": 49.006398, "attributes": {"Price Range": 1}, "type": "business"}
{"business_id": "M5qaph3f4UYT13TVbXiq3Q", "full_address": "Karlstra\u00dfe 21\n76133 Karlsruhe", "hours": {}, "open": true, "categories": ["Hair Salons", "Beauty & Spas"], "city": "Karlsruhe", "review_count": 4, "name": "C&M Friseur", "neighborhoods": [], "longitude": 8.3953327, "state": "BW", "stars": 2.5, "latitude": 49.0092009, "attributes": {"Wheelchair Accessible": false, "Price Range": 1}, "type": "business"}
{"business_id": "n5EMZZ4EfnPIgCfN3z4sfQ", "full_address": "Sophienstr. 68\n76133 Karlsruhe", "hours": {"Tuesday": {"close": "19:00", "open": "10:00"}, "Friday": {"close": "19:00", "open": "10:00"}, "Wednesday": {"close": "19:00", "open": "10:00"}, "Thursday": {"close": "19:00", "open": "10:00"}, "Saturday": {"close": "14:00", "open": "09:00"}}, "open": true, "categories": ["Hair Salons", "Beauty & Spas"], "city": "Karlsruhe", "review_count": 6, "name": "Kamm'In", "neighborhoods": [], "longitude": 8.38672, "state": "BW", "stars": 4.5, "latitude": 49.0078, "attributes": {"Price Range": 3}, "type": "business"}
{"business_id": "GLZnniRlevgOYkdLoVze-A", "full_address": "Leopoldstr. 56\n76275 Ettlingen", "hours": {}, "open": true, "categories": ["Hair Salons", "Hair Stylists", "Beauty & Spas"], "city": "Ettlingen", "review_count": 5, "name": "Hairkiller", "neighborhoods": [], "longitude": 8.4089486, "state": "BW", "stars": 5.0, "latitude": 48.9397829, "attributes": {"Parking": {"garage": false, "validated": false, "street": false, "lot": false, "valet": false}, "Accepts Credit Cards": false, "Wheelchair Accessible": false, "Price Range": 1}, "type": "business"}
{"business_id": "WF050Paitkk6zu1nYvxnfQ", "full_address": "R\u00fcppurer Stra\u00dfe 132\n76137 Karlsruhe", "hours": {}, "open": true, "categories": ["Hair Salons", "Hair Stylists", "Beauty & Spas"], "city": "Karlsruhe", "review_count": 5, "name": "dierollendenfriseure.de", "neighborhoods": [], "longitude": 8.4054053, "state": "BW", "stars": 5.0, "latitude": 48.9960045, "attributes": {"Accepts Credit Cards": true, "Wheelchair Accessible": true, "Price Range": 2}, "type": "business"}
{"business_id": "OSqi_tZwydODzqff2LCLtQ", "full_address": "Kaiserstr. 38\n76133 Karlsruhe", "hours": {}, "open": true, "categories": ["Hair Salons", "Hair Stylists", "Beauty & Spas"], "city": "Karlsruhe", "review_count": 9, "name": "Hairkiller", "neighborhoods": [], "longitude": 8.40767, "state": "BW", "stars": 4.0, "latitude": 49.0096, "attributes": {"Good for Kids": true, "Price Range": 1}, "type": "business"}
{"business_id": "tFsknMJ5yAafN1tAcfMVKA", "full_address": "Amalienstr. 25A\n76133 Karlsruhe", "hours": {}, "open": true, "categories": ["Hair Salons", "Hair Stylists", "Beauty & Spas"], "city": "Karlsruhe", "review_count": 4, "name": "Salon Friseur Jung / Haircut", "neighborhoods": [], "longitude": 8.3941, "state": "BW", "stars": 4.5, "latitude": 49.0081, "attributes": {"By Appointment Only": false, "Good for Kids": true, "Parking": {"garage": false, "street": false, "validated": false, "lot": false, "valet": false}, "Wheelchair Accessible": true, "Price Range": 1}, "type": "business"}
{"business_id": "UX8ORZVzrGK8AfZpIBd82A", "full_address": "Sophienstra\u00dfe 232\n76185 Karlsruhe", "hours": {"Tuesday": {"close": "18:30", "open": "09:00"}, "Friday": {"close": "20:00", "open": "09:00"}, "Wednesday": {"close": "18:30", "open": "09:00"}, "Thursday": {"close": "18:30", "open": "09:00"}, "Saturday": {"close": "15:00", "open": "09:00"}}, "open": true, "categories": ["Hair Salons", "Hair Stylists", "Beauty & Spas"], "city": "Karlsruhe", "review_count": 3, "name": "Glatzenf\u00f6hner", "neighborhoods": [], "longitude": 8.3654629, "state": "BW", "stars": 3.5, "latitude": 49.0101799, "attributes": {"Price Range": 2}, "type": "business"}
{"business_id": "j-v-m38xQvnFtdGsm6GXkQ", "full_address": "Ebertstr. 4\n76137 Karlsruhe", "hours": {"Tuesday": {"close": "19:00", "open": "09:00"}, "Friday": {"close": "18:00", "open": "09:00"}, "Wednesday": {"close": "18:00", "open": "09:00"}, "Thursday": {"close": "22:00", "open": "09:30"}, "Saturday": {"close": "13:00", "open": "08:00"}}, "open": true, "categories": ["Hair Salons", "Beauty & Spas"], "city": "Karlsruhe", "review_count": 7, "name": "ATIC Friseure", "neighborhoods": [], "longitude": 8.3974989, "state": "BW", "stars": 4.5, "latitude": 48.9945138, "attributes": {}, "type": "business"}
{"business_id": "Gg5MtU-QEaeazysV3jmn3A", "full_address": "Waldstr. 41\n76133 Karlsruhe", "hours": {"Monday": {"close": "20:00", "open": "11:00"}, "Tuesday": {"close": "20:00", "open": "11:00"}, "Friday": {"close": "20:00", "open": "11:00"}, "Wednesday": {"close": "20:00", "open": "11:00"}, "Thursday": {"close": "20:00", "open": "11:00"}, "Saturday": {"close": "18:00", "open": "11:00"}}, "open": true, "categories": ["Hair Salons", "Beauty & Spas"], "city": "Karlsruhe", "review_count": 3, "name": "Unisex", "neighborhoods": [], "longitude": 8.3808372, "state": "BW", "stars": 2.0, "latitude": 49.0176507, "attributes": {"Accepts Credit Cards": true, "Price Range": 3}, "type": "business"}
{"business_id": "cHuREuonkS-83voJLeQdqw", "full_address": "Waldstr. 40a\n76133 Karlsruhe", "hours": {"Monday": {"close": "20:00", "open": "06:00"}, "Tuesday": {"close": "20:00", "open": "06:00"}, "Friday": {"close": "20:00", "open": "06:00"}, "Wednesday": {"close": "20:00", "open": "06:00"}, "Thursday": {"close": "20:00", "open": "06:00"}, "Saturday": {"close": "14:00", "open": "06:00"}}, "open": true, "categories": ["Hair Salons", "Beauty & Spas"], "city": "Karlsruhe", "review_count": 6, "name": "Friseur Erwin G\u00e4rtner", "neighborhoods": [], "longitude": 8.3951608, "state": "BW", "stars": 4.5, "latitude": 49.0087709, "attributes": {"Parking": {"garage": false, "street": true, "validated": false, "lot": false, "valet": false}, "Price Range": 2}, "type": "business"}
{"business_id": "S_N2AIRJLgv8MVNnwe40Qg", "full_address": "Ettlinger Tor Platz 1\n76133 Karlsruhe", "hours": {"Monday": {"close": "20:00", "open": "09:00"}, "Tuesday": {"close": "20:00", "open": "09:00"}, "Friday": {"close": "20:00", "open": "09:00"}, "Wednesday": {"close": "20:00", "open": "09:00"}, "Thursday": {"close": "22:00", "open": "09:00"}, "Saturday": {"close": "20:00", "open": "09:00"}}, "open": true, "categories": ["Hair Salons", "Beauty & Spas"], "city": "Karlsruhe", "review_count": 5, "name": "Keller Hair Company", "neighborhoods": [], "longitude": 8.40342, "state": "BW", "stars": 3.5, "latitude": 49.0056, "attributes": {"Price Range": 2}, "type": "business"}
{"business_id": "MEqB2Dve64rklDl9GE-kRg", "full_address": "Georg Friedrich Str. 25\n76131 Karlsruhe", "hours": {}, "open": true, "categories": ["Hair Salons", "Beauty & Spas"], "city": "Karlsruhe", "review_count": 3, "name": "Salon Georg Friedrich", "neighborhoods": [], "longitude": 8.42393, "state": "BW", "stars": 3.5, "latitude": 49.0079, "attributes": {"Price Range": 1}, "type": "business"}
{"business_id": "bemaKNgSiq2pWvfUCmK6Zw", "full_address": "ECE-Center-Ettlinger-Tor\n76133 Karlsruhe", "hours": {}, "open": true, "categories": ["Hair Salons", "Hair Stylists", "Beauty & Spas"], "city": "Karlsruhe", "review_count": 3, "name": "Hair 'N' More", "neighborhoods": [], "longitude": 8.40376, "state": "BW", "stars": 4.5, "latitude": 49.0081, "attributes": {"Parking": {"garage": false, "validated": false, "street": false, "lot": false, "valet": false}, "Accepts Credit Cards": true, "Wheelchair Accessible": true, "Price Range": 2}, "type": "business"}
{"business_id": "mMo3W7sBDKXdYeWVSeKqMw", "full_address": "Kreuzstr. 19\n76133 Karlsruhe", "hours": {}, "open": true, "categories": ["Hair Salons", "Hair Stylists", "Beauty & Spas"], "city": "Karlsruhe", "review_count": 5, "name": "Max Lui", "neighborhoods": [], "longitude": 8.40578, "state": "BW", "stars": 4.0, "latitude": 49.007, "attributes": {"Parking": {"garage": false, "street": false, "validated": false, "lot": false, "valet": false}, "Price Range": 3}, "type": "business"}
{"business_id": "VBKXWU30nlsj7ivKBlvq6w", "full_address": "Kaiserstr. 78\n76133 Karlsruhe", "hours": {}, "open": true, "categories": ["Hair Salons", "Beauty & Spas"], "city": "Karlsruhe", "review_count": 3, "name": "Friseur am Marktplatz Sigrid Merz", "neighborhoods": [], "longitude": 8.36587, "state": "BW", "stars": 3.5, "latitude": 49.0115, "attributes": {}, "type": "business"}
{"business_id": "ktQpBOGvDKfM0-KRCY21aA", "full_address": "Mathystr. 7\n76133 Karlsruhe", "hours": {}, "open": true, "categories": ["Hair Salons", "Hair Stylists", "Beauty & Spas"], "city": "Karlsruhe", "review_count": 21, "name": "Colling & Friends", "neighborhoods": [], "longitude": 8.39548, "state": "BW", "stars": 4.5, "latitude": 49.0023, "attributes": {"Parking": {"garage": false, "validated": false, "street": false, "lot": false, "valet": false}, "Good for Kids": false, "Accepts Credit Cards": false, "Wheelchair Accessible": true, "Price Range": 3}, "type": "business"}
{"business_id": "dMC3AIQ23lDypgkMI1gM7Q", "full_address": "Putlitzstr. 26\n76137 Karlsruhe", "hours": {}, "open": true, "categories": ["Hair Salons", "Hair Stylists", "Beauty & Spas"], "city": "Karlsruhe", "review_count": 5, "name": "f\u00f6n hair friends", "neighborhoods": [], "longitude": 8.38685, "state": "BW", "stars": 3.0, "latitude": 49.0033, "attributes": {"Price Range": 4, "Parking": {"garage": false, "street": false, "validated": false, "lot": false, "valet": false}, "By Appointment Only": true, "Accepts Credit Cards": true, "Good for Kids": true, "Wheelchair Accessible": false}, "type": "business"}
{"business_id": "X3Tkf5L3966mwPL_FJ5d4g", "full_address": "Z\u00e4hringerstr. 47\n76133 Karlsruhe", "hours": {}, "open": true, "categories": ["Hair Salons", "Shopping", "Cosmetics & Beauty Supply", "Beauty & Spas"], "city": "Karlsruhe", "review_count": 3, "name": "Szenarium", "neighborhoods": [], "longitude": 8.40762, "state": "BW", "stars": 4.0, "latitude": 49.0088, "attributes": {"Accepts Credit Cards": false, "Wheelchair Accessible": true, "Price Range": 3}, "type": "business"}
{"business_id": "wIing_zr1975f75Joqs7Cg", "full_address": "Herrenstr. 25\n76133 Karlsruhe", "hours": {"Friday": {"close": "19:30", "open": "09:00"}, "Tuesday": {"close": "19:30", "open": "09:00"}, "Thursday": {"close": "19:30", "open": "09:00"}, "Wednesday": {"close": "19:00", "open": "09:30"}, "Monday": {"close": "18:30", "open": "09:30"}}, "open": true, "categories": ["Hair Salons", "Beauty & Spas"], "city": "Karlsruhe", "review_count": 12, "name": "mod's hair", "neighborhoods": [], "longitude": 8.3979757, "state": "BW", "stars": 3.5, "latitude": 49.0084435, "attributes": {"By Appointment Only": true, "Good for Kids": true, "Price Range": 3}, "type": "business"}
{"business_id": "dSaFXpDRwbL-YAbJFoe7Ag", "full_address": "Douglasstr. 15\n76133 Karlsruhe", "hours": {"Tuesday": {"close": "19:00", "open": "09:00"}, "Friday": {"close": "19:00", "open": "09:00"}, "Wednesday": {"close": "19:00", "open": "09:00"}, "Thursday": {"close": "19:00", "open": "09:00"}}, "open": true, "categories": ["Hair Salons", "Beauty & Spas"], "city": "Karlsruhe", "review_count": 11, "name": "Biosthetique Friseur ScherundKamm Eric Schneider", "neighborhoods": [], "longitude": 8.3936, "state": "BW", "stars": 4.5, "latitude": 49.0103, "attributes": {"Parking": {"garage": false, "validated": false, "street": false, "lot": false, "valet": false}, "Accepts Credit Cards": true, "Price Range": 2}, "type": "business"}
{"business_id": "7NGxiZ5ya3FYIncTCU4jIA", "full_address": "Kriegsstra\u00dfe 5\nBeim Renaissance Hotel\n76131 Karlsruhe", "hours": {}, "open": true, "categories": ["Hair Salons", "Food", "Grocery", "Beauty & Spas"], "city": "Karlsruhe", "review_count": 7, "name": "Erna", "neighborhoods": [], "longitude": 8.4303821, "state": "BW", "stars": 4.5, "latitude": 49.0116951, "attributes": {"Parking": {"garage": false, "validated": false, "street": false, "lot": false, "valet": false}, "Accepts Credit Cards": false, "Wheelchair Accessible": true, "Price Range": 3}, "type": "business"}
{"business_id": "pK-tkeJh-nc37duo9Hg8xw", "full_address": "Schillerstra\u00dfe 31\n76137 Karlsruhe", "hours": {}, "open": true, "categories": ["Hair Salons", "Hair Stylists", "Beauty & Spas"], "city": "Karlsruhe", "review_count": 4, "name": "The Hair Cafe Thc", "neighborhoods": [], "longitude": 8.3796933, "state": "BW", "stars": 5.0, "latitude": 49.0086495, "attributes": {"Parking": {"garage": false, "validated": false, "street": false, "lot": false, "valet": false}, "Wheelchair Accessible": false, "Price Range": 3}, "type": "business"}
{"business_id": "8E-1IU5PdnuitFwffFF0Wg", "full_address": "sophienstra\u00dfe 99\nEingang Scheffelstra\u00dfe\n76135 Karlsruhe", "hours": {"Tuesday": {"close": "19:30", "open": "09:00"}, "Friday": {"close": "19:30", "open": "09:00"}, "Wednesday": {"close": "19:30", "open": "09:00"}, "Thursday": {"close": "19:30", "open": "09:00"}, "Saturday": {"close": "14:00", "open": "10:00"}}, "open": true, "categories": ["Hair Salons", "Hair Stylists", "Beauty & Spas"], "city": "Karlsruhe", "review_count": 3, "name": "spliss - der fris\u00f6r", "neighborhoods": [], "longitude": 8.3814841, "state": "BW", "stars": 5.0, "latitude": 49.0079468, "attributes": {}, "type": "business"}
{"business_id": "MozQ5aTlhJwaI2OjeMM7EQ", "full_address": "Herrenstr. 66\n76133 Karlsruhe", "hours": {}, "open": true, "categories": ["Hair Salons", "Hair Stylists", "Beauty & Spas"], "city": "Karlsruhe", "review_count": 4, "name": "Die Fris\u00f6re Enrico und Beata", "neighborhoods": [], "longitude": 8.39551, "state": "BW", "stars": 4.5, "latitude": 49.0065, "attributes": {"Price Range": 3}, "type": "business"}
{"business_id": "Vu5RhYLqBigUSXHrQbdpTQ", "full_address": "Kaiserstr. 67\n76131 Karlsruhe", "hours": {}, "open": true, "categories": ["Hair Salons", "Beauty & Spas"], "city": "Karlsruhe", "review_count": 12, "name": "Friseurstyle Forum", "neighborhoods": [], "longitude": 8.41089, "state": "BW", "stars": 2.5, "latitude": 49.0092, "attributes": {"By Appointment Only": false, "Parking": {"garage": false, "validated": false, "street": false, "lot": false, "valet": false}, "Accepts Credit Cards": false, "Good for Kids": true, "Price Range": 1}, "type": "business"}
{"business_id": "QAeEEK-XQlpWQl6LJYOtnA", "full_address": "Karlstr. 40\n76133 Karlsruhe", "hours": {"Monday": {"close": "19:30", "open": "09:00"}, "Tuesday": {"close": "19:30", "open": "09:00"}, "Friday": {"close": "19:30", "open": "09:00"}, "Wednesday": {"close": "19:30", "open": "09:00"}, "Thursday": {"close": "19:30", "open": "09:00"}, "Saturday": {"close": "19:30", "open": "09:00"}}, "open": true, "categories": ["Hair Salons", "Beauty & Spas"], "city": "Karlsruhe", "review_count": 3, "name": "Mewan Friseurstudio", "neighborhoods": [], "longitude": 8.3944912, "state": "BW", "stars": 5.0, "latitude": 49.006398, "attributes": {"Price Range": 1}, "type": "business"}
{"business_id": "M5qaph3f4UYT13TVbXiq3Q", "full_address": "Karlstra\u00dfe 21\n76133 Karlsruhe", "hours": {}, "open": true, "categories": ["Hair Salons", "Beauty & Spas"], "city": "Karlsruhe", "review_count": 4, "name": "C&M Friseur", "neighborhoods": [], "longitude": 8.3953327, "state": "BW", "stars": 2.5, "latitude": 49.0092009, "attributes": {"Wheelchair Accessible": false, "Price Range": 1}, "type": "business"}
{"business_id": "n5EMZZ4EfnPIgCfN3z4sfQ", "full_address": "Sophienstr. 68\n76133 Karlsruhe", "hours": {"Tuesday": {"close": "19:00", "open": "10:00"}, "Friday": {"close": "19:00", "open": "10:00"}, "Wednesday": {"close": "19:00", "open": "10:00"}, "Thursday": {"close": "19:00", "open": "10:00"}, "Saturday": {"close": "14:00", "open": "09:00"}}, "open": true, "categories": ["Hair Salons", "Beauty & Spas"], "city": "Karlsruhe", "review_count": 6, "name": "Kamm'In", "neighborhoods": [], "longitude": 8.38672, "state": "BW", "stars": 4.5, "latitude": 49.0078, "attributes": {"Price Range": 3}, "type": "business"}
{"business_id": "GLZnniRlevgOYkdLoVze-A", "full_address": "Leopoldstr. 56\n76275 Ettlingen", "hours": {}, "open": true, "categories": ["Hair Salons", "Hair Stylists", "Beauty & Spas"], "city": "Ettlingen", "review_count": 5, "name": "Hairkiller", "neighborhoods": [], "longitude": 8.4089486, "state": "BW", "stars": 5.0, "latitude": 48.9397829, "attributes": {"Parking": {"garage": false, "validated": false, "street": false, "lot": false, "valet": false}, "Accepts Credit Cards": false, "Wheelchair Accessible": false, "Price Range": 1}, "type": "business"}
{"business_id": "WF050Paitkk6zu1nYvxnfQ", "full_address": "R\u00fcppurer Stra\u00dfe 132\n76137 Karlsruhe", "hours": {}, "open": true, "categories": ["Hair Salons", "Hair Stylists", "Beauty & Spas"], "city": "Karlsruhe", "review_count": 5, "name": "dierollendenfriseure.de", "neighborhoods": [], "longitude": 8.4054053, "state": "BW", "stars": 5.0, "latitude": 48.9960045, "attributes": {"Accepts Credit Cards": true, "Wheelchair Accessible": true, "Price Range": 2}, "type": "business"}
{"business_id": "OSqi_tZwydODzqff2LCLtQ", "full_address": "Kaiserstr. 38\n76133 Karlsruhe", "hours": {}, "open": true, "categories": ["Hair Salons", "Hair Stylists", "Beauty & Spas"], "city": "Karlsruhe", "review_count": 9, "name": "Hairkiller", "neighborhoods": [], "longitude": 8.40767, "state": "BW", "stars": 4.0, "latitude": 49.0096, "attributes": {"Good for Kids": true, "Price Range": 1}, "type": "business"}
{"business_id": "tFsknMJ5yAafN1tAcfMVKA", "full_address": "Amalienstr. 25A\n76133 Karlsruhe", "hours": {}, "open": true, "categories": ["Hair Salons", "Hair Stylists", "Beauty & Spas"], "city": "Karlsruhe", "review_count": 4, "name": "Salon Friseur Jung / Haircut", "neighborhoods": [], "longitude": 8.3941, "state": "BW", "stars": 4.5, "latitude": 49.0081, "attributes": {"By Appointment Only": false, "Good for Kids": true, "Parking": {"garage": false, "street": false, "validated": false, "lot": false, "valet": false}, "Wheelchair Accessible": true, "Price Range": 1}, "type": "business"}
{"business_id": "UX8ORZVzrGK8AfZpIBd82A", "full_address": "Sophienstra\u00dfe 232\n76185 Karlsruhe", "hours": {"Tuesday": {"close": "18:30", "open": "09:00"}, "Friday": {"close": "20:00", "open": "09:00"}, "Wednesday": {"close": "18:30", "open": "09:00"}, "Thursday": {"close": "18:30", "open": "09:00"}, "Saturday": {"close": "15:00", "open": "09:00"}}, "open": true, "categories": ["Hair Salons", "Hair Stylists", "Beauty & Spas"], "city": "Karlsruhe", "review_count": 3, "name": "Glatzenf\u00f6hner", "neighborhoods": [], "longitude": 8.3654629, "state": "BW", "stars": 3.5, "latitude": 49.0101799, "attributes": {"Price Range": 2}, "type": "business"}
{"business_id": "j-v-m38xQvnFtdGsm6GXkQ", "full_address": "Ebertstr. 4\n76137 Karlsruhe", "hours": {"Tuesday": {"close": "19:00", "open": "09:00"}, "Friday": {"close": "18:00", "open": "09:00"}, "Wednesday": {"close": "18:00", "open": "09:00"}, "Thursday": {"close": "22:00", "open": "09:30"}, "Saturday": {"close": "13:00", "open": "08:00"}}, "open": true, "categories": ["Hair Salons", "Beauty & Spas"], "city": "Karlsruhe", "review_count": 7, "name": "ATIC Friseure", "neighborhoods": [], "longitude": 8.3974989, "state": "BW", "stars": 4.5, "latitude": 48.9945138, "attributes": {}, "type": "business"}
{"business_id": "Gg5MtU-QEaeazysV3jmn3A", "full_address": "Waldstr. 41\n76133 Karlsruhe", "hours": {"Monday": {"close": "20:00", "open": "11:00"}, "Tuesday": {"close": "20:00", "open": "11:00"}, "Friday": {"close": "20:00", "open": "11:00"}, "Wednesday": {"close": "20:00", "open": "11:00"}, "Thursday": {"close": "20:00", "open": "11:00"}, "Saturday": {"close": "18:00", "open": "11:00"}}, "open": true, "categories": ["Hair Salons", "Beauty & Spas"], "city": "Karlsruhe", "review_count": 3, "name": "Unisex", "neighborhoods": [], "longitude": 8.3808372, "state": "BW", "stars": 2.0, "latitude": 49.0176507, "attributes": {"Accepts Credit Cards": true, "Price Range": 3}, "type": "business"}
{"business_id": "cHuREuonkS-83voJLeQdqw", "full_address": "Waldstr. 40a\n76133 Karlsruhe", "hours": {"Monday": {"close": "20:00", "open": "06:00"}, "Tuesday": {"close": "20:00", "open": "06:00"}, "Friday": {"close": "20:00", "open": "06:00"}, "Wednesday": {"close": "20:00", "open": "06:00"}, "Thursday": {"close": "20:00", "open": "06:00"}, "Saturday": {"close": "14:00", "open": "06:00"}}, "open": true, "categories": ["Hair Salons", "Beauty & Spas"], "city": "Karlsruhe", "review_count": 6, "name": "Friseur Erwin G\u00e4rtner", "neighborhoods": [], "longitude": 8.3951608, "state": "BW", "stars": 4.5, "latitude": 49.0087709, "attributes": {"Parking": {"garage": false, "street": true, "validated": false, "lot": false, "valet": false}, "Price Range": 2}, "type": "business"}
{"business_id": "S_N2AIRJLgv8MVNnwe40Qg", "full_address": "Ettlinger Tor Platz 1\n76133 Karlsruhe", "hours": {"Monday": {"close": "20:00", "open": "09:00"}, "Tuesday": {"close": "20:00", "open": "09:00"}, "Friday": {"close": "20:00", "open": "09:00"}, "Wednesday": {"close": "20:00", "open": "09:00"}, "Thursday": {"close": "22:00", "open": "09:00"}, "Saturday": {"close": "20:00", "open": "09:00"}}, "open": true, "categories": ["Hair Salons", "Beauty & Spas"], "city": "Karlsruhe", "review_count": 5, "name": "Keller Hair Company", "neighborhoods": [], "longitude": 8.40342, "state": "BW", "stars": 3.5, "latitude": 49.0056, "attributes": {"Price Range": 2}, "type": "business"}
{"business_id": "MEqB2Dve64rklDl9GE-kRg", "full_address": "Georg Friedrich Str. 25\n76131 Karlsruhe", "hours": {}, "open": true, "categories": ["Hair Salons", "Beauty & Spas"], "city": "Karlsruhe", "review_count": 3, "name": "Salon Georg Friedrich", "neighborhoods": [], "longitude": 8.42393, "state": "BW", "stars": 3.5, "latitude": 49.0079, "attributes": {"Price Range": 1}, "type": "business"}
{"business_id": "bemaKNgSiq2pWvfUCmK6Zw", "full_address": "ECE-Center-Ettlinger-Tor\n76133 Karlsruhe", "hours": {}, "open": true, "categories": ["Hair Salons", "Hair Stylists", "Beauty & Spas"], "city": "Karlsruhe", "review_count": 3, "name": "Hair 'N' More", "neighborhoods": [], "longitude": 8.40376, "state": "BW", "stars": 4.5, "latitude": 49.0081, "attributes": {"Parking": {"garage": false, "validated": false, "street": false, "lot": false, "valet": false}, "Accepts Credit Cards": true, "Wheelchair Accessible": true, "Price Range": 2}, "type": "business"}
{"business_id": "mMo3W7sBDKXdYeWVSeKqMw", "full_address": "Kreuzstr. 19\n76133 Karlsruhe", "hours": {}, "open": true, "categories": ["Hair Salons", "Hair Stylists", "Beauty & Spas"], "city": "Karlsruhe", "review_count": 5, "name": "Max Lui", "neighborhoods": [], "longitude": 8.40578, "state": "BW", "stars": 4.0, "latitude": 49.007, "attributes": {"Parking": {"garage": false, "street": false, "validated": false, "lot": false, "valet": false}, "Price Range": 3}, "type": "business"}
