{"business_id": "rSCu0sU-3G6lZtSHKvZ_DA", "full_address": "Herm-Schneider-Allee 20\n76189 Karlsruhe", "hours": {}, "open": true, "categories": ["Pet Services", "Animal Shelters", "Pet Boarding/Pet Sitting", "Pets"], "city": "Karlsruhe", "review_count": 3, "name": "Tierschutzverein Karlsruhe u. Umgebung e.V.", "neighborhoods": [], "longitude": 8.31986, "state": "BW", "stars": 4.0, "latitude": 49.0039, "attributes": {}, "type": "business"}
{"business_id": "rSCu0sU-3G6lZtSHKvZ_DA", "full_address": "Herm-Schneider-Allee 20\n76189 Karlsruhe", "hours": {}, "open": true, "categories": ["Pet Services", "Animal Shelters", "Pet Boarding/Pet Sitting", "Pets"], "city": "Karlsruhe", "review_count": 3, "name": "Tierschutzverein Karlsruhe u. Umgebung e.V.", "neighborhoods": [], "longitude": 8.31986, "state": "BW", "stars": 4.0, "latitude": 49.0039, "attributes": {}, "type": "business"}
{"business_id": "rSCu0sU-3G6lZtSHKvZ_DA", "full_address": "Herm-Schneider-Allee 20\n76189 Karlsruhe", "hours": {}, "open": true, "categories": ["Pet Services", "Animal Shelters", "Pet Boarding/Pet Sitting", "Pets"], "city": "Karlsruhe", "review_count": 3, "name": "Tierschutzverein Karlsruhe u. Umgebung e.V.", "neighborhoods": [], "longitude": 8.31986, "state": "BW", "stars": 4.0, "latitude": 49.0039, "attributes": {}, "type": "business"}
{"business_id": "rSCu0sU-3G6lZtSHKvZ_DA", "full_address": "Herm-Schneider-Allee 20\n76189 Karlsruhe", "hours": {}, "open": true, "categories": ["Pet Services", "Animal Shelters", "Pet Boarding/Pet Sitting", "Pets"], "city": "Karlsruhe", "review_count": 3, "name": "Tierschutzverein Karlsruhe u. Umgebung e.V.", "neighborhoods": [], "longitude": 8.31986, "state": "BW", "stars": 4.0, "latitude": 49.0039, "attributes": {}, "type": "business"}
{"business_id": "rSCu0sU-3G6lZtSHKvZ_DA", "full_address": "Herm-Schneider-Allee 20\n76189 Karlsruhe", "hours": {}, "open": true, "categories": ["Pet Services", "Animal Shelters", "Pet Boarding/Pet Sitting", "Pets"], "city": "Karlsruhe", "review_count": 3, "name": "Tierschutzverein Karlsruhe u. Umgebung e.V.", "neighborhoods": [], "longitude": 8.31986, "state": "BW", "stars": 4.0, "latitude": 49.0039, "attributes": {}, "type": "business"}
{"business_id": "rSCu0sU-3G6lZtSHKvZ_DA", "full_address": "Herm-Schneider-Allee 20\n76189 Karlsruhe", "hours": {}, "open": true, "categories": ["Pet Services", "Animal Shelters", "Pet Boarding/Pet Sitting", "Pets"], "city": "Karlsruhe", "review_count": 3, "name": "Tierschutzverein Karlsruhe u. Umgebung e.V.", "neighborhoods": [], "longitude": 8.31986, "state": "BW", "stars": 4.0, "latitude": 49.0039, "attributes": {}, "type": "business"}
