{"business_id": "-czvRRDB6tTlo6HUzBTMwg", "full_address": "Ahaweg 6\n76131 Karlsruhe", "hours": {}, "open": true, "categories": ["Museums", "Arts & Entertainment", "Shopping", "Home Services", "Home & Garden", "Painters", "Home Decor"], "city": "Karlsruhe", "review_count": 4, "name": "Staatliche Majolika Manufaktur Karlsruhe", "neighborhoods": [], "longitude": 8.4023623, "state": "BW", "stars": 3.5, "latitude": 49.0177377, "attributes": {"Parking": {"garage": false, "street": false, "validated": false, "lot": false, "valet": false}, "Accepts Credit Cards": true, "Good for Kids": false, "Price Range": 4}, "type": "business"}
{"business_id": "zzlpdQ2GPcXj7mo0lut3Vg", "full_address": "Ettlinger Tor\nEttlinger-Tor-Platz 1\n76133 Karlsruhe", "hours": {}, "open": true, "categories": ["Gift Shops", "Flowers & Gifts", "Shopping", "Home Decor", "Home & Garden"], "city": "Karlsruhe", "review_count": 3, "name": "Nanu-Nana", "neighborhoods": [], "longitude": 8.40208, "state": "BW", "stars": 5.0, "latitude": 49.0067, "attributes": {"Accepts Credit Cards": true, "Price Range": 3}, "type": "business"}
{"business_id": "zik3Lj994wNXYkYoK1PqKQ", "full_address": "Am Storrenacker 2\n76139 Karlsruhe", "hours": {"Monday": {"close": "20:00", "open": "10:00"}, "Tuesday": {"close": "20:00", "open": "10:00"}, "Friday": {"close": "20:00", "open": "10:00"}, "Wednesday": {"close": "20:00", "open": "10:00"}, "Thursday": {"close": "20:00", "open": "10:00"}, "Saturday": {"close": "19:00", "open": "09:00"}}, "open": true, "categories": ["Shopping", "Home Decor", "Home & Garden", "Furniture Stores"], "city": "Karlsruhe", "review_count": 7, "name": "M\u00f6max", "neighborhoods": [], "longitude": 8.45814, "state": "BW", "stars": 2.0, "latitude": 49.02025, "attributes": {"Parking": {"garage": false, "validated": false, "street": false, "lot": false, "valet": false}, "Wheelchair Accessible": false, "Price Range": 2}, "type": "business"}
{"business_id": "HN7n-Ms4X-sXn2Yz-pKgwA", "full_address": "Ettlinger-Tor-Platz 1\n76133 Karlsruhe", "hours": {}, "open": true, "categories": ["Shopping", "Home Decor", "Home & Garden"], "city": "Karlsruhe", "review_count": 4, "name": "Depot", "neighborhoods": [], "longitude": 8.40308, "state": "BW", "stars": 5.0, "latitude": 49.0059, "attributes": {}, "type": "business"}
{"business_id": "tbLeodBE9W6ozoDgYuXM7w", "full_address": "Karlstr. 1a\n76133 Karlsruhe", "hours": {"Monday": {"close": "19:00", "open": "10:00"}, "Tuesday": {"close": "19:00", "open": "10:00"}, "Friday": {"close": "19:00", "open": "10:00"}, "Wednesday": {"close": "19:00", "open": "10:00"}, "Thursday": {"close": "19:00", "open": "10:00"}, "Saturday": {"close": "17:00", "open": "10:00"}}, "open": true, "categories": ["Home & Garden", "Flowers & Gifts", "Shopping", "Home Decor", "Florists"], "city": "Karlsruhe", "review_count": 3, "name": "Thomas Seith", "neighborhoods": [], "longitude": 8.3954, "state": "BW", "stars": 5.0, "latitude": 49.0118, "attributes": {}, "type": "business"}
{"business_id": "-czvRRDB6tTlo6HUzBTMwg", "full_address": "Ahaweg 6\n76131 Karlsruhe", "hours": {}, "open": true, "categories": ["Museums", "Arts & Entertainment", "Shopping", "Home Services", "Home & Garden", "Painters", "Home Decor"], "city": "Karlsruhe", "review_count": 4, "name": "Staatliche Majolika Manufaktur Karlsruhe", "neighborhoods": [], "longitude": 8.4023623, "state": "BW", "stars": 3.5, "latitude": 49.0177377, "attributes": {"Parking": {"garage": false, "street": false, "validated": false, "lot": false, "valet": false}, "Accepts Credit Cards": true, "Good for Kids": false, "Price Range": 4}, "type": "business"}
{"business_id": "zzlpdQ2GPcXj7mo0lut3Vg", "full_address": "Ettlinger Tor\nEttlinger-Tor-Platz 1\n76133 Karlsruhe", "hours": {}, "open": true, "categories": ["Gift Shops", "Flowers & Gifts", "Shopping", "Home Decor", "Home & Garden"], "city": "Karlsruhe", "review_count": 3, "name": "Nanu-Nana", "neighborhoods": [], "longitude": 8.40208, "state": "BW", "stars": 5.0, "latitude": 49.0067, "attributes": {"Accepts Credit Cards": true, "Price Range": 3}, "type": "business"}
{"business_id": "zik3Lj994wNXYkYoK1PqKQ", "full_address": "Am Storrenacker 2\n76139 Karlsruhe", "hours": {"Monday": {"close": "20:00", "open": "10:00"}, "Tuesday": {"close": "20:00", "open": "10:00"}, "Friday": {"close": "20:00", "open": "10:00"}, "Wednesday": {"close": "20:00", "open": "10:00"}, "Thursday": {"close": "20:00", "open": "10:00"}, "Saturday": {"close": "19:00", "open": "09:00"}}, "open": true, "categories": ["Shopping", "Home Decor", "Home & Garden", "Furniture Stores"], "city": "Karlsruhe", "review_count": 7, "name": "M\u00f6max", "neighborhoods": [], "longitude": 8.45814, "state": "BW", "stars": 2.0, "latitude": 49.02025, "attributes": {"Parking": {"garage": false, "validated": false, "street": false, "lot": false, "valet": false}, "Wheelchair Accessible": false, "Price Range": 2}, "type": "business"}
{"business_id": "HN7n-Ms4X-sXn2Yz-pKgwA", "full_address": "Ettlinger-Tor-Platz 1\n76133 Karlsruhe", "hours": {}, "open": true, "categories": ["Shopping", "Home Decor", "Home & Garden"], "city": "Karlsruhe", "review_count": 4, "name": "Depot", "neighborhoods": [], "longitude": 8.40308, "state": "BW", "stars": 5.0, "latitude": 49.0059, "attributes": {}, "type": "business"}
{"business_id": "tbLeodBE9W6ozoDgYuXM7w", "full_address": "Karlstr. 1a\n76133 Karlsruhe", "hours": {"Monday": {"close": "19:00", "open": "10:00"}, "Tuesday": {"close": "19:00", "open": "10:00"}, "Friday": {"close": "19:00", "open": "10:00"}, "Wednesday": {"close": "19:00", "open": "10:00"}, "Thursday": {"close": "19:00", "open": "10:00"}, "Saturday": {"close": "17:00", "open": "10:00"}}, "open": true, "categories": ["Home & Garden", "Flowers & Gifts", "Shopping", "Home Decor", "Florists"], "city": "Karlsruhe", "review_count": 3, "name": "Thomas Seith", "neighborhoods": [], "longitude": 8.3954, "state": "BW", "stars": 5.0, "latitude": 49.0118, "attributes": {}, "type": "business"}
{"business_id": "-czvRRDB6tTlo6HUzBTMwg", "full_address": "Ahaweg 6\n76131 Karlsruhe", "hours": {}, "open": true, "categories": ["Museums", "Arts & Entertainment", "Shopping", "Home Services", "Home & Garden", "Painters", "Home Decor"], "city": "Karlsruhe", "review_count": 4, "name": "Staatliche Majolika Manufaktur Karlsruhe", "neighborhoods": [], "longitude": 8.4023623, "state": "BW", "stars": 3.5, "latitude": 49.0177377, "attributes": {"Parking": {"garage": false, "street": false, "validated": false, "lot": false, "valet": false}, "Accepts Credit Cards": true, "Good for Kids": false, "Price Range": 4}, "type": "business"}
{"business_id": "zzlpdQ2GPcXj7mo0lut3Vg", "full_address": "Ettlinger Tor\nEttlinger-Tor-Platz 1\n76133 Karlsruhe", "hours": {}, "open": true, "categories": ["Gift Shops", "Flowers & Gifts", "Shopping", "Home Decor", "Home & Garden"], "city": "Karlsruhe", "review_count": 3, "name": "Nanu-Nana", "neighborhoods": [], "longitude": 8.40208, "state": "BW", "stars": 5.0, "latitude": 49.0067, "attributes": {"Accepts Credit Cards": true, "Price Range": 3}, "type": "business"}
{"business_id": "zik3Lj994wNXYkYoK1PqKQ", "full_address": "Am Storrenacker 2\n76139 Karlsruhe", "hours": {"Monday": {"close": "20:00", "open": "10:00"}, "Tuesday": {"close": "20:00", "open": "10:00"}, "Friday": {"close": "20:00", "open": "10:00"}, "Wednesday": {"close": "20:00", "open": "10:00"}, "Thursday": {"close": "20:00", "open": "10:00"}, "Saturday": {"close": "19:00", "open": "09:00"}}, "open": true, "categories": ["Shopping", "Home Decor", "Home & Garden", "Furniture Stores"], "city": "Karlsruhe", "review_count": 7, "name": "M\u00f6max", "neighborhoods": [], "longitude": 8.45814, "state": "BW", "stars": 2.0, "latitude": 49.02025, "attributes": {"Parking": {"garage": false, "validated": false, "street": false, "lot": false, "valet": false}, "Wheelchair Accessible": false, "Price Range": 2}, "type": "business"}
{"business_id": "HN7n-Ms4X-sXn2Yz-pKgwA", "full_address": "Ettlinger-Tor-Platz 1\n76133 Karlsruhe", "hours": {}, "open": true, "categories": ["Shopping", "Home Decor", "Home & Garden"], "city": "Karlsruhe", "review_count": 4, "name": "Depot", "neighborhoods": [], "longitude": 8.40308, "state": "BW", "stars": 5.0, "latitude": 49.0059, "attributes": {}, "type": "business"}
{"business_id": "tbLeodBE9W6ozoDgYuXM7w", "full_address": "Karlstr. 1a\n76133 Karlsruhe", "hours": {"Monday": {"close": "19:00", "open": "10:00"}, "Tuesday": {"close": "19:00", "open": "10:00"}, "Friday": {"close": "19:00", "open": "10:00"}, "Wednesday": {"close": "19:00", "open": "10:00"}, "Thursday": {"close": "19:00", "open": "10:00"}, "Saturday": {"close": "17:00", "open": "10:00"}}, "open": true, "categories": ["Home & Garden", "Flowers & Gifts", "Shopping", "Home Decor", "Florists"], "city": "Karlsruhe", "review_count": 3, "name": "Thomas Seith", "neighborhoods": [], "longitude": 8.3954, "state": "BW", "stars": 5.0, "latitude": 49.0118, "attributes": {}, "type": "business"}
{"business_id": "-czvRRDB6tTlo6HUzBTMwg", "full_address": "Ahaweg 6\n76131 Karlsruhe", "hours": {}, "open": true, "categories": ["Museums", "Arts & Entertainment", "Shopping", "Home Services", "Home & Garden", "Painters", "Home Decor"], "city": "Karlsruhe", "review_count": 4, "name": "Staatliche Majolika Manufaktur Karlsruhe", "neighborhoods": [], "longitude": 8.4023623, "state": "BW", "stars": 3.5, "latitude": 49.0177377, "attributes": {"Parking": {"garage": false, "street": false, "validated": false, "lot": false, "valet": false}, "Accepts Credit Cards": true, "Good for Kids": false, "Price Range": 4}, "type": "business"}
{"business_id": "zzlpdQ2GPcXj7mo0lut3Vg", "full_address": "Ettlinger Tor\nEttlinger-Tor-Platz 1\n76133 Karlsruhe", "hours": {}, "open": true, "categories": ["Gift Shops", "Flowers & Gifts", "Shopping", "Home Decor", "Home & Garden"], "city": "Karlsruhe", "review_count": 3, "name": "Nanu-Nana", "neighborhoods": [], "longitude": 8.40208, "state": "BW", "stars": 5.0, "latitude": 49.0067, "attributes": {"Accepts Credit Cards": true, "Price Range": 3}, "type": "business"}
{"business_id": "zik3Lj994wNXYkYoK1PqKQ", "full_address": "Am Storrenacker 2\n76139 Karlsruhe", "hours": {"Monday": {"close": "20:00", "open": "10:00"}, "Tuesday": {"close": "20:00", "open": "10:00"}, "Friday": {"close": "20:00", "open": "10:00"}, "Wednesday": {"close": "20:00", "open": "10:00"}, "Thursday": {"close": "20:00", "open": "10:00"}, "Saturday": {"close": "19:00", "open": "09:00"}}, "open": true, "categories": ["Shopping", "Home Decor", "Home & Garden", "Furniture Stores"], "city": "Karlsruhe", "review_count": 7, "name": "M\u00f6max", "neighborhoods": [], "longitude": 8.45814, "state": "BW", "stars": 2.0, "latitude": 49.02025, "attributes": {"Parking": {"garage": false, "validated": false, "street": false, "lot": false, "valet": false}, "Wheelchair Accessible": false, "Price Range": 2}, "type": "business"}
{"business_id": "HN7n-Ms4X-sXn2Yz-pKgwA", "full_address": "Ettlinger-Tor-Platz 1\n76133 Karlsruhe", "hours": {}, "open": true, "categories": ["Shopping", "Home Decor", "Home & Garden"], "city": "Karlsruhe", "review_count": 4, "name": "Depot", "neighborhoods": [], "longitude": 8.40308, "state": "BW", "stars": 5.0, "latitude": 49.0059, "attributes": {}, "type": "business"}
{"business_id": "tbLeodBE9W6ozoDgYuXM7w", "full_address": "Karlstr. 1a\n76133 Karlsruhe", "hours": {"Monday": {"close": "19:00", "open": "10:00"}, "Tuesday": {"close": "19:00", "open": "10:00"}, "Friday": {"close": "19:00", "open": "10:00"}, "Wednesday": {"close": "19:00", "open": "10:00"}, "Thursday": {"close": "19:00", "open": "10:00"}, "Saturday": {"close": "17:00", "open": "10:00"}}, "open": true, "categories": ["Home & Garden", "Flowers & Gifts", "Shopping", "Home Decor", "Florists"], "city": "Karlsruhe", "review_count": 3, "name": "Thomas Seith", "neighborhoods": [], "longitude": 8.3954, "state": "BW", "stars": 5.0, "latitude": 49.0118, "attributes": {}, "type": "business"}
{"business_id": "-czvRRDB6tTlo6HUzBTMwg", "full_address": "Ahaweg 6\n76131 Karlsruhe", "hours": {}, "open": true, "categories": ["Museums", "Arts & Entertainment", "Shopping", "Home Services", "Home & Garden", "Painters", "Home Decor"], "city": "Karlsruhe", "review_count": 4, "name": "Staatliche Majolika Manufaktur Karlsruhe", "neighborhoods": [], "longitude": 8.4023623, "state": "BW", "stars": 3.5, "latitude": 49.0177377, "attributes": {"Parking": {"garage": false, "street": false, "validated": false, "lot": false, "valet": false}, "Accepts Credit Cards": true, "Good for Kids": false, "Price Range": 4}, "type": "business"}
{"business_id": "zzlpdQ2GPcXj7mo0lut3Vg", "full_address": "Ettlinger Tor\nEttlinger-Tor-Platz 1\n76133 Karlsruhe", "hours": {}, "open": true, "categories": ["Gift Shops", "Flowers & Gifts", "Shopping", "Home Decor", "Home & Garden"], "city": "Karlsruhe", "review_count": 3, "name": "Nanu-Nana", "neighborhoods": [], "longitude": 8.40208, "state": "BW", "stars": 5.0, "latitude": 49.0067, "attributes": {"Accepts Credit Cards": true, "Price Range": 3}, "type": "business"}
{"business_id": "zik3Lj994wNXYkYoK1PqKQ", "full_address": "Am Storrenacker 2\n76139 Karlsruhe", "hours": {"Monday": {"close": "20:00", "open": "10:00"}, "Tuesday": {"close": "20:00", "open": "10:00"}, "Friday": {"close": "20:00", "open": "10:00"}, "Wednesday": {"close": "20:00", "open": "10:00"}, "Thursday": {"close": "20:00", "open": "10:00"}, "Saturday": {"close": "19:00", "open": "09:00"}}, "open": true, "categories": ["Shopping", "Home Decor", "Home & Garden", "Furniture Stores"], "city": "Karlsruhe", "review_count": 7, "name": "M\u00f6max", "neighborhoods": [], "longitude": 8.45814, "state": "BW", "stars": 2.0, "latitude": 49.02025, "attributes": {"Parking": {"garage": false, "validated": false, "street": false, "lot": false, "valet": false}, "Wheelchair Accessible": false, "Price Range": 2}, "type": "business"}
{"business_id": "HN7n-Ms4X-sXn2Yz-pKgwA", "full_address": "Ettlinger-Tor-Platz 1\n76133 Karlsruhe", "hours": {}, "open": true, "categories": ["Shopping", "Home Decor", "Home & Garden"], "city": "Karlsruhe", "review_count": 4, "name": "Depot", "neighborhoods": [], "longitude": 8.40308, "state": "BW", "stars": 5.0, "latitude": 49.0059, "attributes": {}, "type": "business"}
{"business_id": "tbLeodBE9W6ozoDgYuXM7w", "full_address": "Karlstr. 1a\n76133 Karlsruhe", "hours": {"Monday": {"close": "19:00", "open": "10:00"}, "Tuesday": {"close": "19:00", "open": "10:00"}, "Friday": {"close": "19:00", "open": "10:00"}, "Wednesday": {"close": "19:00", "open": "10:00"}, "Thursday": {"close": "19:00", "open": "10:00"}, "Saturday": {"close": "17:00", "open": "10:00"}}, "open": true, "categories": ["Home & Garden", "Flowers & Gifts", "Shopping", "Home Decor", "Florists"], "city": "Karlsruhe", "review_count": 3, "name": "Thomas Seith", "neighborhoods": [], "longitude": 8.3954, "state": "BW", "stars": 5.0, "latitude": 49.0118, "attributes": {}, "type": "business"}
{"business_id": "-czvRRDB6tTlo6HUzBTMwg", "full_address": "Ahaweg 6\n76131 Karlsruhe", "hours": {}, "open": true, "categories": ["Museums", "Arts & Entertainment", "Shopping", "Home Services", "Home & Garden", "Painters", "Home Decor"], "city": "Karlsruhe", "review_count": 4, "name": "Staatliche Majolika Manufaktur Karlsruhe", "neighborhoods": [], "longitude": 8.4023623, "state": "BW", "stars": 3.5, "latitude": 49.0177377, "attributes": {"Parking": {"garage": false, "street": false, "validated": false, "lot": false, "valet": false}, "Accepts Credit Cards": true, "Good for Kids": false, "Price Range": 4}, "type": "business"}
{"business_id": "zzlpdQ2GPcXj7mo0lut3Vg", "full_address": "Ettlinger Tor\nEttlinger-Tor-Platz 1\n76133 Karlsruhe", "hours": {}, "open": true, "categories": ["Gift Shops", "Flowers & Gifts", "Shopping", "Home Decor", "Home & Garden"], "city": "Karlsruhe", "review_count": 3, "name": "Nanu-Nana", "neighborhoods": [], "longitude": 8.40208, "state": "BW", "stars": 5.0, "latitude": 49.0067, "attributes": {"Accepts Credit Cards": true, "Price Range": 3}, "type": "business"}
{"business_id": "zik3Lj994wNXYkYoK1PqKQ", "full_address": "Am Storrenacker 2\n76139 Karlsruhe", "hours": {"Monday": {"close": "20:00", "open": "10:00"}, "Tuesday": {"close": "20:00", "open": "10:00"}, "Friday": {"close": "20:00", "open": "10:00"}, "Wednesday": {"close": "20:00", "open": "10:00"}, "Thursday": {"close": "20:00", "open": "10:00"}, "Saturday": {"close": "19:00", "open": "09:00"}}, "open": true, "categories": ["Shopping", "Home Decor", "Home & Garden", "Furniture Stores"], "city": "Karlsruhe", "review_count": 7, "name": "M\u00f6max", "neighborhoods": [], "longitude": 8.45814, "state": "BW", "stars": 2.0, "latitude": 49.02025, "attributes": {"Parking": {"garage": false, "validated": false, "street": false, "lot": false, "valet": false}, "Wheelchair Accessible": false, "Price Range": 2}, "type": "business"}
{"business_id": "HN7n-Ms4X-sXn2Yz-pKgwA", "full_address": "Ettlinger-Tor-Platz 1\n76133 Karlsruhe", "hours": {}, "open": true, "categories": ["Shopping", "Home Decor", "Home & Garden"], "city": "Karlsruhe", "review_count": 4, "name": "Depot", "neighborhoods": [], "longitude": 8.40308, "state": "BW", "stars": 5.0, "latitude": 49.0059, "attributes": {}, "type": "business"}
{"business_id": "tbLeodBE9W6ozoDgYuXM7w", "full_address": "Karlstr. 1a\n76133 Karlsruhe", "hours": {"Monday": {"close": "19:00", "open": "10:00"}, "Tuesday": {"close": "19:00", "open": "10:00"}, "Friday": {"close": "19:00", "open": "10:00"}, "Wednesday": {"close": "19:00", "open": "10:00"}, "Thursday": {"close": "19:00", "open": "10:00"}, "Saturday": {"close": "17:00", "open": "10:00"}}, "open": true, "categories": ["Home & Garden", "Flowers & Gifts", "Shopping", "Home Decor", "Florists"], "city": "Karlsruhe", "review_count": 3, "name": "Thomas Seith", "neighborhoods": [], "longitude": 8.3954, "state": "BW", "stars": 5.0, "latitude": 49.0118, "attributes": {}, "type": "business"}
