{"business_id": "4Wv8jwjLXc5NmxDOfhHEPw", "full_address": "Z\u00e4hringerstr. 49\n76133 Karlsruhe", "hours": {"Monday": {"close": "20:00", "open": "11:00"}, "Tuesday": {"close": "20:00", "open": "11:00"}, "Friday": {"close": "20:00", "open": "11:00"}, "Wednesday": {"close": "20:00", "open": "11:00"}, "Thursday": {"close": "20:00", "open": "11:00"}, "Saturday": {"close": "18:00", "open": "10:00"}}, "open": true, "categories": ["Food", "Ethnic Grocery"], "city": "Karlsruhe", "review_count": 3, "name": "Kim's Laden", "neighborhoods": [], "longitude": 8.4076764, "state": "BW", "stars": 4.5, "latitude": 49.0086534, "attributes": {"Price Range": 2}, "type": "business"}
{"business_id": "qtpzo1XcFu7SnPsrtLH3cw", "full_address": "Ebertstr.  42-44\n76137 Karlsruhe", "hours": {"Monday": {"close": "18:30", "open": "09:00"}, "Tuesday": {"close": "18:30", "open": "09:00"}, "Friday": {"close": "18:30", "open": "09:00"}, "Wednesday": {"close": "18:30", "open": "09:00"}, "Thursday": {"close": "18:30", "open": "09:00"}, "Saturday": {"close": "16:00", "open": "09:00"}}, "open": true, "categories": ["Food", "Ethnic Grocery"], "city": "Karlsruhe", "review_count": 6, "name": "Lang Asiashop", "neighborhoods": [], "longitude": 8.3879918, "state": "BW", "stars": 4.5, "latitude": 48.9951096, "attributes": {"Price Range": 2}, "type": "business"}
{"business_id": "R8TNHc1Gw6LOVtflqgSelg", "full_address": "Karlstr. 42-44\n76133 Karlsruhe", "hours": {"Monday": {"close": "19:00", "open": "07:00"}, "Tuesday": {"close": "19:00", "open": "07:00"}, "Friday": {"close": "19:00", "open": "07:00"}, "Wednesday": {"close": "19:00", "open": "07:00"}, "Thursday": {"close": "19:00", "open": "07:00"}, "Saturday": {"close": "16:00", "open": "07:00"}}, "open": true, "categories": ["Food", "Delicatessen", "Ethnic Grocery"], "city": "Karlsruhe", "review_count": 13, "name": "Da Serio", "neighborhoods": [], "longitude": 8.3944138, "state": "BW", "stars": 4.0, "latitude": 49.0059996, "attributes": {"Parking": {"garage": false, "validated": false, "street": false, "lot": false, "valet": false}, "Accepts Credit Cards": false, "Wheelchair Accessible": true, "Price Range": 3}, "type": "business"}
{"business_id": "4Wv8jwjLXc5NmxDOfhHEPw", "full_address": "Z\u00e4hringerstr. 49\n76133 Karlsruhe", "hours": {"Monday": {"close": "20:00", "open": "11:00"}, "Tuesday": {"close": "20:00", "open": "11:00"}, "Friday": {"close": "20:00", "open": "11:00"}, "Wednesday": {"close": "20:00", "open": "11:00"}, "Thursday": {"close": "20:00", "open": "11:00"}, "Saturday": {"close": "18:00", "open": "10:00"}}, "open": true, "categories": ["Food", "Ethnic Grocery"], "city": "Karlsruhe", "review_count": 3, "name": "Kim's Laden", "neighborhoods": [], "longitude": 8.4076764, "state": "BW", "stars": 4.5, "latitude": 49.0086534, "attributes": {"Price Range": 2}, "type": "business"}
{"business_id": "qtpzo1XcFu7SnPsrtLH3cw", "full_address": "Ebertstr.  42-44\n76137 Karlsruhe", "hours": {"Monday": {"close": "18:30", "open": "09:00"}, "Tuesday": {"close": "18:30", "open": "09:00"}, "Friday": {"close": "18:30", "open": "09:00"}, "Wednesday": {"close": "18:30", "open": "09:00"}, "Thursday": {"close": "18:30", "open": "09:00"}, "Saturday": {"close": "16:00", "open": "09:00"}}, "open": true, "categories": ["Food", "Ethnic Grocery"], "city": "Karlsruhe", "review_count": 6, "name": "Lang Asiashop", "neighborhoods": [], "longitude": 8.3879918, "state": "BW", "stars": 4.5, "latitude": 48.9951096, "attributes": {"Price Range": 2}, "type": "business"}
{"business_id": "R8TNHc1Gw6LOVtflqgSelg", "full_address": "Karlstr. 42-44\n76133 Karlsruhe", "hours": {"Monday": {"close": "19:00", "open": "07:00"}, "Tuesday": {"close": "19:00", "open": "07:00"}, "Friday": {"close": "19:00", "open": "07:00"}, "Wednesday": {"close": "19:00", "open": "07:00"}, "Thursday": {"close": "19:00", "open": "07:00"}, "Saturday": {"close": "16:00", "open": "07:00"}}, "open": true, "categories": ["Food", "Delicatessen", "Ethnic Grocery"], "city": "Karlsruhe", "review_count": 13, "name": "Da Serio", "neighborhoods": [], "longitude": 8.3944138, "state": "BW", "stars": 4.0, "latitude": 49.0059996, "attributes": {"Parking": {"garage": false, "validated": false, "street": false, "lot": false, "valet": false}, "Accepts Credit Cards": false, "Wheelchair Accessible": true, "Price Range": 3}, "type": "business"}
{"business_id": "4Wv8jwjLXc5NmxDOfhHEPw", "full_address": "Z\u00e4hringerstr. 49\n76133 Karlsruhe", "hours": {"Monday": {"close": "20:00", "open": "11:00"}, "Tuesday": {"close": "20:00", "open": "11:00"}, "Friday": {"close": "20:00", "open": "11:00"}, "Wednesday": {"close": "20:00", "open": "11:00"}, "Thursday": {"close": "20:00", "open": "11:00"}, "Saturday": {"close": "18:00", "open": "10:00"}}, "open": true, "categories": ["Food", "Ethnic Grocery"], "city": "Karlsruhe", "review_count": 3, "name": "Kim's Laden", "neighborhoods": [], "longitude": 8.4076764, "state": "BW", "stars": 4.5, "latitude": 49.0086534, "attributes": {"Price Range": 2}, "type": "business"}
{"business_id": "qtpzo1XcFu7SnPsrtLH3cw", "full_address": "Ebertstr.  42-44\n76137 Karlsruhe", "hours": {"Monday": {"close": "18:30", "open": "09:00"}, "Tuesday": {"close": "18:30", "open": "09:00"}, "Friday": {"close": "18:30", "open": "09:00"}, "Wednesday": {"close": "18:30", "open": "09:00"}, "Thursday": {"close": "18:30", "open": "09:00"}, "Saturday": {"close": "16:00", "open": "09:00"}}, "open": true, "categories": ["Food", "Ethnic Grocery"], "city": "Karlsruhe", "review_count": 6, "name": "Lang Asiashop", "neighborhoods": [], "longitude": 8.3879918, "state": "BW", "stars": 4.5, "latitude": 48.9951096, "attributes": {"Price Range": 2}, "type": "business"}
{"business_id": "R8TNHc1Gw6LOVtflqgSelg", "full_address": "Karlstr. 42-44\n76133 Karlsruhe", "hours": {"Monday": {"close": "19:00", "open": "07:00"}, "Tuesday": {"close": "19:00", "open": "07:00"}, "Friday": {"close": "19:00", "open": "07:00"}, "Wednesday": {"close": "19:00", "open": "07:00"}, "Thursday": {"close": "19:00", "open": "07:00"}, "Saturday": {"close": "16:00", "open": "07:00"}}, "open": true, "categories": ["Food", "Delicatessen", "Ethnic Grocery"], "city": "Karlsruhe", "review_count": 13, "name": "Da Serio", "neighborhoods": [], "longitude": 8.3944138, "state": "BW", "stars": 4.0, "latitude": 49.0059996, "attributes": {"Parking": {"garage": false, "validated": false, "street": false, "lot": false, "valet": false}, "Accepts Credit Cards": false, "Wheelchair Accessible": true, "Price Range": 3}, "type": "business"}
{"business_id": "4Wv8jwjLXc5NmxDOfhHEPw", "full_address": "Z\u00e4hringerstr. 49\n76133 Karlsruhe", "hours": {"Monday": {"close": "20:00", "open": "11:00"}, "Tuesday": {"close": "20:00", "open": "11:00"}, "Friday": {"close": "20:00", "open": "11:00"}, "Wednesday": {"close": "20:00", "open": "11:00"}, "Thursday": {"close": "20:00", "open": "11:00"}, "Saturday": {"close": "18:00", "open": "10:00"}}, "open": true, "categories": ["Food", "Ethnic Grocery"], "city": "Karlsruhe", "review_count": 3, "name": "Kim's Laden", "neighborhoods": [], "longitude": 8.4076764, "state": "BW", "stars": 4.5, "latitude": 49.0086534, "attributes": {"Price Range": 2}, "type": "business"}
{"business_id": "qtpzo1XcFu7SnPsrtLH3cw", "full_address": "Ebertstr.  42-44\n76137 Karlsruhe", "hours": {"Monday": {"close": "18:30", "open": "09:00"}, "Tuesday": {"close": "18:30", "open": "09:00"}, "Friday": {"close": "18:30", "open": "09:00"}, "Wednesday": {"close": "18:30", "open": "09:00"}, "Thursday": {"close": "18:30", "open": "09:00"}, "Saturday": {"close": "16:00", "open": "09:00"}}, "open": true, "categories": ["Food", "Ethnic Grocery"], "city": "Karlsruhe", "review_count": 6, "name": "Lang Asiashop", "neighborhoods": [], "longitude": 8.3879918, "state": "BW", "stars": 4.5, "latitude": 48.9951096, "attributes": {"Price Range": 2}, "type": "business"}
{"business_id": "R8TNHc1Gw6LOVtflqgSelg", "full_address": "Karlstr. 42-44\n76133 Karlsruhe", "hours": {"Monday": {"close": "19:00", "open": "07:00"}, "Tuesday": {"close": "19:00", "open": "07:00"}, "Friday": {"close": "19:00", "open": "07:00"}, "Wednesday": {"close": "19:00", "open": "07:00"}, "Thursday": {"close": "19:00", "open": "07:00"}, "Saturday": {"close": "16:00", "open": "07:00"}}, "open": true, "categories": ["Food", "Delicatessen", "Ethnic Grocery"], "city": "Karlsruhe", "review_count": 13, "name": "Da Serio", "neighborhoods": [], "longitude": 8.3944138, "state": "BW", "stars": 4.0, "latitude": 49.0059996, "attributes": {"Parking": {"garage": false, "validated": false, "street": false, "lot": false, "valet": false}, "Accepts Credit Cards": false, "Wheelchair Accessible": true, "Price Range": 3}, "type": "business"}
{"business_id": "4Wv8jwjLXc5NmxDOfhHEPw", "full_address": "Z\u00e4hringerstr. 49\n76133 Karlsruhe", "hours": {"Monday": {"close": "20:00", "open": "11:00"}, "Tuesday": {"close": "20:00", "open": "11:00"}, "Friday": {"close": "20:00", "open": "11:00"}, "Wednesday": {"close": "20:00", "open": "11:00"}, "Thursday": {"close": "20:00", "open": "11:00"}, "Saturday": {"close": "18:00", "open": "10:00"}}, "open": true, "categories": ["Food", "Ethnic Grocery"], "city": "Karlsruhe", "review_count": 3, "name": "Kim's Laden", "neighborhoods": [], "longitude": 8.4076764, "state": "BW", "stars": 4.5, "latitude": 49.0086534, "attributes": {"Price Range": 2}, "type": "business"}
{"business_id": "qtpzo1XcFu7SnPsrtLH3cw", "full_address": "Ebertstr.  42-44\n76137 Karlsruhe", "hours": {"Monday": {"close": "18:30", "open": "09:00"}, "Tuesday": {"close": "18:30", "open": "09:00"}, "Friday": {"close": "18:30", "open": "09:00"}, "Wednesday": {"close": "18:30", "open": "09:00"}, "Thursday": {"close": "18:30", "open": "09:00"}, "Saturday": {"close": "16:00", "open": "09:00"}}, "open": true, "categories": ["Food", "Ethnic Grocery"], "city": "Karlsruhe", "review_count": 6, "name": "Lang Asiashop", "neighborhoods": [], "longitude": 8.3879918, "state": "BW", "stars": 4.5, "latitude": 48.9951096, "attributes": {"Price Range": 2}, "type": "business"}
{"business_id": "R8TNHc1Gw6LOVtflqgSelg", "full_address": "Karlstr. 42-44\n76133 Karlsruhe", "hours": {"Monday": {"close": "19:00", "open": "07:00"}, "Tuesday": {"close": "19:00", "open": "07:00"}, "Friday": {"close": "19:00", "open": "07:00"}, "Wednesday": {"close": "19:00", "open": "07:00"}, "Thursday": {"close": "19:00", "open": "07:00"}, "Saturday": {"close": "16:00", "open": "07:00"}}, "open": true, "categories": ["Food", "Delicatessen", "Ethnic Grocery"], "city": "Karlsruhe", "review_count": 13, "name": "Da Serio", "neighborhoods": [], "longitude": 8.3944138, "state": "BW", "stars": 4.0, "latitude": 49.0059996, "attributes": {"Parking": {"garage": false, "validated": false, "street": false, "lot": false, "valet": false}, "Accepts Credit Cards": false, "Wheelchair Accessible": true, "Price Range": 3}, "type": "business"}
{"business_id": "4Wv8jwjLXc5NmxDOfhHEPw", "full_address": "Z\u00e4hringerstr. 49\n76133 Karlsruhe", "hours": {"Monday": {"close": "20:00", "open": "11:00"}, "Tuesday": {"close": "20:00", "open": "11:00"}, "Friday": {"close": "20:00", "open": "11:00"}, "Wednesday": {"close": "20:00", "open": "11:00"}, "Thursday": {"close": "20:00", "open": "11:00"}, "Saturday": {"close": "18:00", "open": "10:00"}}, "open": true, "categories": ["Food", "Ethnic Grocery"], "city": "Karlsruhe", "review_count": 3, "name": "Kim's Laden", "neighborhoods": [], "longitude": 8.4076764, "state": "BW", "stars": 4.5, "latitude": 49.0086534, "attributes": {"Price Range": 2}, "type": "business"}
{"business_id": "qtpzo1XcFu7SnPsrtLH3cw", "full_address": "Ebertstr.  42-44\n76137 Karlsruhe", "hours": {"Monday": {"close": "18:30", "open": "09:00"}, "Tuesday": {"close": "18:30", "open": "09:00"}, "Friday": {"close": "18:30", "open": "09:00"}, "Wednesday": {"close": "18:30", "open": "09:00"}, "Thursday": {"close": "18:30", "open": "09:00"}, "Saturday": {"close": "16:00", "open": "09:00"}}, "open": true, "categories": ["Food", "Ethnic Grocery"], "city": "Karlsruhe", "review_count": 6, "name": "Lang Asiashop", "neighborhoods": [], "longitude": 8.3879918, "state": "BW", "stars": 4.5, "latitude": 48.9951096, "attributes": {"Price Range": 2}, "type": "business"}
{"business_id": "R8TNHc1Gw6LOVtflqgSelg", "full_address": "Karlstr. 42-44\n76133 Karlsruhe", "hours": {"Monday": {"close": "19:00", "open": "07:00"}, "Tuesday": {"close": "19:00", "open": "07:00"}, "Friday": {"close": "19:00", "open": "07:00"}, "Wednesday": {"close": "19:00", "open": "07:00"}, "Thursday": {"close": "19:00", "open": "07:00"}, "Saturday": {"close": "16:00", "open": "07:00"}}, "open": true, "categories": ["Food", "Delicatessen", "Ethnic Grocery"], "city": "Karlsruhe", "review_count": 13, "name": "Da Serio", "neighborhoods": [], "longitude": 8.3944138, "state": "BW", "stars": 4.0, "latitude": 49.0059996, "attributes": {"Parking": {"garage": false, "validated": false, "street": false, "lot": false, "valet": false}, "Accepts Credit Cards": false, "Wheelchair Accessible": true, "Price Range": 3}, "type": "business"}
