{"business_id": "zpMiSnjnr8tiLdQkIExWFw", "full_address": "Hardeckstr. 8\n76185 Karlsruhe", "hours": {}, "open": true, "categories": ["Auto Repair", "Automotive", "Car Wash"], "city": "Karlsruhe", "review_count": 3, "name": "Flott Autowaschbahn Marianne Molter", "neighborhoods": [], "longitude": 8.3618, "state": "BW", "stars": 5.0, "latitude": 48.99888, "attributes": {"Price Range": 2}, "type": "business"}
{"business_id": "YONT5EFwfR0i2St1lU7SpA", "full_address": "Wattstr. 6-8\n76185 Karlsruhe", "hours": {}, "open": true, "categories": ["Auto Repair", "Automotive", "Car Dealers"], "city": "Karlsruhe", "review_count": 3, "name": "Autohaus Streit", "neighborhoods": [], "longitude": 8.3600327, "state": "BW", "stars": 3.0, "latitude": 49.0327945, "attributes": {"Parking": {"garage": false, "validated": false, "street": false, "lot": false, "valet": false}, "Wheelchair Accessible": true, "Price Range": 3}, "type": "business"}
{"business_id": "FZpJfZGc1pGaGXabeJuVHw", "full_address": "Pforzheimer Str. 78-104\n76275 Ettlingen", "hours": {"Monday": {"close": "18:30", "open": "08:30"}, "Tuesday": {"close": "18:30", "open": "08:30"}, "Friday": {"close": "18:30", "open": "08:30"}, "Wednesday": {"close": "18:30", "open": "08:30"}, "Thursday": {"close": "18:30", "open": "08:30"}, "Saturday": {"close": "13:00", "open": "09:00"}}, "open": true, "categories": ["Auto Repair", "Automotive", "Car Dealers"], "city": "Ettlingen", "review_count": 3, "name": "Auto-Krasser", "neighborhoods": [], "longitude": 8.42609, "state": "BW", "stars": 2.5, "latitude": 48.9348, "attributes": {"Wheelchair Accessible": true, "Parking": {"garage": false, "validated": false, "street": false, "lot": false, "valet": false}}, "type": "business"}
{"business_id": "PxfqJwIO-QCB3y96Dw54Vg", "full_address": "Ottostr. 5\n76227 Karlsruhe", "hours": {}, "open": true, "categories": ["Auto Repair", "Automotive", "Car Dealers"], "city": "Karlsruhe", "review_count": 4, "name": "Autohaus J\u00fcttner", "neighborhoods": [], "longitude": 8.44667, "state": "BW", "stars": 2.5, "latitude": 48.99606, "attributes": {"Parking": {"garage": false, "validated": false, "street": false, "lot": false, "valet": false}, "Accepts Credit Cards": false, "Wheelchair Accessible": true, "Price Range": 3}, "type": "business"}
{"business_id": "VPGbUwQa3enU1ic7ntND7A", "full_address": "Gerwigstr. 83\n76131 Karlsruhe", "hours": {}, "open": true, "categories": ["Auto Repair", "Automotive", "Car Dealers"], "city": "Karlsruhe", "review_count": 5, "name": "Audi Zentrum Karlsruhe", "neighborhoods": [], "longitude": 8.44226, "state": "BW", "stars": 2.5, "latitude": 49.0062, "attributes": {"Price Range": 4}, "type": "business"}
{"business_id": "HIlcj33VY5Aa6eOuyu04Og", "full_address": "Dieselstr. 1\n76448 Durmersheim", "hours": {}, "open": true, "categories": ["Auto Repair", "Automotive"], "city": "Durmersheim", "review_count": 3, "name": "Autoservice Maier", "neighborhoods": [], "longitude": 8.262, "state": "BW", "stars": 3.5, "latitude": 48.9414, "attributes": {"Price Range": 2}, "type": "business"}
{"business_id": "NEYJeDUNiWVHJY2jQ8AbUA", "full_address": "Ottostr. 22\n76227 Karlsruhe", "hours": {}, "open": true, "categories": ["Auto Repair", "Automotive", "Car Rental", "Car Dealers", "Hotels & Travel"], "city": "Karlsruhe", "review_count": 4, "name": "Ungeheuer Automobile Bmw Vertragsh\u00e4ndler Autohaus", "neighborhoods": [], "longitude": 8.43545, "state": "BW", "stars": 1.0, "latitude": 48.9966, "attributes": {"Price Range": 4}, "type": "business"}
{"business_id": "8ZGrdBf9yv0hJt1aZgX7dA", "full_address": "Haid-und-Neu-Str. 30a\n76131 Karlsruhe", "hours": {}, "open": true, "categories": ["Automotive", "Gas & Service Stations"], "city": "Karlsruhe", "review_count": 5, "name": "Jet Tankstelle Gerhard Hamm", "neighborhoods": [], "longitude": 8.42881, "state": "BW", "stars": 4.0, "latitude": 49.0133, "attributes": {"Parking": {"garage": false, "validated": false, "street": false, "lot": false, "valet": false}, "Accepts Credit Cards": true, "Wheelchair Accessible": true, "Price Range": 1}, "type": "business"}
{"business_id": "KVxIu47Od2rnDvGWmO1KCA", "full_address": "Zeppelinstr. 8\n76448 Durmersheim", "hours": {}, "open": true, "categories": ["Tires", "Automotive", "Car Dealers"], "city": "Durmersheim", "review_count": 3, "name": "Reifenhaus Feller", "neighborhoods": [], "longitude": 8.26244, "state": "BW", "stars": 1.5, "latitude": 48.9416, "attributes": {"Parking": {"garage": false, "validated": false, "street": false, "lot": false, "valet": false}, "Accepts Credit Cards": true, "Wheelchair Accessible": true, "Price Range": 3}, "type": "business"}
{"business_id": "HIZTPZ4tXvB_EbNh3DFFNQ", "full_address": "Ludwig-Wilhelm-Str. 15\n76131 Karlsruhe", "hours": {}, "open": true, "categories": ["Hotels & Travel", "Car Rental", "Automotive"], "city": "Karlsruhe", "review_count": 10, "name": "Stadtmobil CarSharing", "neighborhoods": [], "longitude": 8.42235, "state": "BW", "stars": 4.5, "latitude": 49.0095, "attributes": {"Price Range": 1}, "type": "business"}
{"business_id": "PuPi36oN9F0O8LsIK6yMng", "full_address": "Stuttgarter Str. 57\n76137 Karlsruhe", "hours": {}, "open": true, "categories": ["Car Wash", "Automotive"], "city": "Karlsruhe", "review_count": 4, "name": "Imo Autopflege", "neighborhoods": [], "longitude": 8.4228224, "state": "BW", "stars": 3.5, "latitude": 49.0017255, "attributes": {"Price Range": 3}, "type": "business"}
{"business_id": "UEm1wCQvtUlXJJYhV_ckRw", "full_address": "Pulverhausstr. 38\n76135 Karlsruhe", "hours": {}, "open": true, "categories": ["Car Wash", "Automotive"], "city": "Karlsruhe", "review_count": 5, "name": "IMO-Autowaschstra\u00dfe", "neighborhoods": [], "longitude": 8.37151, "state": "BW", "stars": 5.0, "latitude": 48.9906, "attributes": {"Accepts Credit Cards": false, "Wheelchair Accessible": true, "Price Range": 2}, "type": "business"}
{"business_id": "4N3t84XBpdBk0b1D6d9oYw", "full_address": "Karlsruher Str. 50\n76275 Ettlingen", "hours": {}, "open": true, "categories": ["Automotive", "Gas & Service Stations"], "city": "Ettlingen", "review_count": 4, "name": "Aral", "neighborhoods": [], "longitude": 8.40667, "state": "BW", "stars": 4.0, "latitude": 48.9581, "attributes": {"Price Range": 3}, "type": "business"}
{"business_id": "cNHMLhlDBLeMP-UcES677g", "full_address": "Am M\u00fchlburger Bahnhof  10\nbeim Autohaus Zschernitz\n76189 Karlsruhe", "hours": {"Monday": {"close": "19:00", "open": "09:00"}, "Tuesday": {"close": "19:00", "open": "09:00"}, "Friday": {"close": "19:00", "open": "09:00"}, "Wednesday": {"close": "19:00", "open": "09:00"}, "Thursday": {"close": "19:00", "open": "09:00"}, "Saturday": {"close": "17:00", "open": "09:00"}}, "open": true, "categories": ["Automotive"], "city": "Karlsruhe", "review_count": 4, "name": "Beauty Car", "neighborhoods": [], "longitude": 8.35114, "state": "BW", "stars": 3.0, "latitude": 49.016, "attributes": {"Parking": {"garage": false, "validated": false, "street": false, "lot": false, "valet": false}, "Accepts Credit Cards": false, "Price Range": 2}, "type": "business"}
{"business_id": "uwlK60hWjozFJULa5etk6A", "full_address": "Ottostr. 6\n76227 Karlsruhe", "hours": {"Monday": {"close": "19:00", "open": "08:00"}, "Tuesday": {"close": "19:00", "open": "08:00"}, "Friday": {"close": "19:00", "open": "08:00"}, "Wednesday": {"close": "19:00", "open": "08:00"}, "Thursday": {"close": "19:00", "open": "08:00"}, "Saturday": {"close": "18:00", "open": "08:00"}}, "open": true, "categories": ["Car Wash", "Automotive"], "city": "Karlsruhe", "review_count": 5, "name": "Waschpark Karlsruhe", "neighborhoods": [], "longitude": 8.44578266143799, "state": "BW", "stars": 4.0, "latitude": 48.9966562813014, "attributes": {}, "type": "business"}
{"business_id": "zM5wAxEDbOMxDHllgDkTyg", "full_address": "Windeckstr. 9\n76135 Karlsruhe", "hours": {"Monday": {"close": "19:00", "open": "07:30"}, "Tuesday": {"close": "19:00", "open": "07:30"}, "Friday": {"close": "19:00", "open": "07:30"}, "Wednesday": {"close": "19:00", "open": "07:30"}, "Thursday": {"close": "19:00", "open": "07:30"}, "Saturday": {"close": "16:00", "open": "08:00"}}, "open": true, "categories": ["Auto Repair", "Automotive", "Auto Parts & Supplies"], "city": "Karlsruhe", "review_count": 9, "name": "A.t.u", "neighborhoods": [], "longitude": 8.3747485, "state": "BW", "stars": 2.5, "latitude": 48.9894598, "attributes": {"Price Range": 3}, "type": "business"}
{"business_id": "bgBafNxzbhvsC4GAivwWtQ", "full_address": "Z\u00e4hringerstra\u00dfe 69\nParkhaus Karstadt\n76133 Karlsruhe", "hours": {}, "open": true, "categories": ["Bars", "Food", "Automotive", "Cafes", "Coffee & Tea", "Nightlife", "Parking", "Restaurants"], "city": "Karlsruhe", "review_count": 43, "name": "Parkdeckzehn", "neighborhoods": [], "longitude": 8.4021614, "state": "BW", "stars": 3.5, "latitude": 49.0088748, "attributes": {"Alcohol": "full_bar", "Noise Level": "average", "Music": {"dj": true, "background_music": false, "karaoke": false, "live": false, "video": false, "jukebox": false}, "Attire": "casual", "Ambience": {"romantic": false, "intimate": false, "classy": false, "hipster": false, "divey": false, "touristy": false, "trendy": false, "upscale": false, "casual": false}, "Good for Kids": false, "Wheelchair Accessible": true, "Good For Dancing": false, "Delivery": false, "Coat Check": false, "Smoking": "yes", "Accepts Credit Cards": false, "Take-out": false, "Price Range": 2, "Happy Hour": true, "Outdoor Seating": true, "Takes Reservations": true, "Waiter Service": true, "Wi-Fi": "no", "Caters": false, "Good For": {"dessert": false, "latenight": false, "lunch": false, "dinner": false, "breakfast": false, "brunch": false}, "Parking": {"garage": true, "validated": false, "street": false, "lot": false, "valet": false}, "Has TV": true, "Good For Groups": true}, "type": "business"}
{"business_id": "B8N9wQBMktl0qwz3-22n6w", "full_address": "Gottesauer Str. 6\n76131 Karlsruhe", "hours": {}, "open": true, "categories": ["Automotive", "Auto Parts & Supplies", "Car Dealers"], "city": "Karlsruhe", "review_count": 4, "name": "Autohaus Am Durlacher Tor", "neighborhoods": [], "longitude": 8.4169, "state": "BW", "stars": 4.5, "latitude": 49.0083, "attributes": {"Parking": {"garage": false, "validated": false, "street": false, "lot": false, "valet": false}, "Price Range": 4}, "type": "business"}
{"business_id": "zpMiSnjnr8tiLdQkIExWFw", "full_address": "Hardeckstr. 8\n76185 Karlsruhe", "hours": {}, "open": true, "categories": ["Auto Repair", "Automotive", "Car Wash"], "city": "Karlsruhe", "review_count": 3, "name": "Flott Autowaschbahn Marianne Molter", "neighborhoods": [], "longitude": 8.3618, "state": "BW", "stars": 5.0, "latitude": 48.99888, "attributes": {"Price Range": 2}, "type": "business"}
{"business_id": "YONT5EFwfR0i2St1lU7SpA", "full_address": "Wattstr. 6-8\n76185 Karlsruhe", "hours": {}, "open": true, "categories": ["Auto Repair", "Automotive", "Car Dealers"], "city": "Karlsruhe", "review_count": 3, "name": "Autohaus Streit", "neighborhoods": [], "longitude": 8.3600327, "state": "BW", "stars": 3.0, "latitude": 49.0327945, "attributes": {"Parking": {"garage": false, "validated": false, "street": false, "lot": false, "valet": false}, "Wheelchair Accessible": true, "Price Range": 3}, "type": "business"}
{"business_id": "FZpJfZGc1pGaGXabeJuVHw", "full_address": "Pforzheimer Str. 78-104\n76275 Ettlingen", "hours": {"Monday": {"close": "18:30", "open": "08:30"}, "Tuesday": {"close": "18:30", "open": "08:30"}, "Friday": {"close": "18:30", "open": "08:30"}, "Wednesday": {"close": "18:30", "open": "08:30"}, "Thursday": {"close": "18:30", "open": "08:30"}, "Saturday": {"close": "13:00", "open": "09:00"}}, "open": true, "categories": ["Auto Repair", "Automotive", "Car Dealers"], "city": "Ettlingen", "review_count": 3, "name": "Auto-Krasser", "neighborhoods": [], "longitude": 8.42609, "state": "BW", "stars": 2.5, "latitude": 48.9348, "attributes": {"Wheelchair Accessible": true, "Parking": {"garage": false, "validated": false, "street": false, "lot": false, "valet": false}}, "type": "business"}
{"business_id": "PxfqJwIO-QCB3y96Dw54Vg", "full_address": "Ottostr. 5\n76227 Karlsruhe", "hours": {}, "open": true, "categories": ["Auto Repair", "Automotive", "Car Dealers"], "city": "Karlsruhe", "review_count": 4, "name": "Autohaus J\u00fcttner", "neighborhoods": [], "longitude": 8.44667, "state": "BW", "stars": 2.5, "latitude": 48.99606, "attributes": {"Parking": {"garage": false, "validated": false, "street": false, "lot": false, "valet": false}, "Accepts Credit Cards": false, "Wheelchair Accessible": true, "Price Range": 3}, "type": "business"}
{"business_id": "VPGbUwQa3enU1ic7ntND7A", "full_address": "Gerwigstr. 83\n76131 Karlsruhe", "hours": {}, "open": true, "categories": ["Auto Repair", "Automotive", "Car Dealers"], "city": "Karlsruhe", "review_count": 5, "name": "Audi Zentrum Karlsruhe", "neighborhoods": [], "longitude": 8.44226, "state": "BW", "stars": 2.5, "latitude": 49.0062, "attributes": {"Price Range": 4}, "type": "business"}
{"business_id": "HIlcj33VY5Aa6eOuyu04Og", "full_address": "Dieselstr. 1\n76448 Durmersheim", "hours": {}, "open": true, "categories": ["Auto Repair", "Automotive"], "city": "Durmersheim", "review_count": 3, "name": "Autoservice Maier", "neighborhoods": [], "longitude": 8.262, "state": "BW", "stars": 3.5, "latitude": 48.9414, "attributes": {"Price Range": 2}, "type": "business"}
{"business_id": "NEYJeDUNiWVHJY2jQ8AbUA", "full_address": "Ottostr. 22\n76227 Karlsruhe", "hours": {}, "open": true, "categories": ["Auto Repair", "Automotive", "Car Rental", "Car Dealers", "Hotels & Travel"], "city": "Karlsruhe", "review_count": 4, "name": "Ungeheuer Automobile Bmw Vertragsh\u00e4ndler Autohaus", "neighborhoods": [], "longitude": 8.43545, "state": "BW", "stars": 1.0, "latitude": 48.9966, "attributes": {"Price Range": 4}, "type": "business"}
{"business_id": "8ZGrdBf9yv0hJt1aZgX7dA", "full_address": "Haid-und-Neu-Str. 30a\n76131 Karlsruhe", "hours": {}, "open": true, "categories": ["Automotive", "Gas & Service Stations"], "city": "Karlsruhe", "review_count": 5, "name": "Jet Tankstelle Gerhard Hamm", "neighborhoods": [], "longitude": 8.42881, "state": "BW", "stars": 4.0, "latitude": 49.0133, "attributes": {"Parking": {"garage": false, "validated": false, "street": false, "lot": false, "valet": false}, "Accepts Credit Cards": true, "Wheelchair Accessible": true, "Price Range": 1}, "type": "business"}
{"business_id": "KVxIu47Od2rnDvGWmO1KCA", "full_address": "Zeppelinstr. 8\n76448 Durmersheim", "hours": {}, "open": true, "categories": ["Tires", "Automotive", "Car Dealers"], "city": "Durmersheim", "review_count": 3, "name": "Reifenhaus Feller", "neighborhoods": [], "longitude": 8.26244, "state": "BW", "stars": 1.5, "latitude": 48.9416, "attributes": {"Parking": {"garage": false, "validated": false, "street": false, "lot": false, "valet": false}, "Accepts Credit Cards": true, "Wheelchair Accessible": true, "Price Range": 3}, "type": "business"}
{"business_id": "HIZTPZ4tXvB_EbNh3DFFNQ", "full_address": "Ludwig-Wilhelm-Str. 15\n76131 Karlsruhe", "hours": {}, "open": true, "categories": ["Hotels & Travel", "Car Rental", "Automotive"], "city": "Karlsruhe", "review_count": 10, "name": "Stadtmobil CarSharing", "neighborhoods": [], "longitude": 8.42235, "state": "BW", "stars": 4.5, "latitude": 49.0095, "attributes": {"Price Range": 1}, "type": "business"}
{"business_id": "PuPi36oN9F0O8LsIK6yMng", "full_address": "Stuttgarter Str. 57\n76137 Karlsruhe", "hours": {}, "open": true, "categories": ["Car Wash", "Automotive"], "city": "Karlsruhe", "review_count": 4, "name": "Imo Autopflege", "neighborhoods": [], "longitude": 8.4228224, "state": "BW", "stars": 3.5, "latitude": 49.0017255, "attributes": {"Price Range": 3}, "type": "business"}
{"business_id": "UEm1wCQvtUlXJJYhV_ckRw", "full_address": "Pulverhausstr. 38\n76135 Karlsruhe", "hours": {}, "open": true, "categories": ["Car Wash", "Automotive"], "city": "Karlsruhe", "review_count": 5, "name": "IMO-Autowaschstra\u00dfe", "neighborhoods": [], "longitude": 8.37151, "state": "BW", "stars": 5.0, "latitude": 48.9906, "attributes": {"Accepts Credit Cards": false, "Wheelchair Accessible": true, "Price Range": 2}, "type": "business"}
{"business_id": "4N3t84XBpdBk0b1D6d9oYw", "full_address": "Karlsruher Str. 50\n76275 Ettlingen", "hours": {}, "open": true, "categories": ["Automotive", "Gas & Service Stations"], "city": "Ettlingen", "review_count": 4, "name": "Aral", "neighborhoods": [], "longitude": 8.40667, "state": "BW", "stars": 4.0, "latitude": 48.9581, "attributes": {"Price Range": 3}, "type": "business"}
{"business_id": "cNHMLhlDBLeMP-UcES677g", "full_address": "Am M\u00fchlburger Bahnhof  10\nbeim Autohaus Zschernitz\n76189 Karlsruhe", "hours": {"Monday": {"close": "19:00", "open": "09:00"}, "Tuesday": {"close": "19:00", "open": "09:00"}, "Friday": {"close": "19:00", "open": "09:00"}, "Wednesday": {"close": "19:00", "open": "09:00"}, "Thursday": {"close": "19:00", "open": "09:00"}, "Saturday": {"close": "17:00", "open": "09:00"}}, "open": true, "categories": ["Automotive"], "city": "Karlsruhe", "review_count": 4, "name": "Beauty Car", "neighborhoods": [], "longitude": 8.35114, "state": "BW", "stars": 3.0, "latitude": 49.016, "attributes": {"Parking": {"garage": false, "validated": false, "street": false, "lot": false, "valet": false}, "Accepts Credit Cards": false, "Price Range": 2}, "type": "business"}
{"business_id": "uwlK60hWjozFJULa5etk6A", "full_address": "Ottostr. 6\n76227 Karlsruhe", "hours": {"Monday": {"close": "19:00", "open": "08:00"}, "Tuesday": {"close": "19:00", "open": "08:00"}, "Friday": {"close": "19:00", "open": "08:00"}, "Wednesday": {"close": "19:00", "open": "08:00"}, "Thursday": {"close": "19:00", "open": "08:00"}, "Saturday": {"close": "18:00", "open": "08:00"}}, "open": true, "categories": ["Car Wash", "Automotive"], "city": "Karlsruhe", "review_count": 5, "name": "Waschpark Karlsruhe", "neighborhoods": [], "longitude": 8.44578266143799, "state": "BW", "stars": 4.0, "latitude": 48.9966562813014, "attributes": {}, "type": "business"}
{"business_id": "zM5wAxEDbOMxDHllgDkTyg", "full_address": "Windeckstr. 9\n76135 Karlsruhe", "hours": {"Monday": {"close": "19:00", "open": "07:30"}, "Tuesday": {"close": "19:00", "open": "07:30"}, "Friday": {"close": "19:00", "open": "07:30"}, "Wednesday": {"close": "19:00", "open": "07:30"}, "Thursday": {"close": "19:00", "open": "07:30"}, "Saturday": {"close": "16:00", "open": "08:00"}}, "open": true, "categories": ["Auto Repair", "Automotive", "Auto Parts & Supplies"], "city": "Karlsruhe", "review_count": 9, "name": "A.t.u", "neighborhoods": [], "longitude": 8.3747485, "state": "BW", "stars": 2.5, "latitude": 48.9894598, "attributes": {"Price Range": 3}, "type": "business"}
{"business_id": "bgBafNxzbhvsC4GAivwWtQ", "full_address": "Z\u00e4hringerstra\u00dfe 69\nParkhaus Karstadt\n76133 Karlsruhe", "hours": {}, "open": true, "categories": ["Bars", "Food", "Automotive", "Cafes", "Coffee & Tea", "Nightlife", "Parking", "Restaurants"], "city": "Karlsruhe", "review_count": 43, "name": "Parkdeckzehn", "neighborhoods": [], "longitude": 8.4021614, "state": "BW", "stars": 3.5, "latitude": 49.0088748, "attributes": {"Alcohol": "full_bar", "Noise Level": "average", "Music": {"dj": true, "background_music": false, "karaoke": false, "live": false, "video": false, "jukebox": false}, "Attire": "casual", "Ambience": {"romantic": false, "intimate": false, "classy": false, "hipster": false, "divey": false, "touristy": false, "trendy": false, "upscale": false, "casual": false}, "Good for Kids": false, "Wheelchair Accessible": true, "Good For Dancing": false, "Delivery": false, "Coat Check": false, "Smoking": "yes", "Accepts Credit Cards": false, "Take-out": false, "Price Range": 2, "Happy Hour": true, "Outdoor Seating": true, "Takes Reservations": true, "Waiter Service": true, "Wi-Fi": "no", "Caters": false, "Good For": {"dessert": false, "latenight": false, "lunch": false, "dinner": false, "breakfast": false, "brunch": false}, "Parking": {"garage": true, "validated": false, "street": false, "lot": false, "valet": false}, "Has TV": true, "Good For Groups": true}, "type": "business"}
{"business_id": "B8N9wQBMktl0qwz3-22n6w", "full_address": "Gottesauer Str. 6\n76131 Karlsruhe", "hours": {}, "open": true, "categories": ["Automotive", "Auto Parts & Supplies", "Car Dealers"], "city": "Karlsruhe", "review_count": 4, "name": "Autohaus Am Durlacher Tor", "neighborhoods": [], "longitude": 8.4169, "state": "BW", "stars": 4.5, "latitude": 49.0083, "attributes": {"Parking": {"garage": false, "validated": false, "street": false, "lot": false, "valet": false}, "Price Range": 4}, "type": "business"}
{"business_id": "zpMiSnjnr8tiLdQkIExWFw", "full_address": "Hardeckstr. 8\n76185 Karlsruhe", "hours": {}, "open": true, "categories": ["Auto Repair", "Automotive", "Car Wash"], "city": "Karlsruhe", "review_count": 3, "name": "Flott Autowaschbahn Marianne Molter", "neighborhoods": [], "longitude": 8.3618, "state": "BW", "stars": 5.0, "latitude": 48.99888, "attributes": {"Price Range": 2}, "type": "business"}
{"business_id": "YONT5EFwfR0i2St1lU7SpA", "full_address": "Wattstr. 6-8\n76185 Karlsruhe", "hours": {}, "open": true, "categories": ["Auto Repair", "Automotive", "Car Dealers"], "city": "Karlsruhe", "review_count": 3, "name": "Autohaus Streit", "neighborhoods": [], "longitude": 8.3600327, "state": "BW", "stars": 3.0, "latitude": 49.0327945, "attributes": {"Parking": {"garage": false, "validated": false, "street": false, "lot": false, "valet": false}, "Wheelchair Accessible": true, "Price Range": 3}, "type": "business"}
{"business_id": "FZpJfZGc1pGaGXabeJuVHw", "full_address": "Pforzheimer Str. 78-104\n76275 Ettlingen", "hours": {"Monday": {"close": "18:30", "open": "08:30"}, "Tuesday": {"close": "18:30", "open": "08:30"}, "Friday": {"close": "18:30", "open": "08:30"}, "Wednesday": {"close": "18:30", "open": "08:30"}, "Thursday": {"close": "18:30", "open": "08:30"}, "Saturday": {"close": "13:00", "open": "09:00"}}, "open": true, "categories": ["Auto Repair", "Automotive", "Car Dealers"], "city": "Ettlingen", "review_count": 3, "name": "Auto-Krasser", "neighborhoods": [], "longitude": 8.42609, "state": "BW", "stars": 2.5, "latitude": 48.9348, "attributes": {"Wheelchair Accessible": true, "Parking": {"garage": false, "validated": false, "street": false, "lot": false, "valet": false}}, "type": "business"}
{"business_id": "PxfqJwIO-QCB3y96Dw54Vg", "full_address": "Ottostr. 5\n76227 Karlsruhe", "hours": {}, "open": true, "categories": ["Auto Repair", "Automotive", "Car Dealers"], "city": "Karlsruhe", "review_count": 4, "name": "Autohaus J\u00fcttner", "neighborhoods": [], "longitude": 8.44667, "state": "BW", "stars": 2.5, "latitude": 48.99606, "attributes": {"Parking": {"garage": false, "validated": false, "street": false, "lot": false, "valet": false}, "Accepts Credit Cards": false, "Wheelchair Accessible": true, "Price Range": 3}, "type": "business"}
{"business_id": "VPGbUwQa3enU1ic7ntND7A", "full_address": "Gerwigstr. 83\n76131 Karlsruhe", "hours": {}, "open": true, "categories": ["Auto Repair", "Automotive", "Car Dealers"], "city": "Karlsruhe", "review_count": 5, "name": "Audi Zentrum Karlsruhe", "neighborhoods": [], "longitude": 8.44226, "state": "BW", "stars": 2.5, "latitude": 49.0062, "attributes": {"Price Range": 4}, "type": "business"}
{"business_id": "HIlcj33VY5Aa6eOuyu04Og", "full_address": "Dieselstr. 1\n76448 Durmersheim", "hours": {}, "open": true, "categories": ["Auto Repair", "Automotive"], "city": "Durmersheim", "review_count": 3, "name": "Autoservice Maier", "neighborhoods": [], "longitude": 8.262, "state": "BW", "stars": 3.5, "latitude": 48.9414, "attributes": {"Price Range": 2}, "type": "business"}
{"business_id": "NEYJeDUNiWVHJY2jQ8AbUA", "full_address": "Ottostr. 22\n76227 Karlsruhe", "hours": {}, "open": true, "categories": ["Auto Repair", "Automotive", "Car Rental", "Car Dealers", "Hotels & Travel"], "city": "Karlsruhe", "review_count": 4, "name": "Ungeheuer Automobile Bmw Vertragsh\u00e4ndler Autohaus", "neighborhoods": [], "longitude": 8.43545, "state": "BW", "stars": 1.0, "latitude": 48.9966, "attributes": {"Price Range": 4}, "type": "business"}
{"business_id": "8ZGrdBf9yv0hJt1aZgX7dA", "full_address": "Haid-und-Neu-Str. 30a\n76131 Karlsruhe", "hours": {}, "open": true, "categories": ["Automotive", "Gas & Service Stations"], "city": "Karlsruhe", "review_count": 5, "name": "Jet Tankstelle Gerhard Hamm", "neighborhoods": [], "longitude": 8.42881, "state": "BW", "stars": 4.0, "latitude": 49.0133, "attributes": {"Parking": {"garage": false, "validated": false, "street": false, "lot": false, "valet": false}, "Accepts Credit Cards": true, "Wheelchair Accessible": true, "Price Range": 1}, "type": "business"}
{"business_id": "KVxIu47Od2rnDvGWmO1KCA", "full_address": "Zeppelinstr. 8\n76448 Durmersheim", "hours": {}, "open": true, "categories": ["Tires", "Automotive", "Car Dealers"], "city": "Durmersheim", "review_count": 3, "name": "Reifenhaus Feller", "neighborhoods": [], "longitude": 8.26244, "state": "BW", "stars": 1.5, "latitude": 48.9416, "attributes": {"Parking": {"garage": false, "validated": false, "street": false, "lot": false, "valet": false}, "Accepts Credit Cards": true, "Wheelchair Accessible": true, "Price Range": 3}, "type": "business"}
{"business_id": "HIZTPZ4tXvB_EbNh3DFFNQ", "full_address": "Ludwig-Wilhelm-Str. 15\n76131 Karlsruhe", "hours": {}, "open": true, "categories": ["Hotels & Travel", "Car Rental", "Automotive"], "city": "Karlsruhe", "review_count": 10, "name": "Stadtmobil CarSharing", "neighborhoods": [], "longitude": 8.42235, "state": "BW", "stars": 4.5, "latitude": 49.0095, "attributes": {"Price Range": 1}, "type": "business"}
{"business_id": "PuPi36oN9F0O8LsIK6yMng", "full_address": "Stuttgarter Str. 57\n76137 Karlsruhe", "hours": {}, "open": true, "categories": ["Car Wash", "Automotive"], "city": "Karlsruhe", "review_count": 4, "name": "Imo Autopflege", "neighborhoods": [], "longitude": 8.4228224, "state": "BW", "stars": 3.5, "latitude": 49.0017255, "attributes": {"Price Range": 3}, "type": "business"}
{"business_id": "UEm1wCQvtUlXJJYhV_ckRw", "full_address": "Pulverhausstr. 38\n76135 Karlsruhe", "hours": {}, "open": true, "categories": ["Car Wash", "Automotive"], "city": "Karlsruhe", "review_count": 5, "name": "IMO-Autowaschstra\u00dfe", "neighborhoods": [], "longitude": 8.37151, "state": "BW", "stars": 5.0, "latitude": 48.9906, "attributes": {"Accepts Credit Cards": false, "Wheelchair Accessible": true, "Price Range": 2}, "type": "business"}
{"business_id": "4N3t84XBpdBk0b1D6d9oYw", "full_address": "Karlsruher Str. 50\n76275 Ettlingen", "hours": {}, "open": true, "categories": ["Automotive", "Gas & Service Stations"], "city": "Ettlingen", "review_count": 4, "name": "Aral", "neighborhoods": [], "longitude": 8.40667, "state": "BW", "stars": 4.0, "latitude": 48.9581, "attributes": {"Price Range": 3}, "type": "business"}
{"business_id": "cNHMLhlDBLeMP-UcES677g", "full_address": "Am M\u00fchlburger Bahnhof  10\nbeim Autohaus Zschernitz\n76189 Karlsruhe", "hours": {"Monday": {"close": "19:00", "open": "09:00"}, "Tuesday": {"close": "19:00", "open": "09:00"}, "Friday": {"close": "19:00", "open": "09:00"}, "Wednesday": {"close": "19:00", "open": "09:00"}, "Thursday": {"close": "19:00", "open": "09:00"}, "Saturday": {"close": "17:00", "open": "09:00"}}, "open": true, "categories": ["Automotive"], "city": "Karlsruhe", "review_count": 4, "name": "Beauty Car", "neighborhoods": [], "longitude": 8.35114, "state": "BW", "stars": 3.0, "latitude": 49.016, "attributes": {"Parking": {"garage": false, "validated": false, "street": false, "lot": false, "valet": false}, "Accepts Credit Cards": false, "Price Range": 2}, "type": "business"}
{"business_id": "uwlK60hWjozFJULa5etk6A", "full_address": "Ottostr. 6\n76227 Karlsruhe", "hours": {"Monday": {"close": "19:00", "open": "08:00"}, "Tuesday": {"close": "19:00", "open": "08:00"}, "Friday": {"close": "19:00", "open": "08:00"}, "Wednesday": {"close": "19:00", "open": "08:00"}, "Thursday": {"close": "19:00", "open": "08:00"}, "Saturday": {"close": "18:00", "open": "08:00"}}, "open": true, "categories": ["Car Wash", "Automotive"], "city": "Karlsruhe", "review_count": 5, "name": "Waschpark Karlsruhe", "neighborhoods": [], "longitude": 8.44578266143799, "state": "BW", "stars": 4.0, "latitude": 48.9966562813014, "attributes": {}, "type": "business"}
{"business_id": "zM5wAxEDbOMxDHllgDkTyg", "full_address": "Windeckstr. 9\n76135 Karlsruhe", "hours": {"Monday": {"close": "19:00", "open": "07:30"}, "Tuesday": {"close": "19:00", "open": "07:30"}, "Friday": {"close": "19:00", "open": "07:30"}, "Wednesday": {"close": "19:00", "open": "07:30"}, "Thursday": {"close": "19:00", "open": "07:30"}, "Saturday": {"close": "16:00", "open": "08:00"}}, "open": true, "categories": ["Auto Repair", "Automotive", "Auto Parts & Supplies"], "city": "Karlsruhe", "review_count": 9, "name": "A.t.u", "neighborhoods": [], "longitude": 8.3747485, "state": "BW", "stars": 2.5, "latitude": 48.9894598, "attributes": {"Price Range": 3}, "type": "business"}
{"business_id": "bgBafNxzbhvsC4GAivwWtQ", "full_address": "Z\u00e4hringerstra\u00dfe 69\nParkhaus Karstadt\n76133 Karlsruhe", "hours": {}, "open": true, "categories": ["Bars", "Food", "Automotive", "Cafes", "Coffee & Tea", "Nightlife", "Parking", "Restaurants"], "city": "Karlsruhe", "review_count": 43, "name": "Parkdeckzehn", "neighborhoods": [], "longitude": 8.4021614, "state": "BW", "stars": 3.5, "latitude": 49.0088748, "attributes": {"Alcohol": "full_bar", "Noise Level": "average", "Music": {"dj": true, "background_music": false, "karaoke": false, "live": false, "video": false, "jukebox": false}, "Attire": "casual", "Ambience": {"romantic": false, "intimate": false, "classy": false, "hipster": false, "divey": false, "touristy": false, "trendy": false, "upscale": false, "casual": false}, "Good for Kids": false, "Wheelchair Accessible": true, "Good For Dancing": false, "Delivery": false, "Coat Check": false, "Smoking": "yes", "Accepts Credit Cards": false, "Take-out": false, "Price Range": 2, "Happy Hour": true, "Outdoor Seating": true, "Takes Reservations": true, "Waiter Service": true, "Wi-Fi": "no", "Caters": false, "Good For": {"dessert": false, "latenight": false, "lunch": false, "dinner": false, "breakfast": false, "brunch": false}, "Parking": {"garage": true, "validated": false, "street": false, "lot": false, "valet": false}, "Has TV": true, "Good For Groups": true}, "type": "business"}
{"business_id": "B8N9wQBMktl0qwz3-22n6w", "full_address": "Gottesauer Str. 6\n76131 Karlsruhe", "hours": {}, "open": true, "categories": ["Automotive", "Auto Parts & Supplies", "Car Dealers"], "city": "Karlsruhe", "review_count": 4, "name": "Autohaus Am Durlacher Tor", "neighborhoods": [], "longitude": 8.4169, "state": "BW", "stars": 4.5, "latitude": 49.0083, "attributes": {"Parking": {"garage": false, "validated": false, "street": false, "lot": false, "valet": false}, "Price Range": 4}, "type": "business"}
{"business_id": "zpMiSnjnr8tiLdQkIExWFw", "full_address": "Hardeckstr. 8\n76185 Karlsruhe", "hours": {}, "open": true, "categories": ["Auto Repair", "Automotive", "Car Wash"], "city": "Karlsruhe", "review_count": 3, "name": "Flott Autowaschbahn Marianne Molter", "neighborhoods": [], "longitude": 8.3618, "state": "BW", "stars": 5.0, "latitude": 48.99888, "attributes": {"Price Range": 2}, "type": "business"}
{"business_id": "YONT5EFwfR0i2St1lU7SpA", "full_address": "Wattstr. 6-8\n76185 Karlsruhe", "hours": {}, "open": true, "categories": ["Auto Repair", "Automotive", "Car Dealers"], "city": "Karlsruhe", "review_count": 3, "name": "Autohaus Streit", "neighborhoods": [], "longitude": 8.3600327, "state": "BW", "stars": 3.0, "latitude": 49.0327945, "attributes": {"Parking": {"garage": false, "validated": false, "street": false, "lot": false, "valet": false}, "Wheelchair Accessible": true, "Price Range": 3}, "type": "business"}
{"business_id": "FZpJfZGc1pGaGXabeJuVHw", "full_address": "Pforzheimer Str. 78-104\n76275 Ettlingen", "hours": {"Monday": {"close": "18:30", "open": "08:30"}, "Tuesday": {"close": "18:30", "open": "08:30"}, "Friday": {"close": "18:30", "open": "08:30"}, "Wednesday": {"close": "18:30", "open": "08:30"}, "Thursday": {"close": "18:30", "open": "08:30"}, "Saturday": {"close": "13:00", "open": "09:00"}}, "open": true, "categories": ["Auto Repair", "Automotive", "Car Dealers"], "city": "Ettlingen", "review_count": 3, "name": "Auto-Krasser", "neighborhoods": [], "longitude": 8.42609, "state": "BW", "stars": 2.5, "latitude": 48.9348, "attributes": {"Wheelchair Accessible": true, "Parking": {"garage": false, "validated": false, "street": false, "lot": false, "valet": false}}, "type": "business"}
{"business_id": "PxfqJwIO-QCB3y96Dw54Vg", "full_address": "Ottostr. 5\n76227 Karlsruhe", "hours": {}, "open": true, "categories": ["Auto Repair", "Automotive", "Car Dealers"], "city": "Karlsruhe", "review_count": 4, "name": "Autohaus J\u00fcttner", "neighborhoods": [], "longitude": 8.44667, "state": "BW", "stars": 2.5, "latitude": 48.99606, "attributes": {"Parking": {"garage": false, "validated": false, "street": false, "lot": false, "valet": false}, "Accepts Credit Cards": false, "Wheelchair Accessible": true, "Price Range": 3}, "type": "business"}
{"business_id": "VPGbUwQa3enU1ic7ntND7A", "full_address": "Gerwigstr. 83\n76131 Karlsruhe", "hours": {}, "open": true, "categories": ["Auto Repair", "Automotive", "Car Dealers"], "city": "Karlsruhe", "review_count": 5, "name": "Audi Zentrum Karlsruhe", "neighborhoods": [], "longitude": 8.44226, "state": "BW", "stars": 2.5, "latitude": 49.0062, "attributes": {"Price Range": 4}, "type": "business"}
{"business_id": "HIlcj33VY5Aa6eOuyu04Og", "full_address": "Dieselstr. 1\n76448 Durmersheim", "hours": {}, "open": true, "categories": ["Auto Repair", "Automotive"], "city": "Durmersheim", "review_count": 3, "name": "Autoservice Maier", "neighborhoods": [], "longitude": 8.262, "state": "BW", "stars": 3.5, "latitude": 48.9414, "attributes": {"Price Range": 2}, "type": "business"}
{"business_id": "NEYJeDUNiWVHJY2jQ8AbUA", "full_address": "Ottostr. 22\n76227 Karlsruhe", "hours": {}, "open": true, "categories": ["Auto Repair", "Automotive", "Car Rental", "Car Dealers", "Hotels & Travel"], "city": "Karlsruhe", "review_count": 4, "name": "Ungeheuer Automobile Bmw Vertragsh\u00e4ndler Autohaus", "neighborhoods": [], "longitude": 8.43545, "state": "BW", "stars": 1.0, "latitude": 48.9966, "attributes": {"Price Range": 4}, "type": "business"}
{"business_id": "8ZGrdBf9yv0hJt1aZgX7dA", "full_address": "Haid-und-Neu-Str. 30a\n76131 Karlsruhe", "hours": {}, "open": true, "categories": ["Automotive", "Gas & Service Stations"], "city": "Karlsruhe", "review_count": 5, "name": "Jet Tankstelle Gerhard Hamm", "neighborhoods": [], "longitude": 8.42881, "state": "BW", "stars": 4.0, "latitude": 49.0133, "attributes": {"Parking": {"garage": false, "validated": false, "street": false, "lot": false, "valet": false}, "Accepts Credit Cards": true, "Wheelchair Accessible": true, "Price Range": 1}, "type": "business"}
{"business_id": "KVxIu47Od2rnDvGWmO1KCA", "full_address": "Zeppelinstr. 8\n76448 Durmersheim", "hours": {}, "open": true, "categories": ["Tires", "Automotive", "Car Dealers"], "city": "Durmersheim", "review_count": 3, "name": "Reifenhaus Feller", "neighborhoods": [], "longitude": 8.26244, "state": "BW", "stars": 1.5, "latitude": 48.9416, "attributes": {"Parking": {"garage": false, "validated": false, "street": false, "lot": false, "valet": false}, "Accepts Credit Cards": true, "Wheelchair Accessible": true, "Price Range": 3}, "type": "business"}
{"business_id": "HIZTPZ4tXvB_EbNh3DFFNQ", "full_address": "Ludwig-Wilhelm-Str. 15\n76131 Karlsruhe", "hours": {}, "open": true, "categories": ["Hotels & Travel", "Car Rental", "Automotive"], "city": "Karlsruhe", "review_count": 10, "name": "Stadtmobil CarSharing", "neighborhoods": [], "longitude": 8.42235, "state": "BW", "stars": 4.5, "latitude": 49.0095, "attributes": {"Price Range": 1}, "type": "business"}
{"business_id": "PuPi36oN9F0O8LsIK6yMng", "full_address": "Stuttgarter Str. 57\n76137 Karlsruhe", "hours": {}, "open": true, "categories": ["Car Wash", "Automotive"], "city": "Karlsruhe", "review_count": 4, "name": "Imo Autopflege", "neighborhoods": [], "longitude": 8.4228224, "state": "BW", "stars": 3.5, "latitude": 49.0017255, "attributes": {"Price Range": 3}, "type": "business"}
{"business_id": "UEm1wCQvtUlXJJYhV_ckRw", "full_address": "Pulverhausstr. 38\n76135 Karlsruhe", "hours": {}, "open": true, "categories": ["Car Wash", "Automotive"], "city": "Karlsruhe", "review_count": 5, "name": "IMO-Autowaschstra\u00dfe", "neighborhoods": [], "longitude": 8.37151, "state": "BW", "stars": 5.0, "latitude": 48.9906, "attributes": {"Accepts Credit Cards": false, "Wheelchair Accessible": true, "Price Range": 2}, "type": "business"}
{"business_id": "4N3t84XBpdBk0b1D6d9oYw", "full_address": "Karlsruher Str. 50\n76275 Ettlingen", "hours": {}, "open": true, "categories": ["Automotive", "Gas & Service Stations"], "city": "Ettlingen", "review_count": 4, "name": "Aral", "neighborhoods": [], "longitude": 8.40667, "state": "BW", "stars": 4.0, "latitude": 48.9581, "attributes": {"Price Range": 3}, "type": "business"}
{"business_id": "cNHMLhlDBLeMP-UcES677g", "full_address": "Am M\u00fchlburger Bahnhof  10\nbeim Autohaus Zschernitz\n76189 Karlsruhe", "hours": {"Monday": {"close": "19:00", "open": "09:00"}, "Tuesday": {"close": "19:00", "open": "09:00"}, "Friday": {"close": "19:00", "open": "09:00"}, "Wednesday": {"close": "19:00", "open": "09:00"}, "Thursday": {"close": "19:00", "open": "09:00"}, "Saturday": {"close": "17:00", "open": "09:00"}}, "open": true, "categories": ["Automotive"], "city": "Karlsruhe", "review_count": 4, "name": "Beauty Car", "neighborhoods": [], "longitude": 8.35114, "state": "BW", "stars": 3.0, "latitude": 49.016, "attributes": {"Parking": {"garage": false, "validated": false, "street": false, "lot": false, "valet": false}, "Accepts Credit Cards": false, "Price Range": 2}, "type": "business"}
{"business_id": "uwlK60hWjozFJULa5etk6A", "full_address": "Ottostr. 6\n76227 Karlsruhe", "hours": {"Monday": {"close": "19:00", "open": "08:00"}, "Tuesday": {"close": "19:00", "open": "08:00"}, "Friday": {"close": "19:00", "open": "08:00"}, "Wednesday": {"close": "19:00", "open": "08:00"}, "Thursday": {"close": "19:00", "open": "08:00"}, "Saturday": {"close": "18:00", "open": "08:00"}}, "open": true, "categories": ["Car Wash", "Automotive"], "city": "Karlsruhe", "review_count": 5, "name": "Waschpark Karlsruhe", "neighborhoods": [], "longitude": 8.44578266143799, "state": "BW", "stars": 4.0, "latitude": 48.9966562813014, "attributes": {}, "type": "business"}
{"business_id": "zM5wAxEDbOMxDHllgDkTyg", "full_address": "Windeckstr. 9\n76135 Karlsruhe", "hours": {"Monday": {"close": "19:00", "open": "07:30"}, "Tuesday": {"close": "19:00", "open": "07:30"}, "Friday": {"close": "19:00", "open": "07:30"}, "Wednesday": {"close": "19:00", "open": "07:30"}, "Thursday": {"close": "19:00", "open": "07:30"}, "Saturday": {"close": "16:00", "open": "08:00"}}, "open": true, "categories": ["Auto Repair", "Automotive", "Auto Parts & Supplies"], "city": "Karlsruhe", "review_count": 9, "name": "A.t.u", "neighborhoods": [], "longitude": 8.3747485, "state": "BW", "stars": 2.5, "latitude": 48.9894598, "attributes": {"Price Range": 3}, "type": "business"}
{"business_id": "bgBafNxzbhvsC4GAivwWtQ", "full_address": "Z\u00e4hringerstra\u00dfe 69\nParkhaus Karstadt\n76133 Karlsruhe", "hours": {}, "open": true, "categories": ["Bars", "Food", "Automotive", "Cafes", "Coffee & Tea", "Nightlife", "Parking", "Restaurants"], "city": "Karlsruhe", "review_count": 43, "name": "Parkdeckzehn", "neighborhoods": [], "longitude": 8.4021614, "state": "BW", "stars": 3.5, "latitude": 49.0088748, "attributes": {"Alcohol": "full_bar", "Noise Level": "average", "Music": {"dj": true, "background_music": false, "karaoke": false, "live": false, "video": false, "jukebox": false}, "Attire": "casual", "Ambience": {"romantic": false, "intimate": false, "classy": false, "hipster": false, "divey": false, "touristy": false, "trendy": false, "upscale": false, "casual": false}, "Good for Kids": false, "Wheelchair Accessible": true, "Good For Dancing": false, "Delivery": false, "Coat Check": false, "Smoking": "yes", "Accepts Credit Cards": false, "Take-out": false, "Price Range": 2, "Happy Hour": true, "Outdoor Seating": true, "Takes Reservations": true, "Waiter Service": true, "Wi-Fi": "no", "Caters": false, "Good For": {"dessert": false, "latenight": false, "lunch": false, "dinner": false, "breakfast": false, "brunch": false}, "Parking": {"garage": true, "validated": false, "street": false, "lot": false, "valet": false}, "Has TV": true, "Good For Groups": true}, "type": "business"}
{"business_id": "B8N9wQBMktl0qwz3-22n6w", "full_address": "Gottesauer Str. 6\n76131 Karlsruhe", "hours": {}, "open": true, "categories": ["Automotive", "Auto Parts & Supplies", "Car Dealers"], "city": "Karlsruhe", "review_count": 4, "name": "Autohaus Am Durlacher Tor", "neighborhoods": [], "longitude": 8.4169, "state": "BW", "stars": 4.5, "latitude": 49.0083, "attributes": {"Parking": {"garage": false, "validated": false, "street": false, "lot": false, "valet": false}, "Price Range": 4}, "type": "business"}
{"business_id": "zpMiSnjnr8tiLdQkIExWFw", "full_address": "Hardeckstr. 8\n76185 Karlsruhe", "hours": {}, "open": true, "categories": ["Auto Repair", "Automotive", "Car Wash"], "city": "Karlsruhe", "review_count": 3, "name": "Flott Autowaschbahn Marianne Molter", "neighborhoods": [], "longitude": 8.3618, "state": "BW", "stars": 5.0, "latitude": 48.99888, "attributes": {"Price Range": 2}, "type": "business"}
{"business_id": "YONT5EFwfR0i2St1lU7SpA", "full_address": "Wattstr. 6-8\n76185 Karlsruhe", "hours": {}, "open": true, "categories": ["Auto Repair", "Automotive", "Car Dealers"], "city": "Karlsruhe", "review_count": 3, "name": "Autohaus Streit", "neighborhoods": [], "longitude": 8.3600327, "state": "BW", "stars": 3.0, "latitude": 49.0327945, "attributes": {"Parking": {"garage": false, "validated": false, "street": false, "lot": false, "valet": false}, "Wheelchair Accessible": true, "Price Range": 3}, "type": "business"}
{"business_id": "FZpJfZGc1pGaGXabeJuVHw", "full_address": "Pforzheimer Str. 78-104\n76275 Ettlingen", "hours": {"Monday": {"close": "18:30", "open": "08:30"}, "Tuesday": {"close": "18:30", "open": "08:30"}, "Friday": {"close": "18:30", "open": "08:30"}, "Wednesday": {"close": "18:30", "open": "08:30"}, "Thursday": {"close": "18:30", "open": "08:30"}, "Saturday": {"close": "13:00", "open": "09:00"}}, "open": true, "categories": ["Auto Repair", "Automotive", "Car Dealers"], "city": "Ettlingen", "review_count": 3, "name": "Auto-Krasser", "neighborhoods": [], "longitude": 8.42609, "state": "BW", "stars": 2.5, "latitude": 48.9348, "attributes": {"Wheelchair Accessible": true, "Parking": {"garage": false, "validated": false, "street": false, "lot": false, "valet": false}}, "type": "business"}
{"business_id": "PxfqJwIO-QCB3y96Dw54Vg", "full_address": "Ottostr. 5\n76227 Karlsruhe", "hours": {}, "open": true, "categories": ["Auto Repair", "Automotive", "Car Dealers"], "city": "Karlsruhe", "review_count": 4, "name": "Autohaus J\u00fcttner", "neighborhoods": [], "longitude": 8.44667, "state": "BW", "stars": 2.5, "latitude": 48.99606, "attributes": {"Parking": {"garage": false, "validated": false, "street": false, "lot": false, "valet": false}, "Accepts Credit Cards": false, "Wheelchair Accessible": true, "Price Range": 3}, "type": "business"}
{"business_id": "VPGbUwQa3enU1ic7ntND7A", "full_address": "Gerwigstr. 83\n76131 Karlsruhe", "hours": {}, "open": true, "categories": ["Auto Repair", "Automotive", "Car Dealers"], "city": "Karlsruhe", "review_count": 5, "name": "Audi Zentrum Karlsruhe", "neighborhoods": [], "longitude": 8.44226, "state": "BW", "stars": 2.5, "latitude": 49.0062, "attributes": {"Price Range": 4}, "type": "business"}
{"business_id": "HIlcj33VY5Aa6eOuyu04Og", "full_address": "Dieselstr. 1\n76448 Durmersheim", "hours": {}, "open": true, "categories": ["Auto Repair", "Automotive"], "city": "Durmersheim", "review_count": 3, "name": "Autoservice Maier", "neighborhoods": [], "longitude": 8.262, "state": "BW", "stars": 3.5, "latitude": 48.9414, "attributes": {"Price Range": 2}, "type": "business"}
{"business_id": "NEYJeDUNiWVHJY2jQ8AbUA", "full_address": "Ottostr. 22\n76227 Karlsruhe", "hours": {}, "open": true, "categories": ["Auto Repair", "Automotive", "Car Rental", "Car Dealers", "Hotels & Travel"], "city": "Karlsruhe", "review_count": 4, "name": "Ungeheuer Automobile Bmw Vertragsh\u00e4ndler Autohaus", "neighborhoods": [], "longitude": 8.43545, "state": "BW", "stars": 1.0, "latitude": 48.9966, "attributes": {"Price Range": 4}, "type": "business"}
{"business_id": "8ZGrdBf9yv0hJt1aZgX7dA", "full_address": "Haid-und-Neu-Str. 30a\n76131 Karlsruhe", "hours": {}, "open": true, "categories": ["Automotive", "Gas & Service Stations"], "city": "Karlsruhe", "review_count": 5, "name": "Jet Tankstelle Gerhard Hamm", "neighborhoods": [], "longitude": 8.42881, "state": "BW", "stars": 4.0, "latitude": 49.0133, "attributes": {"Parking": {"garage": false, "validated": false, "street": false, "lot": false, "valet": false}, "Accepts Credit Cards": true, "Wheelchair Accessible": true, "Price Range": 1}, "type": "business"}
{"business_id": "KVxIu47Od2rnDvGWmO1KCA", "full_address": "Zeppelinstr. 8\n76448 Durmersheim", "hours": {}, "open": true, "categories": ["Tires", "Automotive", "Car Dealers"], "city": "Durmersheim", "review_count": 3, "name": "Reifenhaus Feller", "neighborhoods": [], "longitude": 8.26244, "state": "BW", "stars": 1.5, "latitude": 48.9416, "attributes": {"Parking": {"garage": false, "validated": false, "street": false, "lot": false, "valet": false}, "Accepts Credit Cards": true, "Wheelchair Accessible": true, "Price Range": 3}, "type": "business"}
{"business_id": "HIZTPZ4tXvB_EbNh3DFFNQ", "full_address": "Ludwig-Wilhelm-Str. 15\n76131 Karlsruhe", "hours": {}, "open": true, "categories": ["Hotels & Travel", "Car Rental", "Automotive"], "city": "Karlsruhe", "review_count": 10, "name": "Stadtmobil CarSharing", "neighborhoods": [], "longitude": 8.42235, "state": "BW", "stars": 4.5, "latitude": 49.0095, "attributes": {"Price Range": 1}, "type": "business"}
{"business_id": "PuPi36oN9F0O8LsIK6yMng", "full_address": "Stuttgarter Str. 57\n76137 Karlsruhe", "hours": {}, "open": true, "categories": ["Car Wash", "Automotive"], "city": "Karlsruhe", "review_count": 4, "name": "Imo Autopflege", "neighborhoods": [], "longitude": 8.4228224, "state": "BW", "stars": 3.5, "latitude": 49.0017255, "attributes": {"Price Range": 3}, "type": "business"}
{"business_id": "UEm1wCQvtUlXJJYhV_ckRw", "full_address": "Pulverhausstr. 38\n76135 Karlsruhe", "hours": {}, "open": true, "categories": ["Car Wash", "Automotive"], "city": "Karlsruhe", "review_count": 5, "name": "IMO-Autowaschstra\u00dfe", "neighborhoods": [], "longitude": 8.37151, "state": "BW", "stars": 5.0, "latitude": 48.9906, "attributes": {"Accepts Credit Cards": false, "Wheelchair Accessible": true, "Price Range": 2}, "type": "business"}
{"business_id": "4N3t84XBpdBk0b1D6d9oYw", "full_address": "Karlsruher Str. 50\n76275 Ettlingen", "hours": {}, "open": true, "categories": ["Automotive", "Gas & Service Stations"], "city": "Ettlingen", "review_count": 4, "name": "Aral", "neighborhoods": [], "longitude": 8.40667, "state": "BW", "stars": 4.0, "latitude": 48.9581, "attributes": {"Price Range": 3}, "type": "business"}
{"business_id": "cNHMLhlDBLeMP-UcES677g", "full_address": "Am M\u00fchlburger Bahnhof  10\nbeim Autohaus Zschernitz\n76189 Karlsruhe", "hours": {"Monday": {"close": "19:00", "open": "09:00"}, "Tuesday": {"close": "19:00", "open": "09:00"}, "Friday": {"close": "19:00", "open": "09:00"}, "Wednesday": {"close": "19:00", "open": "09:00"}, "Thursday": {"close": "19:00", "open": "09:00"}, "Saturday": {"close": "17:00", "open": "09:00"}}, "open": true, "categories": ["Automotive"], "city": "Karlsruhe", "review_count": 4, "name": "Beauty Car", "neighborhoods": [], "longitude": 8.35114, "state": "BW", "stars": 3.0, "latitude": 49.016, "attributes": {"Parking": {"garage": false, "validated": false, "street": false, "lot": false, "valet": false}, "Accepts Credit Cards": false, "Price Range": 2}, "type": "business"}
{"business_id": "uwlK60hWjozFJULa5etk6A", "full_address": "Ottostr. 6\n76227 Karlsruhe", "hours": {"Monday": {"close": "19:00", "open": "08:00"}, "Tuesday": {"close": "19:00", "open": "08:00"}, "Friday": {"close": "19:00", "open": "08:00"}, "Wednesday": {"close": "19:00", "open": "08:00"}, "Thursday": {"close": "19:00", "open": "08:00"}, "Saturday": {"close": "18:00", "open": "08:00"}}, "open": true, "categories": ["Car Wash", "Automotive"], "city": "Karlsruhe", "review_count": 5, "name": "Waschpark Karlsruhe", "neighborhoods": [], "longitude": 8.44578266143799, "state": "BW", "stars": 4.0, "latitude": 48.9966562813014, "attributes": {}, "type": "business"}
{"business_id": "zM5wAxEDbOMxDHllgDkTyg", "full_address": "Windeckstr. 9\n76135 Karlsruhe", "hours": {"Monday": {"close": "19:00", "open": "07:30"}, "Tuesday": {"close": "19:00", "open": "07:30"}, "Friday": {"close": "19:00", "open": "07:30"}, "Wednesday": {"close": "19:00", "open": "07:30"}, "Thursday": {"close": "19:00", "open": "07:30"}, "Saturday": {"close": "16:00", "open": "08:00"}}, "open": true, "categories": ["Auto Repair", "Automotive", "Auto Parts & Supplies"], "city": "Karlsruhe", "review_count": 9, "name": "A.t.u", "neighborhoods": [], "longitude": 8.3747485, "state": "BW", "stars": 2.5, "latitude": 48.9894598, "attributes": {"Price Range": 3}, "type": "business"}
{"business_id": "bgBafNxzbhvsC4GAivwWtQ", "full_address": "Z\u00e4hringerstra\u00dfe 69\nParkhaus Karstadt\n76133 Karlsruhe", "hours": {}, "open": true, "categories": ["Bars", "Food", "Automotive", "Cafes", "Coffee & Tea", "Nightlife", "Parking", "Restaurants"], "city": "Karlsruhe", "review_count": 43, "name": "Parkdeckzehn", "neighborhoods": [], "longitude": 8.4021614, "state": "BW", "stars": 3.5, "latitude": 49.0088748, "attributes": {"Alcohol": "full_bar", "Noise Level": "average", "Music": {"dj": true, "background_music": false, "karaoke": false, "live": false, "video": false, "jukebox": false}, "Attire": "casual", "Ambience": {"romantic": false, "intimate": false, "classy": false, "hipster": false, "divey": false, "touristy": false, "trendy": false, "upscale": false, "casual": false}, "Good for Kids": false, "Wheelchair Accessible": true, "Good For Dancing": false, "Delivery": false, "Coat Check": false, "Smoking": "yes", "Accepts Credit Cards": false, "Take-out": false, "Price Range": 2, "Happy Hour": true, "Outdoor Seating": true, "Takes Reservations": true, "Waiter Service": true, "Wi-Fi": "no", "Caters": false, "Good For": {"dessert": false, "latenight": false, "lunch": false, "dinner": false, "breakfast": false, "brunch": false}, "Parking": {"garage": true, "validated": false, "street": false, "lot": false, "valet": false}, "Has TV": true, "Good For Groups": true}, "type": "business"}
{"business_id": "B8N9wQBMktl0qwz3-22n6w", "full_address": "Gottesauer Str. 6\n76131 Karlsruhe", "hours": {}, "open": true, "categories": ["Automotive", "Auto Parts & Supplies", "Car Dealers"], "city": "Karlsruhe", "review_count": 4, "name": "Autohaus Am Durlacher Tor", "neighborhoods": [], "longitude": 8.4169, "state": "BW", "stars": 4.5, "latitude": 49.0083, "attributes": {"Parking": {"garage": false, "validated": false, "street": false, "lot": false, "valet": false}, "Price Range": 4}, "type": "business"}
{"business_id": "zpMiSnjnr8tiLdQkIExWFw", "full_address": "Hardeckstr. 8\n76185 Karlsruhe", "hours": {}, "open": true, "categories": ["Auto Repair", "Automotive", "Car Wash"], "city": "Karlsruhe", "review_count": 3, "name": "Flott Autowaschbahn Marianne Molter", "neighborhoods": [], "longitude": 8.3618, "state": "BW", "stars": 5.0, "latitude": 48.99888, "attributes": {"Price Range": 2}, "type": "business"}
{"business_id": "YONT5EFwfR0i2St1lU7SpA", "full_address": "Wattstr. 6-8\n76185 Karlsruhe", "hours": {}, "open": true, "categories": ["Auto Repair", "Automotive", "Car Dealers"], "city": "Karlsruhe", "review_count": 3, "name": "Autohaus Streit", "neighborhoods": [], "longitude": 8.3600327, "state": "BW", "stars": 3.0, "latitude": 49.0327945, "attributes": {"Parking": {"garage": false, "validated": false, "street": false, "lot": false, "valet": false}, "Wheelchair Accessible": true, "Price Range": 3}, "type": "business"}
{"business_id": "FZpJfZGc1pGaGXabeJuVHw", "full_address": "Pforzheimer Str. 78-104\n76275 Ettlingen", "hours": {"Monday": {"close": "18:30", "open": "08:30"}, "Tuesday": {"close": "18:30", "open": "08:30"}, "Friday": {"close": "18:30", "open": "08:30"}, "Wednesday": {"close": "18:30", "open": "08:30"}, "Thursday": {"close": "18:30", "open": "08:30"}, "Saturday": {"close": "13:00", "open": "09:00"}}, "open": true, "categories": ["Auto Repair", "Automotive", "Car Dealers"], "city": "Ettlingen", "review_count": 3, "name": "Auto-Krasser", "neighborhoods": [], "longitude": 8.42609, "state": "BW", "stars": 2.5, "latitude": 48.9348, "attributes": {"Wheelchair Accessible": true, "Parking": {"garage": false, "validated": false, "street": false, "lot": false, "valet": false}}, "type": "business"}
{"business_id": "PxfqJwIO-QCB3y96Dw54Vg", "full_address": "Ottostr. 5\n76227 Karlsruhe", "hours": {}, "open": true, "categories": ["Auto Repair", "Automotive", "Car Dealers"], "city": "Karlsruhe", "review_count": 4, "name": "Autohaus J\u00fcttner", "neighborhoods": [], "longitude": 8.44667, "state": "BW", "stars": 2.5, "latitude": 48.99606, "attributes": {"Parking": {"garage": false, "validated": false, "street": false, "lot": false, "valet": false}, "Accepts Credit Cards": false, "Wheelchair Accessible": true, "Price Range": 3}, "type": "business"}
{"business_id": "VPGbUwQa3enU1ic7ntND7A", "full_address": "Gerwigstr. 83\n76131 Karlsruhe", "hours": {}, "open": true, "categories": ["Auto Repair", "Automotive", "Car Dealers"], "city": "Karlsruhe", "review_count": 5, "name": "Audi Zentrum Karlsruhe", "neighborhoods": [], "longitude": 8.44226, "state": "BW", "stars": 2.5, "latitude": 49.0062, "attributes": {"Price Range": 4}, "type": "business"}
{"business_id": "HIlcj33VY5Aa6eOuyu04Og", "full_address": "Dieselstr. 1\n76448 Durmersheim", "hours": {}, "open": true, "categories": ["Auto Repair", "Automotive"], "city": "Durmersheim", "review_count": 3, "name": "Autoservice Maier", "neighborhoods": [], "longitude": 8.262, "state": "BW", "stars": 3.5, "latitude": 48.9414, "attributes": {"Price Range": 2}, "type": "business"}
{"business_id": "NEYJeDUNiWVHJY2jQ8AbUA", "full_address": "Ottostr. 22\n76227 Karlsruhe", "hours": {}, "open": true, "categories": ["Auto Repair", "Automotive", "Car Rental", "Car Dealers", "Hotels & Travel"], "city": "Karlsruhe", "review_count": 4, "name": "Ungeheuer Automobile Bmw Vertragsh\u00e4ndler Autohaus", "neighborhoods": [], "longitude": 8.43545, "state": "BW", "stars": 1.0, "latitude": 48.9966, "attributes": {"Price Range": 4}, "type": "business"}
{"business_id": "8ZGrdBf9yv0hJt1aZgX7dA", "full_address": "Haid-und-Neu-Str. 30a\n76131 Karlsruhe", "hours": {}, "open": true, "categories": ["Automotive", "Gas & Service Stations"], "city": "Karlsruhe", "review_count": 5, "name": "Jet Tankstelle Gerhard Hamm", "neighborhoods": [], "longitude": 8.42881, "state": "BW", "stars": 4.0, "latitude": 49.0133, "attributes": {"Parking": {"garage": false, "validated": false, "street": false, "lot": false, "valet": false}, "Accepts Credit Cards": true, "Wheelchair Accessible": true, "Price Range": 1}, "type": "business"}
{"business_id": "KVxIu47Od2rnDvGWmO1KCA", "full_address": "Zeppelinstr. 8\n76448 Durmersheim", "hours": {}, "open": true, "categories": ["Tires", "Automotive", "Car Dealers"], "city": "Durmersheim", "review_count": 3, "name": "Reifenhaus Feller", "neighborhoods": [], "longitude": 8.26244, "state": "BW", "stars": 1.5, "latitude": 48.9416, "attributes": {"Parking": {"garage": false, "validated": false, "street": false, "lot": false, "valet": false}, "Accepts Credit Cards": true, "Wheelchair Accessible": true, "Price Range": 3}, "type": "business"}
{"business_id": "HIZTPZ4tXvB_EbNh3DFFNQ", "full_address": "Ludwig-Wilhelm-Str. 15\n76131 Karlsruhe", "hours": {}, "open": true, "categories": ["Hotels & Travel", "Car Rental", "Automotive"], "city": "Karlsruhe", "review_count": 10, "name": "Stadtmobil CarSharing", "neighborhoods": [], "longitude": 8.42235, "state": "BW", "stars": 4.5, "latitude": 49.0095, "attributes": {"Price Range": 1}, "type": "business"}
{"business_id": "PuPi36oN9F0O8LsIK6yMng", "full_address": "Stuttgarter Str. 57\n76137 Karlsruhe", "hours": {}, "open": true, "categories": ["Car Wash", "Automotive"], "city": "Karlsruhe", "review_count": 4, "name": "Imo Autopflege", "neighborhoods": [], "longitude": 8.4228224, "state": "BW", "stars": 3.5, "latitude": 49.0017255, "attributes": {"Price Range": 3}, "type": "business"}
{"business_id": "UEm1wCQvtUlXJJYhV_ckRw", "full_address": "Pulverhausstr. 38\n76135 Karlsruhe", "hours": {}, "open": true, "categories": ["Car Wash", "Automotive"], "city": "Karlsruhe", "review_count": 5, "name": "IMO-Autowaschstra\u00dfe", "neighborhoods": [], "longitude": 8.37151, "state": "BW", "stars": 5.0, "latitude": 48.9906, "attributes": {"Accepts Credit Cards": false, "Wheelchair Accessible": true, "Price Range": 2}, "type": "business"}
{"business_id": "4N3t84XBpdBk0b1D6d9oYw", "full_address": "Karlsruher Str. 50\n76275 Ettlingen", "hours": {}, "open": true, "categories": ["Automotive", "Gas & Service Stations"], "city": "Ettlingen", "review_count": 4, "name": "Aral", "neighborhoods": [], "longitude": 8.40667, "state": "BW", "stars": 4.0, "latitude": 48.9581, "attributes": {"Price Range": 3}, "type": "business"}
{"business_id": "cNHMLhlDBLeMP-UcES677g", "full_address": "Am M\u00fchlburger Bahnhof  10\nbeim Autohaus Zschernitz\n76189 Karlsruhe", "hours": {"Monday": {"close": "19:00", "open": "09:00"}, "Tuesday": {"close": "19:00", "open": "09:00"}, "Friday": {"close": "19:00", "open": "09:00"}, "Wednesday": {"close": "19:00", "open": "09:00"}, "Thursday": {"close": "19:00", "open": "09:00"}, "Saturday": {"close": "17:00", "open": "09:00"}}, "open": true, "categories": ["Automotive"], "city": "Karlsruhe", "review_count": 4, "name": "Beauty Car", "neighborhoods": [], "longitude": 8.35114, "state": "BW", "stars": 3.0, "latitude": 49.016, "attributes": {"Parking": {"garage": false, "validated": false, "street": false, "lot": false, "valet": false}, "Accepts Credit Cards": false, "Price Range": 2}, "type": "business"}
{"business_id": "uwlK60hWjozFJULa5etk6A", "full_address": "Ottostr. 6\n76227 Karlsruhe", "hours": {"Monday": {"close": "19:00", "open": "08:00"}, "Tuesday": {"close": "19:00", "open": "08:00"}, "Friday": {"close": "19:00", "open": "08:00"}, "Wednesday": {"close": "19:00", "open": "08:00"}, "Thursday": {"close": "19:00", "open": "08:00"}, "Saturday": {"close": "18:00", "open": "08:00"}}, "open": true, "categories": ["Car Wash", "Automotive"], "city": "Karlsruhe", "review_count": 5, "name": "Waschpark Karlsruhe", "neighborhoods": [], "longitude": 8.44578266143799, "state": "BW", "stars": 4.0, "latitude": 48.9966562813014, "attributes": {}, "type": "business"}
{"business_id": "zM5wAxEDbOMxDHllgDkTyg", "full_address": "Windeckstr. 9\n76135 Karlsruhe", "hours": {"Monday": {"close": "19:00", "open": "07:30"}, "Tuesday": {"close": "19:00", "open": "07:30"}, "Friday": {"close": "19:00", "open": "07:30"}, "Wednesday": {"close": "19:00", "open": "07:30"}, "Thursday": {"close": "19:00", "open": "07:30"}, "Saturday": {"close": "16:00", "open": "08:00"}}, "open": true, "categories": ["Auto Repair", "Automotive", "Auto Parts & Supplies"], "city": "Karlsruhe", "review_count": 9, "name": "A.t.u", "neighborhoods": [], "longitude": 8.3747485, "state": "BW", "stars": 2.5, "latitude": 48.9894598, "attributes": {"Price Range": 3}, "type": "business"}
{"business_id": "bgBafNxzbhvsC4GAivwWtQ", "full_address": "Z\u00e4hringerstra\u00dfe 69\nParkhaus Karstadt\n76133 Karlsruhe", "hours": {}, "open": true, "categories": ["Bars", "Food", "Automotive", "Cafes", "Coffee & Tea", "Nightlife", "Parking", "Restaurants"], "city": "Karlsruhe", "review_count": 43, "name": "Parkdeckzehn", "neighborhoods": [], "longitude": 8.4021614, "state": "BW", "stars": 3.5, "latitude": 49.0088748, "attributes": {"Alcohol": "full_bar", "Noise Level": "average", "Music": {"dj": true, "background_music": false, "karaoke": false, "live": false, "video": false, "jukebox": false}, "Attire": "casual", "Ambience": {"romantic": false, "intimate": false, "classy": false, "hipster": false, "divey": false, "touristy": false, "trendy": false, "upscale": false, "casual": false}, "Good for Kids": false, "Wheelchair Accessible": true, "Good For Dancing": false, "Delivery": false, "Coat Check": false, "Smoking": "yes", "Accepts Credit Cards": false, "Take-out": false, "Price Range": 2, "Happy Hour": true, "Outdoor Seating": true, "Takes Reservations": true, "Waiter Service": true, "Wi-Fi": "no", "Caters": false, "Good For": {"dessert": false, "latenight": false, "lunch": false, "dinner": false, "breakfast": false, "brunch": false}, "Parking": {"garage": true, "validated": false, "street": false, "lot": false, "valet": false}, "Has TV": true, "Good For Groups": true}, "type": "business"}
{"business_id": "B8N9wQBMktl0qwz3-22n6w", "full_address": "Gottesauer Str. 6\n76131 Karlsruhe", "hours": {}, "open": true, "categories": ["Automotive", "Auto Parts & Supplies", "Car Dealers"], "city": "Karlsruhe", "review_count": 4, "name": "Autohaus Am Durlacher Tor", "neighborhoods": [], "longitude": 8.4169, "state": "BW", "stars": 4.5, "latitude": 49.0083, "attributes": {"Parking": {"garage": false, "validated": false, "street": false, "lot": false, "valet": false}, "Price Range": 4}, "type": "business"}
