{"business_id": "rI-zKwYMA6ET1TK_oybZlA", "full_address": "Marienstr. 107\n76137 Karlsruhe", "hours": {}, "open": true, "categories": ["Food Delivery Services", "Food", "Caterers", "Event Planning & Services", "Italian", "Restaurants"], "city": "Karlsruhe", "review_count": 5, "name": "Pizza Heimservice Exzellent", "neighborhoods": [], "longitude": 8.40859, "state": "BW", "stars": 2.5, "latitude": 48.9964, "attributes": {"Delivery": true, "Price Range": 2}, "type": "business"}
{"business_id": "XcAPlAy9JANXI7sGXAkSpg", "full_address": "Ludwig-Wilhelm 9\n76131 Karlsruhe", "hours": {}, "open": true, "categories": ["Food", "Food Delivery Services"], "city": "Karlsruhe", "review_count": 6, "name": "Adria", "neighborhoods": [], "longitude": 8.42144, "state": "BW", "stars": 4.0, "latitude": 49.0095, "attributes": {"Take-out": true, "Alcohol": "beer_and_wine", "Takes Reservations": true, "Delivery": true, "Wheelchair Accessible": false, "Outdoor Seating": true, "Parking": {"garage": false, "validated": false, "street": false, "lot": false, "valet": false}, "Smoking": "no", "Accepts Credit Cards": false, "Price Range": 2}, "type": "business"}
{"business_id": "OIMZrrL5kGyZ6W6J8xsyEw", "full_address": "Kaiser 49\n76131 Karlsruhe", "hours": {"Monday": {"close": "23:00", "open": "17:00"}, "Tuesday": {"close": "23:00", "open": "17:00"}, "Friday": {"close": "23:00", "open": "17:00"}, "Wednesday": {"close": "23:00", "open": "17:00"}, "Thursday": {"close": "23:00", "open": "17:00"}, "Sunday": {"close": "23:00", "open": "11:00"}, "Saturday": {"close": "00:00", "open": "00:00"}}, "open": true, "categories": ["Food", "Food Delivery Services", "Restaurants", "Pizza", "Italian"], "city": "Karlsruhe", "review_count": 10, "name": "Pizza Blitz", "neighborhoods": [], "longitude": 8.41238, "state": "BW", "stars": 3.5, "latitude": 49.0091, "attributes": {"Take-out": true, "Wi-Fi": "no", "Good For": {"dessert": false, "latenight": false, "lunch": false, "dinner": false, "breakfast": false, "brunch": false}, "Takes Reservations": false, "Delivery": true, "Outdoor Seating": false, "Parking": {"garage": false, "validated": false, "street": false, "lot": false, "valet": false}, "Alcohol": "beer_and_wine", "Smoking": "no", "Wheelchair Accessible": true, "Good For Groups": true, "Price Range": 2}, "type": "business"}
{"business_id": "zCCSkDIz7KUHoDDdN64L7Q", "full_address": "Lessingstr.  52\n76135 Karlsruhe", "hours": {}, "open": true, "categories": ["Food Delivery Services", "Financial Services", "Indian", "Food", "Banks & Credit Unions", "Restaurants"], "city": "Karlsruhe", "review_count": 6, "name": "Indian Curry Haus", "neighborhoods": [], "longitude": 8.3848354, "state": "BW", "stars": 3.0, "latitude": 49.007288, "attributes": {}, "type": "business"}
{"business_id": "feSkNQq2U7scCVkGGJpudA", "full_address": "Fritz-Erler-Str. 1\n76133 Karlsruhe", "hours": {"Monday": {"close": "23:00", "open": "11:00"}, "Tuesday": {"close": "23:00", "open": "11:00"}, "Friday": {"close": "23:00", "open": "11:00"}, "Wednesday": {"close": "23:00", "open": "11:00"}, "Thursday": {"close": "23:00", "open": "11:00"}, "Sunday": {"close": "23:00", "open": "11:00"}, "Saturday": {"close": "23:00", "open": "11:00"}}, "open": true, "categories": ["Food", "Food Delivery Services", "Pizza", "Vegan", "Restaurants"], "city": "Karlsruhe", "review_count": 22, "name": "Kais Pizza", "neighborhoods": [], "longitude": 8.41021, "state": "BW", "stars": 3.5, "latitude": 49.0087, "attributes": {"Take-out": true, "Good For": {"dessert": false, "latenight": false, "lunch": false, "dinner": false, "breakfast": false, "brunch": false}, "Noise Level": "quiet", "Parking": {"garage": false, "validated": false, "street": false, "lot": false, "valet": false}, "Has TV": false, "Smoking": "outdoor", "Delivery": true, "Ambience": {"romantic": false, "intimate": false, "classy": false, "hipster": false, "divey": false, "touristy": false, "trendy": false, "upscale": false, "casual": false}, "Wheelchair Accessible": false, "Outdoor Seating": true, "Attire": "casual", "Alcohol": "beer_and_wine", "Waiter Service": false, "Accepts Credit Cards": false, "Good for Kids": true, "Good For Groups": true, "Price Range": 2}, "type": "business"}
{"business_id": "i5RiBntsRyVbH4sZPnhfyg", "full_address": "Ernst-Friedrich-Str. 11\n76227 Karlsruhe", "hours": {}, "open": true, "categories": ["Food", "Food Delivery Services", "Italian", "Pizza", "Restaurants"], "city": "Karlsruhe", "review_count": 4, "name": "Piccola Pizzaservice", "neighborhoods": [], "longitude": 8.46293, "state": "BW", "stars": 4.0, "latitude": 48.9985, "attributes": {}, "type": "business"}
{"business_id": "7Sl1qWqsYO_K0Ah7btDzbA", "full_address": "Augustenburgstr. 10\n76229 Karlsruhe", "hours": {}, "open": true, "categories": ["Food Delivery Services", "Food", "Mediterranean", "German", "Italian", "Restaurants"], "city": "Karlsruhe", "review_count": 10, "name": "Ristorante Schwanen", "neighborhoods": [], "longitude": 8.49771, "state": "BW", "stars": 4.0, "latitude": 49.0042, "attributes": {"Take-out": false, "Alcohol": "beer_and_wine", "Delivery": false, "Dogs Allowed": false, "Outdoor Seating": false, "Parking": {"garage": false, "street": false, "validated": false, "lot": false, "valet": false}, "Smoking": "no", "Accepts Credit Cards": false, "Good For Groups": true, "Price Range": 2}, "type": "business"}
{"business_id": "Za_v4P5dEdOFkGFvVgzg7A", "full_address": "Ottostra\u00dfe 3c\n76227 Karlsruhe", "hours": {}, "open": true, "categories": ["Food", "Food Delivery Services", "Indian", "Restaurants"], "city": "Karlsruhe", "review_count": 4, "name": "Bollywood Curryhaus", "neighborhoods": [], "longitude": 8.44813, "state": "BW", "stars": 3.0, "latitude": 48.99565, "attributes": {"Price Range": 2}, "type": "business"}
{"business_id": "y_qmQDXa5ve9zdOd46P7Zw", "full_address": "Scheffelstr. 9\n76135 Karlsruhe", "hours": {"Monday": {"close": "22:30", "open": "17:00"}, "Tuesday": {"close": "22:30", "open": "17:00"}, "Friday": {"close": "23:00", "open": "17:00"}, "Wednesday": {"close": "22:30", "open": "17:00"}, "Thursday": {"close": "22:30", "open": "17:00"}, "Sunday": {"close": "22:30", "open": "17:00"}, "Saturday": {"close": "23:00", "open": "16:00"}}, "open": true, "categories": ["Food", "Food Delivery Services", "Pizza", "Restaurants"], "city": "Karlsruhe", "review_count": 3, "name": "Pizza Da Roberto", "neighborhoods": [], "longitude": 8.3819565, "state": "BW", "stars": 1.0, "latitude": 49.0097298, "attributes": {"Price Range": 2}, "type": "business"}
{"business_id": "nTfeDYEy9fV4dEc7LMgM2g", "full_address": "Breite 58\n76135 Karlsruhe", "hours": {"Monday": {"close": "23:00", "open": "17:00"}, "Tuesday": {"close": "23:00", "open": "17:00"}, "Friday": {"close": "23:00", "open": "17:00"}, "Wednesday": {"close": "23:00", "open": "17:00"}, "Thursday": {"close": "23:00", "open": "17:00"}, "Sunday": {"close": "23:00", "open": "12:00"}, "Saturday": {"close": "00:00", "open": "00:00"}}, "open": true, "categories": ["Food", "Food Delivery Services", "Restaurants", "Pizza", "Italian"], "city": "Karlsruhe", "review_count": 3, "name": "Pizza Sofort", "neighborhoods": [], "longitude": 8.38906, "state": "BW", "stars": 2.0, "latitude": 48.9916, "attributes": {"Take-out": false, "Delivery": false, "Dogs Allowed": false, "Outdoor Seating": false, "Parking": {"garage": false, "street": false, "validated": false, "lot": false, "valet": false}, "Smoking": "no", "Accepts Credit Cards": false}, "type": "business"}
{"business_id": "H9FMHAE6UK55RH0N6yItEA", "full_address": "J\u00f6hlingerstr. 27\n76327 Pfinztal", "hours": {}, "open": true, "categories": ["Food", "Food Delivery Services", "Restaurants", "Italian"], "city": "Pfinztal", "review_count": 7, "name": "extrem pizza", "neighborhoods": [], "longitude": 8.53064, "state": "BW", "stars": 4.5, "latitude": 49.0074, "attributes": {"Take-out": true, "Wi-Fi": "free", "Good For": {"dessert": false, "latenight": false, "lunch": false, "dinner": false, "breakfast": false, "brunch": false}, "Parking": {"garage": false, "validated": false, "street": false, "lot": false, "valet": false}, "Delivery": true, "Wheelchair Accessible": true, "Outdoor Seating": false, "Takes Reservations": false, "Alcohol": "beer_and_wine", "Smoking": "yes", "Accepts Credit Cards": false, "Good For Groups": true, "Price Range": 2}, "type": "business"}
{"business_id": "qK447qQ0UYOGGWjlZDxycQ", "full_address": "Moltkestr. 79a\n76133 Karlsruhe", "hours": {}, "open": true, "categories": ["Food", "Food Delivery Services", "Restaurants"], "city": "Karlsruhe", "review_count": 5, "name": "Heimservice + Restaurant Pronto Pronto", "neighborhoods": [], "longitude": 8.37556, "state": "BW", "stars": 1.5, "latitude": 49.0151, "attributes": {}, "type": "business"}
{"business_id": "rI-zKwYMA6ET1TK_oybZlA", "full_address": "Marienstr. 107\n76137 Karlsruhe", "hours": {}, "open": true, "categories": ["Food Delivery Services", "Food", "Caterers", "Event Planning & Services", "Italian", "Restaurants"], "city": "Karlsruhe", "review_count": 5, "name": "Pizza Heimservice Exzellent", "neighborhoods": [], "longitude": 8.40859, "state": "BW", "stars": 2.5, "latitude": 48.9964, "attributes": {"Delivery": true, "Price Range": 2}, "type": "business"}
{"business_id": "XcAPlAy9JANXI7sGXAkSpg", "full_address": "Ludwig-Wilhelm 9\n76131 Karlsruhe", "hours": {}, "open": true, "categories": ["Food", "Food Delivery Services"], "city": "Karlsruhe", "review_count": 6, "name": "Adria", "neighborhoods": [], "longitude": 8.42144, "state": "BW", "stars": 4.0, "latitude": 49.0095, "attributes": {"Take-out": true, "Alcohol": "beer_and_wine", "Takes Reservations": true, "Delivery": true, "Wheelchair Accessible": false, "Outdoor Seating": true, "Parking": {"garage": false, "validated": false, "street": false, "lot": false, "valet": false}, "Smoking": "no", "Accepts Credit Cards": false, "Price Range": 2}, "type": "business"}
{"business_id": "OIMZrrL5kGyZ6W6J8xsyEw", "full_address": "Kaiser 49\n76131 Karlsruhe", "hours": {"Monday": {"close": "23:00", "open": "17:00"}, "Tuesday": {"close": "23:00", "open": "17:00"}, "Friday": {"close": "23:00", "open": "17:00"}, "Wednesday": {"close": "23:00", "open": "17:00"}, "Thursday": {"close": "23:00", "open": "17:00"}, "Sunday": {"close": "23:00", "open": "11:00"}, "Saturday": {"close": "00:00", "open": "00:00"}}, "open": true, "categories": ["Food", "Food Delivery Services", "Restaurants", "Pizza", "Italian"], "city": "Karlsruhe", "review_count": 10, "name": "Pizza Blitz", "neighborhoods": [], "longitude": 8.41238, "state": "BW", "stars": 3.5, "latitude": 49.0091, "attributes": {"Take-out": true, "Wi-Fi": "no", "Good For": {"dessert": false, "latenight": false, "lunch": false, "dinner": false, "breakfast": false, "brunch": false}, "Takes Reservations": false, "Delivery": true, "Outdoor Seating": false, "Parking": {"garage": false, "validated": false, "street": false, "lot": false, "valet": false}, "Alcohol": "beer_and_wine", "Smoking": "no", "Wheelchair Accessible": true, "Good For Groups": true, "Price Range": 2}, "type": "business"}
{"business_id": "zCCSkDIz7KUHoDDdN64L7Q", "full_address": "Lessingstr.  52\n76135 Karlsruhe", "hours": {}, "open": true, "categories": ["Food Delivery Services", "Financial Services", "Indian", "Food", "Banks & Credit Unions", "Restaurants"], "city": "Karlsruhe", "review_count": 6, "name": "Indian Curry Haus", "neighborhoods": [], "longitude": 8.3848354, "state": "BW", "stars": 3.0, "latitude": 49.007288, "attributes": {}, "type": "business"}
{"business_id": "feSkNQq2U7scCVkGGJpudA", "full_address": "Fritz-Erler-Str. 1\n76133 Karlsruhe", "hours": {"Monday": {"close": "23:00", "open": "11:00"}, "Tuesday": {"close": "23:00", "open": "11:00"}, "Friday": {"close": "23:00", "open": "11:00"}, "Wednesday": {"close": "23:00", "open": "11:00"}, "Thursday": {"close": "23:00", "open": "11:00"}, "Sunday": {"close": "23:00", "open": "11:00"}, "Saturday": {"close": "23:00", "open": "11:00"}}, "open": true, "categories": ["Food", "Food Delivery Services", "Pizza", "Vegan", "Restaurants"], "city": "Karlsruhe", "review_count": 22, "name": "Kais Pizza", "neighborhoods": [], "longitude": 8.41021, "state": "BW", "stars": 3.5, "latitude": 49.0087, "attributes": {"Take-out": true, "Good For": {"dessert": false, "latenight": false, "lunch": false, "dinner": false, "breakfast": false, "brunch": false}, "Noise Level": "quiet", "Parking": {"garage": false, "validated": false, "street": false, "lot": false, "valet": false}, "Has TV": false, "Smoking": "outdoor", "Delivery": true, "Ambience": {"romantic": false, "intimate": false, "classy": false, "hipster": false, "divey": false, "touristy": false, "trendy": false, "upscale": false, "casual": false}, "Wheelchair Accessible": false, "Outdoor Seating": true, "Attire": "casual", "Alcohol": "beer_and_wine", "Waiter Service": false, "Accepts Credit Cards": false, "Good for Kids": true, "Good For Groups": true, "Price Range": 2}, "type": "business"}
{"business_id": "i5RiBntsRyVbH4sZPnhfyg", "full_address": "Ernst-Friedrich-Str. 11\n76227 Karlsruhe", "hours": {}, "open": true, "categories": ["Food", "Food Delivery Services", "Italian", "Pizza", "Restaurants"], "city": "Karlsruhe", "review_count": 4, "name": "Piccola Pizzaservice", "neighborhoods": [], "longitude": 8.46293, "state": "BW", "stars": 4.0, "latitude": 48.9985, "attributes": {}, "type": "business"}
{"business_id": "7Sl1qWqsYO_K0Ah7btDzbA", "full_address": "Augustenburgstr. 10\n76229 Karlsruhe", "hours": {}, "open": true, "categories": ["Food Delivery Services", "Food", "Mediterranean", "German", "Italian", "Restaurants"], "city": "Karlsruhe", "review_count": 10, "name": "Ristorante Schwanen", "neighborhoods": [], "longitude": 8.49771, "state": "BW", "stars": 4.0, "latitude": 49.0042, "attributes": {"Take-out": false, "Alcohol": "beer_and_wine", "Delivery": false, "Dogs Allowed": false, "Outdoor Seating": false, "Parking": {"garage": false, "street": false, "validated": false, "lot": false, "valet": false}, "Smoking": "no", "Accepts Credit Cards": false, "Good For Groups": true, "Price Range": 2}, "type": "business"}
{"business_id": "Za_v4P5dEdOFkGFvVgzg7A", "full_address": "Ottostra\u00dfe 3c\n76227 Karlsruhe", "hours": {}, "open": true, "categories": ["Food", "Food Delivery Services", "Indian", "Restaurants"], "city": "Karlsruhe", "review_count": 4, "name": "Bollywood Curryhaus", "neighborhoods": [], "longitude": 8.44813, "state": "BW", "stars": 3.0, "latitude": 48.99565, "attributes": {"Price Range": 2}, "type": "business"}
{"business_id": "y_qmQDXa5ve9zdOd46P7Zw", "full_address": "Scheffelstr. 9\n76135 Karlsruhe", "hours": {"Monday": {"close": "22:30", "open": "17:00"}, "Tuesday": {"close": "22:30", "open": "17:00"}, "Friday": {"close": "23:00", "open": "17:00"}, "Wednesday": {"close": "22:30", "open": "17:00"}, "Thursday": {"close": "22:30", "open": "17:00"}, "Sunday": {"close": "22:30", "open": "17:00"}, "Saturday": {"close": "23:00", "open": "16:00"}}, "open": true, "categories": ["Food", "Food Delivery Services", "Pizza", "Restaurants"], "city": "Karlsruhe", "review_count": 3, "name": "Pizza Da Roberto", "neighborhoods": [], "longitude": 8.3819565, "state": "BW", "stars": 1.0, "latitude": 49.0097298, "attributes": {"Price Range": 2}, "type": "business"}
{"business_id": "nTfeDYEy9fV4dEc7LMgM2g", "full_address": "Breite 58\n76135 Karlsruhe", "hours": {"Monday": {"close": "23:00", "open": "17:00"}, "Tuesday": {"close": "23:00", "open": "17:00"}, "Friday": {"close": "23:00", "open": "17:00"}, "Wednesday": {"close": "23:00", "open": "17:00"}, "Thursday": {"close": "23:00", "open": "17:00"}, "Sunday": {"close": "23:00", "open": "12:00"}, "Saturday": {"close": "00:00", "open": "00:00"}}, "open": true, "categories": ["Food", "Food Delivery Services", "Restaurants", "Pizza", "Italian"], "city": "Karlsruhe", "review_count": 3, "name": "Pizza Sofort", "neighborhoods": [], "longitude": 8.38906, "state": "BW", "stars": 2.0, "latitude": 48.9916, "attributes": {"Take-out": false, "Delivery": false, "Dogs Allowed": false, "Outdoor Seating": false, "Parking": {"garage": false, "street": false, "validated": false, "lot": false, "valet": false}, "Smoking": "no", "Accepts Credit Cards": false}, "type": "business"}
{"business_id": "H9FMHAE6UK55RH0N6yItEA", "full_address": "J\u00f6hlingerstr. 27\n76327 Pfinztal", "hours": {}, "open": true, "categories": ["Food", "Food Delivery Services", "Restaurants", "Italian"], "city": "Pfinztal", "review_count": 7, "name": "extrem pizza", "neighborhoods": [], "longitude": 8.53064, "state": "BW", "stars": 4.5, "latitude": 49.0074, "attributes": {"Take-out": true, "Wi-Fi": "free", "Good For": {"dessert": false, "latenight": false, "lunch": false, "dinner": false, "breakfast": false, "brunch": false}, "Parking": {"garage": false, "validated": false, "street": false, "lot": false, "valet": false}, "Delivery": true, "Wheelchair Accessible": true, "Outdoor Seating": false, "Takes Reservations": false, "Alcohol": "beer_and_wine", "Smoking": "yes", "Accepts Credit Cards": false, "Good For Groups": true, "Price Range": 2}, "type": "business"}
{"business_id": "qK447qQ0UYOGGWjlZDxycQ", "full_address": "Moltkestr. 79a\n76133 Karlsruhe", "hours": {}, "open": true, "categories": ["Food", "Food Delivery Services", "Restaurants"], "city": "Karlsruhe", "review_count": 5, "name": "Heimservice + Restaurant Pronto Pronto", "neighborhoods": [], "longitude": 8.37556, "state": "BW", "stars": 1.5, "latitude": 49.0151, "attributes": {}, "type": "business"}
{"business_id": "rI-zKwYMA6ET1TK_oybZlA", "full_address": "Marienstr. 107\n76137 Karlsruhe", "hours": {}, "open": true, "categories": ["Food Delivery Services", "Food", "Caterers", "Event Planning & Services", "Italian", "Restaurants"], "city": "Karlsruhe", "review_count": 5, "name": "Pizza Heimservice Exzellent", "neighborhoods": [], "longitude": 8.40859, "state": "BW", "stars": 2.5, "latitude": 48.9964, "attributes": {"Delivery": true, "Price Range": 2}, "type": "business"}
{"business_id": "XcAPlAy9JANXI7sGXAkSpg", "full_address": "Ludwig-Wilhelm 9\n76131 Karlsruhe", "hours": {}, "open": true, "categories": ["Food", "Food Delivery Services"], "city": "Karlsruhe", "review_count": 6, "name": "Adria", "neighborhoods": [], "longitude": 8.42144, "state": "BW", "stars": 4.0, "latitude": 49.0095, "attributes": {"Take-out": true, "Alcohol": "beer_and_wine", "Takes Reservations": true, "Delivery": true, "Wheelchair Accessible": false, "Outdoor Seating": true, "Parking": {"garage": false, "validated": false, "street": false, "lot": false, "valet": false}, "Smoking": "no", "Accepts Credit Cards": false, "Price Range": 2}, "type": "business"}
{"business_id": "OIMZrrL5kGyZ6W6J8xsyEw", "full_address": "Kaiser 49\n76131 Karlsruhe", "hours": {"Monday": {"close": "23:00", "open": "17:00"}, "Tuesday": {"close": "23:00", "open": "17:00"}, "Friday": {"close": "23:00", "open": "17:00"}, "Wednesday": {"close": "23:00", "open": "17:00"}, "Thursday": {"close": "23:00", "open": "17:00"}, "Sunday": {"close": "23:00", "open": "11:00"}, "Saturday": {"close": "00:00", "open": "00:00"}}, "open": true, "categories": ["Food", "Food Delivery Services", "Restaurants", "Pizza", "Italian"], "city": "Karlsruhe", "review_count": 10, "name": "Pizza Blitz", "neighborhoods": [], "longitude": 8.41238, "state": "BW", "stars": 3.5, "latitude": 49.0091, "attributes": {"Take-out": true, "Wi-Fi": "no", "Good For": {"dessert": false, "latenight": false, "lunch": false, "dinner": false, "breakfast": false, "brunch": false}, "Takes Reservations": false, "Delivery": true, "Outdoor Seating": false, "Parking": {"garage": false, "validated": false, "street": false, "lot": false, "valet": false}, "Alcohol": "beer_and_wine", "Smoking": "no", "Wheelchair Accessible": true, "Good For Groups": true, "Price Range": 2}, "type": "business"}
{"business_id": "zCCSkDIz7KUHoDDdN64L7Q", "full_address": "Lessingstr.  52\n76135 Karlsruhe", "hours": {}, "open": true, "categories": ["Food Delivery Services", "Financial Services", "Indian", "Food", "Banks & Credit Unions", "Restaurants"], "city": "Karlsruhe", "review_count": 6, "name": "Indian Curry Haus", "neighborhoods": [], "longitude": 8.3848354, "state": "BW", "stars": 3.0, "latitude": 49.007288, "attributes": {}, "type": "business"}
{"business_id": "feSkNQq2U7scCVkGGJpudA", "full_address": "Fritz-Erler-Str. 1\n76133 Karlsruhe", "hours": {"Monday": {"close": "23:00", "open": "11:00"}, "Tuesday": {"close": "23:00", "open": "11:00"}, "Friday": {"close": "23:00", "open": "11:00"}, "Wednesday": {"close": "23:00", "open": "11:00"}, "Thursday": {"close": "23:00", "open": "11:00"}, "Sunday": {"close": "23:00", "open": "11:00"}, "Saturday": {"close": "23:00", "open": "11:00"}}, "open": true, "categories": ["Food", "Food Delivery Services", "Pizza", "Vegan", "Restaurants"], "city": "Karlsruhe", "review_count": 22, "name": "Kais Pizza", "neighborhoods": [], "longitude": 8.41021, "state": "BW", "stars": 3.5, "latitude": 49.0087, "attributes": {"Take-out": true, "Good For": {"dessert": false, "latenight": false, "lunch": false, "dinner": false, "breakfast": false, "brunch": false}, "Noise Level": "quiet", "Parking": {"garage": false, "validated": false, "street": false, "lot": false, "valet": false}, "Has TV": false, "Smoking": "outdoor", "Delivery": true, "Ambience": {"romantic": false, "intimate": false, "classy": false, "hipster": false, "divey": false, "touristy": false, "trendy": false, "upscale": false, "casual": false}, "Wheelchair Accessible": false, "Outdoor Seating": true, "Attire": "casual", "Alcohol": "beer_and_wine", "Waiter Service": false, "Accepts Credit Cards": false, "Good for Kids": true, "Good For Groups": true, "Price Range": 2}, "type": "business"}
{"business_id": "i5RiBntsRyVbH4sZPnhfyg", "full_address": "Ernst-Friedrich-Str. 11\n76227 Karlsruhe", "hours": {}, "open": true, "categories": ["Food", "Food Delivery Services", "Italian", "Pizza", "Restaurants"], "city": "Karlsruhe", "review_count": 4, "name": "Piccola Pizzaservice", "neighborhoods": [], "longitude": 8.46293, "state": "BW", "stars": 4.0, "latitude": 48.9985, "attributes": {}, "type": "business"}
{"business_id": "7Sl1qWqsYO_K0Ah7btDzbA", "full_address": "Augustenburgstr. 10\n76229 Karlsruhe", "hours": {}, "open": true, "categories": ["Food Delivery Services", "Food", "Mediterranean", "German", "Italian", "Restaurants"], "city": "Karlsruhe", "review_count": 10, "name": "Ristorante Schwanen", "neighborhoods": [], "longitude": 8.49771, "state": "BW", "stars": 4.0, "latitude": 49.0042, "attributes": {"Take-out": false, "Alcohol": "beer_and_wine", "Delivery": false, "Dogs Allowed": false, "Outdoor Seating": false, "Parking": {"garage": false, "street": false, "validated": false, "lot": false, "valet": false}, "Smoking": "no", "Accepts Credit Cards": false, "Good For Groups": true, "Price Range": 2}, "type": "business"}
{"business_id": "Za_v4P5dEdOFkGFvVgzg7A", "full_address": "Ottostra\u00dfe 3c\n76227 Karlsruhe", "hours": {}, "open": true, "categories": ["Food", "Food Delivery Services", "Indian", "Restaurants"], "city": "Karlsruhe", "review_count": 4, "name": "Bollywood Curryhaus", "neighborhoods": [], "longitude": 8.44813, "state": "BW", "stars": 3.0, "latitude": 48.99565, "attributes": {"Price Range": 2}, "type": "business"}
{"business_id": "y_qmQDXa5ve9zdOd46P7Zw", "full_address": "Scheffelstr. 9\n76135 Karlsruhe", "hours": {"Monday": {"close": "22:30", "open": "17:00"}, "Tuesday": {"close": "22:30", "open": "17:00"}, "Friday": {"close": "23:00", "open": "17:00"}, "Wednesday": {"close": "22:30", "open": "17:00"}, "Thursday": {"close": "22:30", "open": "17:00"}, "Sunday": {"close": "22:30", "open": "17:00"}, "Saturday": {"close": "23:00", "open": "16:00"}}, "open": true, "categories": ["Food", "Food Delivery Services", "Pizza", "Restaurants"], "city": "Karlsruhe", "review_count": 3, "name": "Pizza Da Roberto", "neighborhoods": [], "longitude": 8.3819565, "state": "BW", "stars": 1.0, "latitude": 49.0097298, "attributes": {"Price Range": 2}, "type": "business"}
{"business_id": "nTfeDYEy9fV4dEc7LMgM2g", "full_address": "Breite 58\n76135 Karlsruhe", "hours": {"Monday": {"close": "23:00", "open": "17:00"}, "Tuesday": {"close": "23:00", "open": "17:00"}, "Friday": {"close": "23:00", "open": "17:00"}, "Wednesday": {"close": "23:00", "open": "17:00"}, "Thursday": {"close": "23:00", "open": "17:00"}, "Sunday": {"close": "23:00", "open": "12:00"}, "Saturday": {"close": "00:00", "open": "00:00"}}, "open": true, "categories": ["Food", "Food Delivery Services", "Restaurants", "Pizza", "Italian"], "city": "Karlsruhe", "review_count": 3, "name": "Pizza Sofort", "neighborhoods": [], "longitude": 8.38906, "state": "BW", "stars": 2.0, "latitude": 48.9916, "attributes": {"Take-out": false, "Delivery": false, "Dogs Allowed": false, "Outdoor Seating": false, "Parking": {"garage": false, "street": false, "validated": false, "lot": false, "valet": false}, "Smoking": "no", "Accepts Credit Cards": false}, "type": "business"}
{"business_id": "H9FMHAE6UK55RH0N6yItEA", "full_address": "J\u00f6hlingerstr. 27\n76327 Pfinztal", "hours": {}, "open": true, "categories": ["Food", "Food Delivery Services", "Restaurants", "Italian"], "city": "Pfinztal", "review_count": 7, "name": "extrem pizza", "neighborhoods": [], "longitude": 8.53064, "state": "BW", "stars": 4.5, "latitude": 49.0074, "attributes": {"Take-out": true, "Wi-Fi": "free", "Good For": {"dessert": false, "latenight": false, "lunch": false, "dinner": false, "breakfast": false, "brunch": false}, "Parking": {"garage": false, "validated": false, "street": false, "lot": false, "valet": false}, "Delivery": true, "Wheelchair Accessible": true, "Outdoor Seating": false, "Takes Reservations": false, "Alcohol": "beer_and_wine", "Smoking": "yes", "Accepts Credit Cards": false, "Good For Groups": true, "Price Range": 2}, "type": "business"}
{"business_id": "qK447qQ0UYOGGWjlZDxycQ", "full_address": "Moltkestr. 79a\n76133 Karlsruhe", "hours": {}, "open": true, "categories": ["Food", "Food Delivery Services", "Restaurants"], "city": "Karlsruhe", "review_count": 5, "name": "Heimservice + Restaurant Pronto Pronto", "neighborhoods": [], "longitude": 8.37556, "state": "BW", "stars": 1.5, "latitude": 49.0151, "attributes": {}, "type": "business"}
{"business_id": "rI-zKwYMA6ET1TK_oybZlA", "full_address": "Marienstr. 107\n76137 Karlsruhe", "hours": {}, "open": true, "categories": ["Food Delivery Services", "Food", "Caterers", "Event Planning & Services", "Italian", "Restaurants"], "city": "Karlsruhe", "review_count": 5, "name": "Pizza Heimservice Exzellent", "neighborhoods": [], "longitude": 8.40859, "state": "BW", "stars": 2.5, "latitude": 48.9964, "attributes": {"Delivery": true, "Price Range": 2}, "type": "business"}
{"business_id": "XcAPlAy9JANXI7sGXAkSpg", "full_address": "Ludwig-Wilhelm 9\n76131 Karlsruhe", "hours": {}, "open": true, "categories": ["Food", "Food Delivery Services"], "city": "Karlsruhe", "review_count": 6, "name": "Adria", "neighborhoods": [], "longitude": 8.42144, "state": "BW", "stars": 4.0, "latitude": 49.0095, "attributes": {"Take-out": true, "Alcohol": "beer_and_wine", "Takes Reservations": true, "Delivery": true, "Wheelchair Accessible": false, "Outdoor Seating": true, "Parking": {"garage": false, "validated": false, "street": false, "lot": false, "valet": false}, "Smoking": "no", "Accepts Credit Cards": false, "Price Range": 2}, "type": "business"}
{"business_id": "OIMZrrL5kGyZ6W6J8xsyEw", "full_address": "Kaiser 49\n76131 Karlsruhe", "hours": {"Monday": {"close": "23:00", "open": "17:00"}, "Tuesday": {"close": "23:00", "open": "17:00"}, "Friday": {"close": "23:00", "open": "17:00"}, "Wednesday": {"close": "23:00", "open": "17:00"}, "Thursday": {"close": "23:00", "open": "17:00"}, "Sunday": {"close": "23:00", "open": "11:00"}, "Saturday": {"close": "00:00", "open": "00:00"}}, "open": true, "categories": ["Food", "Food Delivery Services", "Restaurants", "Pizza", "Italian"], "city": "Karlsruhe", "review_count": 10, "name": "Pizza Blitz", "neighborhoods": [], "longitude": 8.41238, "state": "BW", "stars": 3.5, "latitude": 49.0091, "attributes": {"Take-out": true, "Wi-Fi": "no", "Good For": {"dessert": false, "latenight": false, "lunch": false, "dinner": false, "breakfast": false, "brunch": false}, "Takes Reservations": false, "Delivery": true, "Outdoor Seating": false, "Parking": {"garage": false, "validated": false, "street": false, "lot": false, "valet": false}, "Alcohol": "beer_and_wine", "Smoking": "no", "Wheelchair Accessible": true, "Good For Groups": true, "Price Range": 2}, "type": "business"}
{"business_id": "zCCSkDIz7KUHoDDdN64L7Q", "full_address": "Lessingstr.  52\n76135 Karlsruhe", "hours": {}, "open": true, "categories": ["Food Delivery Services", "Financial Services", "Indian", "Food", "Banks & Credit Unions", "Restaurants"], "city": "Karlsruhe", "review_count": 6, "name": "Indian Curry Haus", "neighborhoods": [], "longitude": 8.3848354, "state": "BW", "stars": 3.0, "latitude": 49.007288, "attributes": {}, "type": "business"}
{"business_id": "feSkNQq2U7scCVkGGJpudA", "full_address": "Fritz-Erler-Str. 1\n76133 Karlsruhe", "hours": {"Monday": {"close": "23:00", "open": "11:00"}, "Tuesday": {"close": "23:00", "open": "11:00"}, "Friday": {"close": "23:00", "open": "11:00"}, "Wednesday": {"close": "23:00", "open": "11:00"}, "Thursday": {"close": "23:00", "open": "11:00"}, "Sunday": {"close": "23:00", "open": "11:00"}, "Saturday": {"close": "23:00", "open": "11:00"}}, "open": true, "categories": ["Food", "Food Delivery Services", "Pizza", "Vegan", "Restaurants"], "city": "Karlsruhe", "review_count": 22, "name": "Kais Pizza", "neighborhoods": [], "longitude": 8.41021, "state": "BW", "stars": 3.5, "latitude": 49.0087, "attributes": {"Take-out": true, "Good For": {"dessert": false, "latenight": false, "lunch": false, "dinner": false, "breakfast": false, "brunch": false}, "Noise Level": "quiet", "Parking": {"garage": false, "validated": false, "street": false, "lot": false, "valet": false}, "Has TV": false, "Smoking": "outdoor", "Delivery": true, "Ambience": {"romantic": false, "intimate": false, "classy": false, "hipster": false, "divey": false, "touristy": false, "trendy": false, "upscale": false, "casual": false}, "Wheelchair Accessible": false, "Outdoor Seating": true, "Attire": "casual", "Alcohol": "beer_and_wine", "Waiter Service": false, "Accepts Credit Cards": false, "Good for Kids": true, "Good For Groups": true, "Price Range": 2}, "type": "business"}
{"business_id": "i5RiBntsRyVbH4sZPnhfyg", "full_address": "Ernst-Friedrich-Str. 11\n76227 Karlsruhe", "hours": {}, "open": true, "categories": ["Food", "Food Delivery Services", "Italian", "Pizza", "Restaurants"], "city": "Karlsruhe", "review_count": 4, "name": "Piccola Pizzaservice", "neighborhoods": [], "longitude": 8.46293, "state": "BW", "stars": 4.0, "latitude": 48.9985, "attributes": {}, "type": "business"}
{"business_id": "7Sl1qWqsYO_K0Ah7btDzbA", "full_address": "Augustenburgstr. 10\n76229 Karlsruhe", "hours": {}, "open": true, "categories": ["Food Delivery Services", "Food", "Mediterranean", "German", "Italian", "Restaurants"], "city": "Karlsruhe", "review_count": 10, "name": "Ristorante Schwanen", "neighborhoods": [], "longitude": 8.49771, "state": "BW", "stars": 4.0, "latitude": 49.0042, "attributes": {"Take-out": false, "Alcohol": "beer_and_wine", "Delivery": false, "Dogs Allowed": false, "Outdoor Seating": false, "Parking": {"garage": false, "street": false, "validated": false, "lot": false, "valet": false}, "Smoking": "no", "Accepts Credit Cards": false, "Good For Groups": true, "Price Range": 2}, "type": "business"}
{"business_id": "Za_v4P5dEdOFkGFvVgzg7A", "full_address": "Ottostra\u00dfe 3c\n76227 Karlsruhe", "hours": {}, "open": true, "categories": ["Food", "Food Delivery Services", "Indian", "Restaurants"], "city": "Karlsruhe", "review_count": 4, "name": "Bollywood Curryhaus", "neighborhoods": [], "longitude": 8.44813, "state": "BW", "stars": 3.0, "latitude": 48.99565, "attributes": {"Price Range": 2}, "type": "business"}
{"business_id": "y_qmQDXa5ve9zdOd46P7Zw", "full_address": "Scheffelstr. 9\n76135 Karlsruhe", "hours": {"Monday": {"close": "22:30", "open": "17:00"}, "Tuesday": {"close": "22:30", "open": "17:00"}, "Friday": {"close": "23:00", "open": "17:00"}, "Wednesday": {"close": "22:30", "open": "17:00"}, "Thursday": {"close": "22:30", "open": "17:00"}, "Sunday": {"close": "22:30", "open": "17:00"}, "Saturday": {"close": "23:00", "open": "16:00"}}, "open": true, "categories": ["Food", "Food Delivery Services", "Pizza", "Restaurants"], "city": "Karlsruhe", "review_count": 3, "name": "Pizza Da Roberto", "neighborhoods": [], "longitude": 8.3819565, "state": "BW", "stars": 1.0, "latitude": 49.0097298, "attributes": {"Price Range": 2}, "type": "business"}
{"business_id": "nTfeDYEy9fV4dEc7LMgM2g", "full_address": "Breite 58\n76135 Karlsruhe", "hours": {"Monday": {"close": "23:00", "open": "17:00"}, "Tuesday": {"close": "23:00", "open": "17:00"}, "Friday": {"close": "23:00", "open": "17:00"}, "Wednesday": {"close": "23:00", "open": "17:00"}, "Thursday": {"close": "23:00", "open": "17:00"}, "Sunday": {"close": "23:00", "open": "12:00"}, "Saturday": {"close": "00:00", "open": "00:00"}}, "open": true, "categories": ["Food", "Food Delivery Services", "Restaurants", "Pizza", "Italian"], "city": "Karlsruhe", "review_count": 3, "name": "Pizza Sofort", "neighborhoods": [], "longitude": 8.38906, "state": "BW", "stars": 2.0, "latitude": 48.9916, "attributes": {"Take-out": false, "Delivery": false, "Dogs Allowed": false, "Outdoor Seating": false, "Parking": {"garage": false, "street": false, "validated": false, "lot": false, "valet": false}, "Smoking": "no", "Accepts Credit Cards": false}, "type": "business"}
{"business_id": "H9FMHAE6UK55RH0N6yItEA", "full_address": "J\u00f6hlingerstr. 27\n76327 Pfinztal", "hours": {}, "open": true, "categories": ["Food", "Food Delivery Services", "Restaurants", "Italian"], "city": "Pfinztal", "review_count": 7, "name": "extrem pizza", "neighborhoods": [], "longitude": 8.53064, "state": "BW", "stars": 4.5, "latitude": 49.0074, "attributes": {"Take-out": true, "Wi-Fi": "free", "Good For": {"dessert": false, "latenight": false, "lunch": false, "dinner": false, "breakfast": false, "brunch": false}, "Parking": {"garage": false, "validated": false, "street": false, "lot": false, "valet": false}, "Delivery": true, "Wheelchair Accessible": true, "Outdoor Seating": false, "Takes Reservations": false, "Alcohol": "beer_and_wine", "Smoking": "yes", "Accepts Credit Cards": false, "Good For Groups": true, "Price Range": 2}, "type": "business"}
{"business_id": "qK447qQ0UYOGGWjlZDxycQ", "full_address": "Moltkestr. 79a\n76133 Karlsruhe", "hours": {}, "open": true, "categories": ["Food", "Food Delivery Services", "Restaurants"], "city": "Karlsruhe", "review_count": 5, "name": "Heimservice + Restaurant Pronto Pronto", "neighborhoods": [], "longitude": 8.37556, "state": "BW", "stars": 1.5, "latitude": 49.0151, "attributes": {}, "type": "business"}
{"business_id": "rI-zKwYMA6ET1TK_oybZlA", "full_address": "Marienstr. 107\n76137 Karlsruhe", "hours": {}, "open": true, "categories": ["Food Delivery Services", "Food", "Caterers", "Event Planning & Services", "Italian", "Restaurants"], "city": "Karlsruhe", "review_count": 5, "name": "Pizza Heimservice Exzellent", "neighborhoods": [], "longitude": 8.40859, "state": "BW", "stars": 2.5, "latitude": 48.9964, "attributes": {"Delivery": true, "Price Range": 2}, "type": "business"}
{"business_id": "XcAPlAy9JANXI7sGXAkSpg", "full_address": "Ludwig-Wilhelm 9\n76131 Karlsruhe", "hours": {}, "open": true, "categories": ["Food", "Food Delivery Services"], "city": "Karlsruhe", "review_count": 6, "name": "Adria", "neighborhoods": [], "longitude": 8.42144, "state": "BW", "stars": 4.0, "latitude": 49.0095, "attributes": {"Take-out": true, "Alcohol": "beer_and_wine", "Takes Reservations": true, "Delivery": true, "Wheelchair Accessible": false, "Outdoor Seating": true, "Parking": {"garage": false, "validated": false, "street": false, "lot": false, "valet": false}, "Smoking": "no", "Accepts Credit Cards": false, "Price Range": 2}, "type": "business"}
{"business_id": "OIMZrrL5kGyZ6W6J8xsyEw", "full_address": "Kaiser 49\n76131 Karlsruhe", "hours": {"Monday": {"close": "23:00", "open": "17:00"}, "Tuesday": {"close": "23:00", "open": "17:00"}, "Friday": {"close": "23:00", "open": "17:00"}, "Wednesday": {"close": "23:00", "open": "17:00"}, "Thursday": {"close": "23:00", "open": "17:00"}, "Sunday": {"close": "23:00", "open": "11:00"}, "Saturday": {"close": "00:00", "open": "00:00"}}, "open": true, "categories": ["Food", "Food Delivery Services", "Restaurants", "Pizza", "Italian"], "city": "Karlsruhe", "review_count": 10, "name": "Pizza Blitz", "neighborhoods": [], "longitude": 8.41238, "state": "BW", "stars": 3.5, "latitude": 49.0091, "attributes": {"Take-out": true, "Wi-Fi": "no", "Good For": {"dessert": false, "latenight": false, "lunch": false, "dinner": false, "breakfast": false, "brunch": false}, "Takes Reservations": false, "Delivery": true, "Outdoor Seating": false, "Parking": {"garage": false, "validated": false, "street": false, "lot": false, "valet": false}, "Alcohol": "beer_and_wine", "Smoking": "no", "Wheelchair Accessible": true, "Good For Groups": true, "Price Range": 2}, "type": "business"}
{"business_id": "zCCSkDIz7KUHoDDdN64L7Q", "full_address": "Lessingstr.  52\n76135 Karlsruhe", "hours": {}, "open": true, "categories": ["Food Delivery Services", "Financial Services", "Indian", "Food", "Banks & Credit Unions", "Restaurants"], "city": "Karlsruhe", "review_count": 6, "name": "Indian Curry Haus", "neighborhoods": [], "longitude": 8.3848354, "state": "BW", "stars": 3.0, "latitude": 49.007288, "attributes": {}, "type": "business"}
{"business_id": "feSkNQq2U7scCVkGGJpudA", "full_address": "Fritz-Erler-Str. 1\n76133 Karlsruhe", "hours": {"Monday": {"close": "23:00", "open": "11:00"}, "Tuesday": {"close": "23:00", "open": "11:00"}, "Friday": {"close": "23:00", "open": "11:00"}, "Wednesday": {"close": "23:00", "open": "11:00"}, "Thursday": {"close": "23:00", "open": "11:00"}, "Sunday": {"close": "23:00", "open": "11:00"}, "Saturday": {"close": "23:00", "open": "11:00"}}, "open": true, "categories": ["Food", "Food Delivery Services", "Pizza", "Vegan", "Restaurants"], "city": "Karlsruhe", "review_count": 22, "name": "Kais Pizza", "neighborhoods": [], "longitude": 8.41021, "state": "BW", "stars": 3.5, "latitude": 49.0087, "attributes": {"Take-out": true, "Good For": {"dessert": false, "latenight": false, "lunch": false, "dinner": false, "breakfast": false, "brunch": false}, "Noise Level": "quiet", "Parking": {"garage": false, "validated": false, "street": false, "lot": false, "valet": false}, "Has TV": false, "Smoking": "outdoor", "Delivery": true, "Ambience": {"romantic": false, "intimate": false, "classy": false, "hipster": false, "divey": false, "touristy": false, "trendy": false, "upscale": false, "casual": false}, "Wheelchair Accessible": false, "Outdoor Seating": true, "Attire": "casual", "Alcohol": "beer_and_wine", "Waiter Service": false, "Accepts Credit Cards": false, "Good for Kids": true, "Good For Groups": true, "Price Range": 2}, "type": "business"}
{"business_id": "i5RiBntsRyVbH4sZPnhfyg", "full_address": "Ernst-Friedrich-Str. 11\n76227 Karlsruhe", "hours": {}, "open": true, "categories": ["Food", "Food Delivery Services", "Italian", "Pizza", "Restaurants"], "city": "Karlsruhe", "review_count": 4, "name": "Piccola Pizzaservice", "neighborhoods": [], "longitude": 8.46293, "state": "BW", "stars": 4.0, "latitude": 48.9985, "attributes": {}, "type": "business"}
{"business_id": "7Sl1qWqsYO_K0Ah7btDzbA", "full_address": "Augustenburgstr. 10\n76229 Karlsruhe", "hours": {}, "open": true, "categories": ["Food Delivery Services", "Food", "Mediterranean", "German", "Italian", "Restaurants"], "city": "Karlsruhe", "review_count": 10, "name": "Ristorante Schwanen", "neighborhoods": [], "longitude": 8.49771, "state": "BW", "stars": 4.0, "latitude": 49.0042, "attributes": {"Take-out": false, "Alcohol": "beer_and_wine", "Delivery": false, "Dogs Allowed": false, "Outdoor Seating": false, "Parking": {"garage": false, "street": false, "validated": false, "lot": false, "valet": false}, "Smoking": "no", "Accepts Credit Cards": false, "Good For Groups": true, "Price Range": 2}, "type": "business"}
{"business_id": "Za_v4P5dEdOFkGFvVgzg7A", "full_address": "Ottostra\u00dfe 3c\n76227 Karlsruhe", "hours": {}, "open": true, "categories": ["Food", "Food Delivery Services", "Indian", "Restaurants"], "city": "Karlsruhe", "review_count": 4, "name": "Bollywood Curryhaus", "neighborhoods": [], "longitude": 8.44813, "state": "BW", "stars": 3.0, "latitude": 48.99565, "attributes": {"Price Range": 2}, "type": "business"}
{"business_id": "y_qmQDXa5ve9zdOd46P7Zw", "full_address": "Scheffelstr. 9\n76135 Karlsruhe", "hours": {"Monday": {"close": "22:30", "open": "17:00"}, "Tuesday": {"close": "22:30", "open": "17:00"}, "Friday": {"close": "23:00", "open": "17:00"}, "Wednesday": {"close": "22:30", "open": "17:00"}, "Thursday": {"close": "22:30", "open": "17:00"}, "Sunday": {"close": "22:30", "open": "17:00"}, "Saturday": {"close": "23:00", "open": "16:00"}}, "open": true, "categories": ["Food", "Food Delivery Services", "Pizza", "Restaurants"], "city": "Karlsruhe", "review_count": 3, "name": "Pizza Da Roberto", "neighborhoods": [], "longitude": 8.3819565, "state": "BW", "stars": 1.0, "latitude": 49.0097298, "attributes": {"Price Range": 2}, "type": "business"}
{"business_id": "nTfeDYEy9fV4dEc7LMgM2g", "full_address": "Breite 58\n76135 Karlsruhe", "hours": {"Monday": {"close": "23:00", "open": "17:00"}, "Tuesday": {"close": "23:00", "open": "17:00"}, "Friday": {"close": "23:00", "open": "17:00"}, "Wednesday": {"close": "23:00", "open": "17:00"}, "Thursday": {"close": "23:00", "open": "17:00"}, "Sunday": {"close": "23:00", "open": "12:00"}, "Saturday": {"close": "00:00", "open": "00:00"}}, "open": true, "categories": ["Food", "Food Delivery Services", "Restaurants", "Pizza", "Italian"], "city": "Karlsruhe", "review_count": 3, "name": "Pizza Sofort", "neighborhoods": [], "longitude": 8.38906, "state": "BW", "stars": 2.0, "latitude": 48.9916, "attributes": {"Take-out": false, "Delivery": false, "Dogs Allowed": false, "Outdoor Seating": false, "Parking": {"garage": false, "street": false, "validated": false, "lot": false, "valet": false}, "Smoking": "no", "Accepts Credit Cards": false}, "type": "business"}
{"business_id": "H9FMHAE6UK55RH0N6yItEA", "full_address": "J\u00f6hlingerstr. 27\n76327 Pfinztal", "hours": {}, "open": true, "categories": ["Food", "Food Delivery Services", "Restaurants", "Italian"], "city": "Pfinztal", "review_count": 7, "name": "extrem pizza", "neighborhoods": [], "longitude": 8.53064, "state": "BW", "stars": 4.5, "latitude": 49.0074, "attributes": {"Take-out": true, "Wi-Fi": "free", "Good For": {"dessert": false, "latenight": false, "lunch": false, "dinner": false, "breakfast": false, "brunch": false}, "Parking": {"garage": false, "validated": false, "street": false, "lot": false, "valet": false}, "Delivery": true, "Wheelchair Accessible": true, "Outdoor Seating": false, "Takes Reservations": false, "Alcohol": "beer_and_wine", "Smoking": "yes", "Accepts Credit Cards": false, "Good For Groups": true, "Price Range": 2}, "type": "business"}
{"business_id": "qK447qQ0UYOGGWjlZDxycQ", "full_address": "Moltkestr. 79a\n76133 Karlsruhe", "hours": {}, "open": true, "categories": ["Food", "Food Delivery Services", "Restaurants"], "city": "Karlsruhe", "review_count": 5, "name": "Heimservice + Restaurant Pronto Pronto", "neighborhoods": [], "longitude": 8.37556, "state": "BW", "stars": 1.5, "latitude": 49.0151, "attributes": {}, "type": "business"}
{"business_id": "rI-zKwYMA6ET1TK_oybZlA", "full_address": "Marienstr. 107\n76137 Karlsruhe", "hours": {}, "open": true, "categories": ["Food Delivery Services", "Food", "Caterers", "Event Planning & Services", "Italian", "Restaurants"], "city": "Karlsruhe", "review_count": 5, "name": "Pizza Heimservice Exzellent", "neighborhoods": [], "longitude": 8.40859, "state": "BW", "stars": 2.5, "latitude": 48.9964, "attributes": {"Delivery": true, "Price Range": 2}, "type": "business"}
{"business_id": "XcAPlAy9JANXI7sGXAkSpg", "full_address": "Ludwig-Wilhelm 9\n76131 Karlsruhe", "hours": {}, "open": true, "categories": ["Food", "Food Delivery Services"], "city": "Karlsruhe", "review_count": 6, "name": "Adria", "neighborhoods": [], "longitude": 8.42144, "state": "BW", "stars": 4.0, "latitude": 49.0095, "attributes": {"Take-out": true, "Alcohol": "beer_and_wine", "Takes Reservations": true, "Delivery": true, "Wheelchair Accessible": false, "Outdoor Seating": true, "Parking": {"garage": false, "validated": false, "street": false, "lot": false, "valet": false}, "Smoking": "no", "Accepts Credit Cards": false, "Price Range": 2}, "type": "business"}
{"business_id": "OIMZrrL5kGyZ6W6J8xsyEw", "full_address": "Kaiser 49\n76131 Karlsruhe", "hours": {"Monday": {"close": "23:00", "open": "17:00"}, "Tuesday": {"close": "23:00", "open": "17:00"}, "Friday": {"close": "23:00", "open": "17:00"}, "Wednesday": {"close": "23:00", "open": "17:00"}, "Thursday": {"close": "23:00", "open": "17:00"}, "Sunday": {"close": "23:00", "open": "11:00"}, "Saturday": {"close": "00:00", "open": "00:00"}}, "open": true, "categories": ["Food", "Food Delivery Services", "Restaurants", "Pizza", "Italian"], "city": "Karlsruhe", "review_count": 10, "name": "Pizza Blitz", "neighborhoods": [], "longitude": 8.41238, "state": "BW", "stars": 3.5, "latitude": 49.0091, "attributes": {"Take-out": true, "Wi-Fi": "no", "Good For": {"dessert": false, "latenight": false, "lunch": false, "dinner": false, "breakfast": false, "brunch": false}, "Takes Reservations": false, "Delivery": true, "Outdoor Seating": false, "Parking": {"garage": false, "validated": false, "street": false, "lot": false, "valet": false}, "Alcohol": "beer_and_wine", "Smoking": "no", "Wheelchair Accessible": true, "Good For Groups": true, "Price Range": 2}, "type": "business"}
{"business_id": "zCCSkDIz7KUHoDDdN64L7Q", "full_address": "Lessingstr.  52\n76135 Karlsruhe", "hours": {}, "open": true, "categories": ["Food Delivery Services", "Financial Services", "Indian", "Food", "Banks & Credit Unions", "Restaurants"], "city": "Karlsruhe", "review_count": 6, "name": "Indian Curry Haus", "neighborhoods": [], "longitude": 8.3848354, "state": "BW", "stars": 3.0, "latitude": 49.007288, "attributes": {}, "type": "business"}
{"business_id": "feSkNQq2U7scCVkGGJpudA", "full_address": "Fritz-Erler-Str. 1\n76133 Karlsruhe", "hours": {"Monday": {"close": "23:00", "open": "11:00"}, "Tuesday": {"close": "23:00", "open": "11:00"}, "Friday": {"close": "23:00", "open": "11:00"}, "Wednesday": {"close": "23:00", "open": "11:00"}, "Thursday": {"close": "23:00", "open": "11:00"}, "Sunday": {"close": "23:00", "open": "11:00"}, "Saturday": {"close": "23:00", "open": "11:00"}}, "open": true, "categories": ["Food", "Food Delivery Services", "Pizza", "Vegan", "Restaurants"], "city": "Karlsruhe", "review_count": 22, "name": "Kais Pizza", "neighborhoods": [], "longitude": 8.41021, "state": "BW", "stars": 3.5, "latitude": 49.0087, "attributes": {"Take-out": true, "Good For": {"dessert": false, "latenight": false, "lunch": false, "dinner": false, "breakfast": false, "brunch": false}, "Noise Level": "quiet", "Parking": {"garage": false, "validated": false, "street": false, "lot": false, "valet": false}, "Has TV": false, "Smoking": "outdoor", "Delivery": true, "Ambience": {"romantic": false, "intimate": false, "classy": false, "hipster": false, "divey": false, "touristy": false, "trendy": false, "upscale": false, "casual": false}, "Wheelchair Accessible": false, "Outdoor Seating": true, "Attire": "casual", "Alcohol": "beer_and_wine", "Waiter Service": false, "Accepts Credit Cards": false, "Good for Kids": true, "Good For Groups": true, "Price Range": 2}, "type": "business"}
{"business_id": "i5RiBntsRyVbH4sZPnhfyg", "full_address": "Ernst-Friedrich-Str. 11\n76227 Karlsruhe", "hours": {}, "open": true, "categories": ["Food", "Food Delivery Services", "Italian", "Pizza", "Restaurants"], "city": "Karlsruhe", "review_count": 4, "name": "Piccola Pizzaservice", "neighborhoods": [], "longitude": 8.46293, "state": "BW", "stars": 4.0, "latitude": 48.9985, "attributes": {}, "type": "business"}
{"business_id": "7Sl1qWqsYO_K0Ah7btDzbA", "full_address": "Augustenburgstr. 10\n76229 Karlsruhe", "hours": {}, "open": true, "categories": ["Food Delivery Services", "Food", "Mediterranean", "German", "Italian", "Restaurants"], "city": "Karlsruhe", "review_count": 10, "name": "Ristorante Schwanen", "neighborhoods": [], "longitude": 8.49771, "state": "BW", "stars": 4.0, "latitude": 49.0042, "attributes": {"Take-out": false, "Alcohol": "beer_and_wine", "Delivery": false, "Dogs Allowed": false, "Outdoor Seating": false, "Parking": {"garage": false, "street": false, "validated": false, "lot": false, "valet": false}, "Smoking": "no", "Accepts Credit Cards": false, "Good For Groups": true, "Price Range": 2}, "type": "business"}
{"business_id": "Za_v4P5dEdOFkGFvVgzg7A", "full_address": "Ottostra\u00dfe 3c\n76227 Karlsruhe", "hours": {}, "open": true, "categories": ["Food", "Food Delivery Services", "Indian", "Restaurants"], "city": "Karlsruhe", "review_count": 4, "name": "Bollywood Curryhaus", "neighborhoods": [], "longitude": 8.44813, "state": "BW", "stars": 3.0, "latitude": 48.99565, "attributes": {"Price Range": 2}, "type": "business"}
{"business_id": "y_qmQDXa5ve9zdOd46P7Zw", "full_address": "Scheffelstr. 9\n76135 Karlsruhe", "hours": {"Monday": {"close": "22:30", "open": "17:00"}, "Tuesday": {"close": "22:30", "open": "17:00"}, "Friday": {"close": "23:00", "open": "17:00"}, "Wednesday": {"close": "22:30", "open": "17:00"}, "Thursday": {"close": "22:30", "open": "17:00"}, "Sunday": {"close": "22:30", "open": "17:00"}, "Saturday": {"close": "23:00", "open": "16:00"}}, "open": true, "categories": ["Food", "Food Delivery Services", "Pizza", "Restaurants"], "city": "Karlsruhe", "review_count": 3, "name": "Pizza Da Roberto", "neighborhoods": [], "longitude": 8.3819565, "state": "BW", "stars": 1.0, "latitude": 49.0097298, "attributes": {"Price Range": 2}, "type": "business"}
{"business_id": "nTfeDYEy9fV4dEc7LMgM2g", "full_address": "Breite 58\n76135 Karlsruhe", "hours": {"Monday": {"close": "23:00", "open": "17:00"}, "Tuesday": {"close": "23:00", "open": "17:00"}, "Friday": {"close": "23:00", "open": "17:00"}, "Wednesday": {"close": "23:00", "open": "17:00"}, "Thursday": {"close": "23:00", "open": "17:00"}, "Sunday": {"close": "23:00", "open": "12:00"}, "Saturday": {"close": "00:00", "open": "00:00"}}, "open": true, "categories": ["Food", "Food Delivery Services", "Restaurants", "Pizza", "Italian"], "city": "Karlsruhe", "review_count": 3, "name": "Pizza Sofort", "neighborhoods": [], "longitude": 8.38906, "state": "BW", "stars": 2.0, "latitude": 48.9916, "attributes": {"Take-out": false, "Delivery": false, "Dogs Allowed": false, "Outdoor Seating": false, "Parking": {"garage": false, "street": false, "validated": false, "lot": false, "valet": false}, "Smoking": "no", "Accepts Credit Cards": false}, "type": "business"}
{"business_id": "H9FMHAE6UK55RH0N6yItEA", "full_address": "J\u00f6hlingerstr. 27\n76327 Pfinztal", "hours": {}, "open": true, "categories": ["Food", "Food Delivery Services", "Restaurants", "Italian"], "city": "Pfinztal", "review_count": 7, "name": "extrem pizza", "neighborhoods": [], "longitude": 8.53064, "state": "BW", "stars": 4.5, "latitude": 49.0074, "attributes": {"Take-out": true, "Wi-Fi": "free", "Good For": {"dessert": false, "latenight": false, "lunch": false, "dinner": false, "breakfast": false, "brunch": false}, "Parking": {"garage": false, "validated": false, "street": false, "lot": false, "valet": false}, "Delivery": true, "Wheelchair Accessible": true, "Outdoor Seating": false, "Takes Reservations": false, "Alcohol": "beer_and_wine", "Smoking": "yes", "Accepts Credit Cards": false, "Good For Groups": true, "Price Range": 2}, "type": "business"}
{"business_id": "qK447qQ0UYOGGWjlZDxycQ", "full_address": "Moltkestr. 79a\n76133 Karlsruhe", "hours": {}, "open": true, "categories": ["Food", "Food Delivery Services", "Restaurants"], "city": "Karlsruhe", "review_count": 5, "name": "Heimservice + Restaurant Pronto Pronto", "neighborhoods": [], "longitude": 8.37556, "state": "BW", "stars": 1.5, "latitude": 49.0151, "attributes": {}, "type": "business"}
