{"business_id": "qhu-hCLlRiqoJ5du775oig", "full_address": "Sophienstr. 53\n76133 Karlsruhe", "hours": {}, "open": true, "categories": ["Doctors", "Health & Medical", "Family Practice"], "city": "Karlsruhe", "review_count": 3, "name": "Dr. med. Beate Weinschenk", "neighborhoods": [], "longitude": 8.38963, "state": "BW", "stars": 5.0, "latitude": 49.0074, "attributes": {}, "type": "business"}
{"business_id": "Jd8dJj7xYvDlQIBPh4OAjQ", "full_address": "Gerwigstr. 6\n76131 Karlsruhe", "hours": {}, "open": true, "categories": ["Doctors", "Health & Medical", "Family Practice"], "city": "Karlsruhe", "review_count": 4, "name": "Wolfgang Gabriele Calmbach Wiedenmann-Calmbach", "neighborhoods": [], "longitude": 8.42414, "state": "BW", "stars": 4.0, "latitude": 49.0094, "attributes": {"Wheelchair Accessible": false}, "type": "business"}
{"business_id": "qhu-hCLlRiqoJ5du775oig", "full_address": "Sophienstr. 53\n76133 Karlsruhe", "hours": {}, "open": true, "categories": ["Doctors", "Health & Medical", "Family Practice"], "city": "Karlsruhe", "review_count": 3, "name": "Dr. med. Beate Weinschenk", "neighborhoods": [], "longitude": 8.38963, "state": "BW", "stars": 5.0, "latitude": 49.0074, "attributes": {}, "type": "business"}
{"business_id": "Jd8dJj7xYvDlQIBPh4OAjQ", "full_address": "Gerwigstr. 6\n76131 Karlsruhe", "hours": {}, "open": true, "categories": ["Doctors", "Health & Medical", "Family Practice"], "city": "Karlsruhe", "review_count": 4, "name": "Wolfgang Gabriele Calmbach Wiedenmann-Calmbach", "neighborhoods": [], "longitude": 8.42414, "state": "BW", "stars": 4.0, "latitude": 49.0094, "attributes": {"Wheelchair Accessible": false}, "type": "business"}
{"business_id": "qhu-hCLlRiqoJ5du775oig", "full_address": "Sophienstr. 53\n76133 Karlsruhe", "hours": {}, "open": true, "categories": ["Doctors", "Health & Medical", "Family Practice"], "city": "Karlsruhe", "review_count": 3, "name": "Dr. med. Beate Weinschenk", "neighborhoods": [], "longitude": 8.38963, "state": "BW", "stars": 5.0, "latitude": 49.0074, "attributes": {}, "type": "business"}
{"business_id": "Jd8dJj7xYvDlQIBPh4OAjQ", "full_address": "Gerwigstr. 6\n76131 Karlsruhe", "hours": {}, "open": true, "categories": ["Doctors", "Health & Medical", "Family Practice"], "city": "Karlsruhe", "review_count": 4, "name": "Wolfgang Gabriele Calmbach Wiedenmann-Calmbach", "neighborhoods": [], "longitude": 8.42414, "state": "BW", "stars": 4.0, "latitude": 49.0094, "attributes": {"Wheelchair Accessible": false}, "type": "business"}
{"business_id": "qhu-hCLlRiqoJ5du775oig", "full_address": "Sophienstr. 53\n76133 Karlsruhe", "hours": {}, "open": true, "categories": ["Doctors", "Health & Medical", "Family Practice"], "city": "Karlsruhe", "review_count": 3, "name": "Dr. med. Beate Weinschenk", "neighborhoods": [], "longitude": 8.38963, "state": "BW", "stars": 5.0, "latitude": 49.0074, "attributes": {}, "type": "business"}
{"business_id": "Jd8dJj7xYvDlQIBPh4OAjQ", "full_address": "Gerwigstr. 6\n76131 Karlsruhe", "hours": {}, "open": true, "categories": ["Doctors", "Health & Medical", "Family Practice"], "city": "Karlsruhe", "review_count": 4, "name": "Wolfgang Gabriele Calmbach Wiedenmann-Calmbach", "neighborhoods": [], "longitude": 8.42414, "state": "BW", "stars": 4.0, "latitude": 49.0094, "attributes": {"Wheelchair Accessible": false}, "type": "business"}
{"business_id": "qhu-hCLlRiqoJ5du775oig", "full_address": "Sophienstr. 53\n76133 Karlsruhe", "hours": {}, "open": true, "categories": ["Doctors", "Health & Medical", "Family Practice"], "city": "Karlsruhe", "review_count": 3, "name": "Dr. med. Beate Weinschenk", "neighborhoods": [], "longitude": 8.38963, "state": "BW", "stars": 5.0, "latitude": 49.0074, "attributes": {}, "type": "business"}
{"business_id": "Jd8dJj7xYvDlQIBPh4OAjQ", "full_address": "Gerwigstr. 6\n76131 Karlsruhe", "hours": {}, "open": true, "categories": ["Doctors", "Health & Medical", "Family Practice"], "city": "Karlsruhe", "review_count": 4, "name": "Wolfgang Gabriele Calmbach Wiedenmann-Calmbach", "neighborhoods": [], "longitude": 8.42414, "state": "BW", "stars": 4.0, "latitude": 49.0094, "attributes": {"Wheelchair Accessible": false}, "type": "business"}
{"business_id": "qhu-hCLlRiqoJ5du775oig", "full_address": "Sophienstr. 53\n76133 Karlsruhe", "hours": {}, "open": true, "categories": ["Doctors", "Health & Medical", "Family Practice"], "city": "Karlsruhe", "review_count": 3, "name": "Dr. med. Beate Weinschenk", "neighborhoods": [], "longitude": 8.38963, "state": "BW", "stars": 5.0, "latitude": 49.0074, "attributes": {}, "type": "business"}
{"business_id": "Jd8dJj7xYvDlQIBPh4OAjQ", "full_address": "Gerwigstr. 6\n76131 Karlsruhe", "hours": {}, "open": true, "categories": ["Doctors", "Health & Medical", "Family Practice"], "city": "Karlsruhe", "review_count": 4, "name": "Wolfgang Gabriele Calmbach Wiedenmann-Calmbach", "neighborhoods": [], "longitude": 8.42414, "state": "BW", "stars": 4.0, "latitude": 49.0094, "attributes": {"Wheelchair Accessible": false}, "type": "business"}
