{"business_id": "nAMMS64Iriz9grhFzO6Evg", "full_address": "Bahnhofstr. 11\n76137 Karlsruhe", "hours": {}, "open": true, "categories": ["Local Services", "Dry Cleaning & Laundry"], "city": "Karlsruhe", "review_count": 6, "name": "Kurt Lausenhammer", "neighborhoods": [], "longitude": 8.39914, "state": "BW", "stars": 3.5, "latitude": 48.9944, "attributes": {"Price Range": 2}, "type": "business"}
{"business_id": "y270_EUXpJKxlDE5LFr-CA", "full_address": "Pfarrstr. 31\n76189 Karlsruhe", "hours": {}, "open": true, "categories": ["Local Services", "Funeral Services & Cemeteries"], "city": "Karlsruhe", "review_count": 3, "name": "Beerdigungsinstitut Gonther", "neighborhoods": [], "longitude": 8.32782, "state": "BW", "stars": 5.0, "latitude": 49.0061, "attributes": {"Parking": {"garage": false, "validated": false, "street": false, "lot": false, "valet": false}}, "type": "business"}
{"business_id": "BGZHzaRaOuxbBPAKxmnkZw", "full_address": "Karlstra\u00dfe 82\n76137 Karlsruhe", "hours": {"Monday": {"close": "18:30", "open": "08:30"}, "Tuesday": {"close": "18:30", "open": "08:30"}, "Friday": {"close": "18:30", "open": "08:30"}, "Wednesday": {"close": "18:30", "open": "08:30"}, "Thursday": {"close": "18:30", "open": "08:30"}, "Saturday": {"close": "13:30", "open": "09:30"}}, "open": true, "categories": ["Children's Clothing", "Fashion", "Shopping", "Appliances & Repair", "Home & Garden", "Local Services", "Kitchen & Bath", "Toy Stores"], "city": "Karlsruhe", "review_count": 3, "name": "atelier B:", "neighborhoods": [], "longitude": 8.39402, "state": "BW", "stars": 4.5, "latitude": 49.0009, "attributes": {}, "type": "business"}
{"business_id": "L3mhx94gZcCYwMvR8Y4pGA", "full_address": "Rheinstr. 50a\n76185 Karlsruhe", "hours": {"Tuesday": {"close": "18:00", "open": "10:00"}, "Friday": {"close": "18:00", "open": "10:00"}, "Thursday": {"close": "18:00", "open": "10:00"}, "Monday": {"close": "18:00", "open": "10:00"}}, "open": true, "categories": ["Local Services", "Sewing & Alterations"], "city": "Karlsruhe", "review_count": 4, "name": "Schneiderei N\u00e4hbar", "neighborhoods": [], "longitude": 8.3577, "state": "BW", "stars": 5.0, "latitude": 49.01237, "attributes": {"Parking": {"garage": false, "validated": false, "street": false, "lot": false, "valet": false}, "Accepts Credit Cards": false, "Wheelchair Accessible": true, "Price Range": 1}, "type": "business"}
{"business_id": "e5Vs5C6fUuHRfC5tLAr1Iw", "full_address": "Kaiserpassage 11\n76133 Karlsruhe", "hours": {}, "open": true, "categories": ["Local Services", "Sewing & Alterations"], "city": "Karlsruhe", "review_count": 5, "name": "\u00c4nderungsschneiderei Sami Geckil", "neighborhoods": [], "longitude": 8.396301, "state": "BW", "stars": 3.0, "latitude": 49.0108, "attributes": {"Price Range": 3}, "type": "business"}
{"business_id": "k7Y8zXSL2X3Gm_MxJj2Zsw", "full_address": "Geibelstr. 40\n76185 Karlsruhe", "hours": {}, "open": true, "categories": ["Local Services", "Dry Cleaning & Laundry"], "city": "Karlsruhe", "review_count": 6, "name": "Waschhaus Exclusiv Preiswert u. Sauber W\u00e4scherei", "neighborhoods": [], "longitude": 8.36142, "state": "BW", "stars": 3.0, "latitude": 49.012, "attributes": {}, "type": "business"}
{"business_id": "F2eR662GpiItrtCKvQovFQ", "full_address": "Kaiserstr. 235 -237\n76133 Karlsruhe", "hours": {"Monday": {"close": "19:00", "open": "10:00"}, "Tuesday": {"close": "19:00", "open": "10:00"}, "Friday": {"close": "19:00", "open": "10:00"}, "Wednesday": {"close": "19:00", "open": "10:00"}, "Thursday": {"close": "19:00", "open": "10:00"}, "Saturday": {"close": "18:00", "open": "10:00"}}, "open": true, "categories": ["Local Services", "Computers", "Shopping", "IT Services & Computer Repair"], "city": "Karlsruhe", "review_count": 15, "name": "Arlt Computer", "neighborhoods": [], "longitude": 8.3911933, "state": "BW", "stars": 4.0, "latitude": 49.0100196, "attributes": {"Parking": {"garage": false, "validated": false, "street": false, "lot": false, "valet": false}, "Wheelchair Accessible": true, "Price Range": 2}, "type": "business"}
{"business_id": "uAbMtNpZiRDqf61PRX4bDw", "full_address": "Carl-Metz-Str. 3\n76185 Karlsruhe", "hours": {"Monday": {"close": "19:00", "open": "10:00"}, "Tuesday": {"close": "19:00", "open": "10:00"}, "Friday": {"close": "19:00", "open": "10:00"}, "Wednesday": {"close": "19:00", "open": "10:00"}, "Thursday": {"close": "19:00", "open": "10:00"}, "Saturday": {"close": "18:00", "open": "10:00"}}, "open": true, "categories": ["Fashion", "Shopping", "Sporting Goods", "Local Services", "Bikes", "Sports Wear", "Bike Repair/Maintenance"], "city": "Karlsruhe", "review_count": 9, "name": "B.O.C.", "neighborhoods": [], "longitude": 8.35423, "state": "BW", "stars": 3.0, "latitude": 49.00984, "attributes": {"Parking": {"garage": false, "street": false, "validated": false, "lot": true, "valet": false}, "Accepts Credit Cards": false, "Wheelchair Accessible": true, "Price Range": 2}, "type": "business"}
{"business_id": "kpknqAb5inS0ic0-0UtUng", "full_address": "Scheffelstr. 21\n76135 Karlsruhe", "hours": {"Monday": {"close": "23:00", "open": "06:00"}, "Tuesday": {"close": "23:00", "open": "06:00"}, "Friday": {"close": "23:00", "open": "06:00"}, "Wednesday": {"close": "23:00", "open": "06:00"}, "Thursday": {"close": "23:00", "open": "06:00"}, "Saturday": {"close": "23:00", "open": "06:00"}}, "open": true, "categories": ["Local Services", "Dry Cleaning & Laundry"], "city": "Karlsruhe", "review_count": 4, "name": "Waschhaus", "neighborhoods": [], "longitude": 8.38159125106006, "state": "BW", "stars": 1.5, "latitude": 49.0079520267344, "attributes": {"Accepts Credit Cards": false, "Price Range": 1}, "type": "business"}
{"business_id": "OM_STp3HD4_VD8Cj7bk5FA", "full_address": "Akademiestrasse 43\nn\u00e4he Kaiserpassage\n76133 Karlsruhe", "hours": {}, "open": true, "categories": ["Local Services", "Food", "Printing Services", "Internet Cafes"], "city": "Karlsruhe", "review_count": 6, "name": "Webdome Internetcafe", "neighborhoods": [], "longitude": 8.3956698, "state": "BW", "stars": 5.0, "latitude": 49.0107889, "attributes": {"Wi-Fi": "paid", "Alcohol": "none", "Has TV": true, "Outdoor Seating": false, "Parking": {"garage": false, "validated": false, "street": false, "lot": false, "valet": false}, "Smoking": "outdoor", "Accepts Credit Cards": false, "Good For Groups": false, "Price Range": 1}, "type": "business"}
{"business_id": "0GJhI55FYF_ELmm88stj3Q", "full_address": "Kaiserstrasse 170\ngegen\u00fcber Rewe Markt\n76133 Karlsruhe", "hours": {}, "open": true, "categories": ["Local Services", "Food", "Printing Services", "Internet Cafes"], "city": "Karlsruhe", "review_count": 6, "name": "Webdome Internetcafe 2", "neighborhoods": [], "longitude": 8.3925711, "state": "BW", "stars": 5.0, "latitude": 49.0102368, "attributes": {"Wi-Fi": "paid", "Alcohol": "none", "Has TV": true, "Outdoor Seating": false, "Parking": {"garage": false, "validated": false, "street": false, "lot": false, "valet": false}, "Accepts Credit Cards": false, "Price Range": 1}, "type": "business"}
{"business_id": "Kl4KJn41-jTkO5g_o9J2bQ", "full_address": "Herrenstra\u00dfe\n76133 Karlsruhe", "hours": {}, "open": true, "categories": ["Local Services", "Shoe Repair"], "city": "Karlsruhe", "review_count": 3, "name": "schuhreparatur", "neighborhoods": [], "longitude": 8.3990264, "state": "BW", "stars": 3.5, "latitude": 49.0098249, "attributes": {}, "type": "business"}
{"business_id": "3POAu53GjpkGdimWn_sWcQ", "full_address": "Karlstr. 55\n76133 Karlsruhe", "hours": {"Monday": {"close": "21:00", "open": "10:00"}, "Tuesday": {"close": "21:00", "open": "10:00"}, "Friday": {"close": "21:00", "open": "10:00"}, "Wednesday": {"close": "21:00", "open": "10:00"}, "Thursday": {"close": "21:00", "open": "10:00"}, "Saturday": {"close": "20:00", "open": "10:00"}}, "open": true, "categories": ["Local Services", "Printing Services"], "city": "Karlsruhe", "review_count": 7, "name": "City Copyshop", "neighborhoods": [], "longitude": 8.3946437, "state": "BW", "stars": 3.5, "latitude": 49.0040554, "attributes": {"Price Range": 1, "Alcohol": "none", "Parking": {"garage": false, "validated": false, "street": false, "lot": false, "valet": false}, "Smoking": "outdoor", "Accepts Credit Cards": false, "Wheelchair Accessible": true}, "type": "business"}
{"business_id": "PHiFf9EP16eZ0zPrwS2uAQ", "full_address": "Augartenstra\u00dfe  51-53\n76137 Karlsruhe", "hours": {}, "open": true, "categories": ["Local Services"], "city": "Karlsruhe", "review_count": 3, "name": "N\u00e4hschule Karlsruhe", "neighborhoods": [], "longitude": 8.40946, "state": "BW", "stars": 5.0, "latitude": 48.99958, "attributes": {}, "type": "business"}
{"business_id": "w77OpJidFdGAUTs1TJ7E2w", "full_address": "Kronenstra\u00dfe 32\n76133 Karlsruhe", "hours": {}, "open": true, "categories": ["Local Services", "Printing Services"], "city": "Karlsruhe", "review_count": 3, "name": "Copy 90 - Digitaldruck", "neighborhoods": [], "longitude": 8.40905, "state": "BW", "stars": 4.5, "latitude": 49.0083, "attributes": {"Accepts Credit Cards": false, "Wheelchair Accessible": true, "Price Range": 1}, "type": "business"}
{"business_id": "nAMMS64Iriz9grhFzO6Evg", "full_address": "Bahnhofstr. 11\n76137 Karlsruhe", "hours": {}, "open": true, "categories": ["Local Services", "Dry Cleaning & Laundry"], "city": "Karlsruhe", "review_count": 6, "name": "Kurt Lausenhammer", "neighborhoods": [], "longitude": 8.39914, "state": "BW", "stars": 3.5, "latitude": 48.9944, "attributes": {"Price Range": 2}, "type": "business"}
{"business_id": "y270_EUXpJKxlDE5LFr-CA", "full_address": "Pfarrstr. 31\n76189 Karlsruhe", "hours": {}, "open": true, "categories": ["Local Services", "Funeral Services & Cemeteries"], "city": "Karlsruhe", "review_count": 3, "name": "Beerdigungsinstitut Gonther", "neighborhoods": [], "longitude": 8.32782, "state": "BW", "stars": 5.0, "latitude": 49.0061, "attributes": {"Parking": {"garage": false, "validated": false, "street": false, "lot": false, "valet": false}}, "type": "business"}
{"business_id": "BGZHzaRaOuxbBPAKxmnkZw", "full_address": "Karlstra\u00dfe 82\n76137 Karlsruhe", "hours": {"Monday": {"close": "18:30", "open": "08:30"}, "Tuesday": {"close": "18:30", "open": "08:30"}, "Friday": {"close": "18:30", "open": "08:30"}, "Wednesday": {"close": "18:30", "open": "08:30"}, "Thursday": {"close": "18:30", "open": "08:30"}, "Saturday": {"close": "13:30", "open": "09:30"}}, "open": true, "categories": ["Children's Clothing", "Fashion", "Shopping", "Appliances & Repair", "Home & Garden", "Local Services", "Kitchen & Bath", "Toy Stores"], "city": "Karlsruhe", "review_count": 3, "name": "atelier B:", "neighborhoods": [], "longitude": 8.39402, "state": "BW", "stars": 4.5, "latitude": 49.0009, "attributes": {}, "type": "business"}
{"business_id": "L3mhx94gZcCYwMvR8Y4pGA", "full_address": "Rheinstr. 50a\n76185 Karlsruhe", "hours": {"Tuesday": {"close": "18:00", "open": "10:00"}, "Friday": {"close": "18:00", "open": "10:00"}, "Thursday": {"close": "18:00", "open": "10:00"}, "Monday": {"close": "18:00", "open": "10:00"}}, "open": true, "categories": ["Local Services", "Sewing & Alterations"], "city": "Karlsruhe", "review_count": 4, "name": "Schneiderei N\u00e4hbar", "neighborhoods": [], "longitude": 8.3577, "state": "BW", "stars": 5.0, "latitude": 49.01237, "attributes": {"Parking": {"garage": false, "validated": false, "street": false, "lot": false, "valet": false}, "Accepts Credit Cards": false, "Wheelchair Accessible": true, "Price Range": 1}, "type": "business"}
{"business_id": "e5Vs5C6fUuHRfC5tLAr1Iw", "full_address": "Kaiserpassage 11\n76133 Karlsruhe", "hours": {}, "open": true, "categories": ["Local Services", "Sewing & Alterations"], "city": "Karlsruhe", "review_count": 5, "name": "\u00c4nderungsschneiderei Sami Geckil", "neighborhoods": [], "longitude": 8.396301, "state": "BW", "stars": 3.0, "latitude": 49.0108, "attributes": {"Price Range": 3}, "type": "business"}
{"business_id": "k7Y8zXSL2X3Gm_MxJj2Zsw", "full_address": "Geibelstr. 40\n76185 Karlsruhe", "hours": {}, "open": true, "categories": ["Local Services", "Dry Cleaning & Laundry"], "city": "Karlsruhe", "review_count": 6, "name": "Waschhaus Exclusiv Preiswert u. Sauber W\u00e4scherei", "neighborhoods": [], "longitude": 8.36142, "state": "BW", "stars": 3.0, "latitude": 49.012, "attributes": {}, "type": "business"}
{"business_id": "F2eR662GpiItrtCKvQovFQ", "full_address": "Kaiserstr. 235 -237\n76133 Karlsruhe", "hours": {"Monday": {"close": "19:00", "open": "10:00"}, "Tuesday": {"close": "19:00", "open": "10:00"}, "Friday": {"close": "19:00", "open": "10:00"}, "Wednesday": {"close": "19:00", "open": "10:00"}, "Thursday": {"close": "19:00", "open": "10:00"}, "Saturday": {"close": "18:00", "open": "10:00"}}, "open": true, "categories": ["Local Services", "Computers", "Shopping", "IT Services & Computer Repair"], "city": "Karlsruhe", "review_count": 15, "name": "Arlt Computer", "neighborhoods": [], "longitude": 8.3911933, "state": "BW", "stars": 4.0, "latitude": 49.0100196, "attributes": {"Parking": {"garage": false, "validated": false, "street": false, "lot": false, "valet": false}, "Wheelchair Accessible": true, "Price Range": 2}, "type": "business"}
{"business_id": "uAbMtNpZiRDqf61PRX4bDw", "full_address": "Carl-Metz-Str. 3\n76185 Karlsruhe", "hours": {"Monday": {"close": "19:00", "open": "10:00"}, "Tuesday": {"close": "19:00", "open": "10:00"}, "Friday": {"close": "19:00", "open": "10:00"}, "Wednesday": {"close": "19:00", "open": "10:00"}, "Thursday": {"close": "19:00", "open": "10:00"}, "Saturday": {"close": "18:00", "open": "10:00"}}, "open": true, "categories": ["Fashion", "Shopping", "Sporting Goods", "Local Services", "Bikes", "Sports Wear", "Bike Repair/Maintenance"], "city": "Karlsruhe", "review_count": 9, "name": "B.O.C.", "neighborhoods": [], "longitude": 8.35423, "state": "BW", "stars": 3.0, "latitude": 49.00984, "attributes": {"Parking": {"garage": false, "street": false, "validated": false, "lot": true, "valet": false}, "Accepts Credit Cards": false, "Wheelchair Accessible": true, "Price Range": 2}, "type": "business"}
{"business_id": "kpknqAb5inS0ic0-0UtUng", "full_address": "Scheffelstr. 21\n76135 Karlsruhe", "hours": {"Monday": {"close": "23:00", "open": "06:00"}, "Tuesday": {"close": "23:00", "open": "06:00"}, "Friday": {"close": "23:00", "open": "06:00"}, "Wednesday": {"close": "23:00", "open": "06:00"}, "Thursday": {"close": "23:00", "open": "06:00"}, "Saturday": {"close": "23:00", "open": "06:00"}}, "open": true, "categories": ["Local Services", "Dry Cleaning & Laundry"], "city": "Karlsruhe", "review_count": 4, "name": "Waschhaus", "neighborhoods": [], "longitude": 8.38159125106006, "state": "BW", "stars": 1.5, "latitude": 49.0079520267344, "attributes": {"Accepts Credit Cards": false, "Price Range": 1}, "type": "business"}
{"business_id": "OM_STp3HD4_VD8Cj7bk5FA", "full_address": "Akademiestrasse 43\nn\u00e4he Kaiserpassage\n76133 Karlsruhe", "hours": {}, "open": true, "categories": ["Local Services", "Food", "Printing Services", "Internet Cafes"], "city": "Karlsruhe", "review_count": 6, "name": "Webdome Internetcafe", "neighborhoods": [], "longitude": 8.3956698, "state": "BW", "stars": 5.0, "latitude": 49.0107889, "attributes": {"Wi-Fi": "paid", "Alcohol": "none", "Has TV": true, "Outdoor Seating": false, "Parking": {"garage": false, "validated": false, "street": false, "lot": false, "valet": false}, "Smoking": "outdoor", "Accepts Credit Cards": false, "Good For Groups": false, "Price Range": 1}, "type": "business"}
{"business_id": "0GJhI55FYF_ELmm88stj3Q", "full_address": "Kaiserstrasse 170\ngegen\u00fcber Rewe Markt\n76133 Karlsruhe", "hours": {}, "open": true, "categories": ["Local Services", "Food", "Printing Services", "Internet Cafes"], "city": "Karlsruhe", "review_count": 6, "name": "Webdome Internetcafe 2", "neighborhoods": [], "longitude": 8.3925711, "state": "BW", "stars": 5.0, "latitude": 49.0102368, "attributes": {"Wi-Fi": "paid", "Alcohol": "none", "Has TV": true, "Outdoor Seating": false, "Parking": {"garage": false, "validated": false, "street": false, "lot": false, "valet": false}, "Accepts Credit Cards": false, "Price Range": 1}, "type": "business"}
{"business_id": "Kl4KJn41-jTkO5g_o9J2bQ", "full_address": "Herrenstra\u00dfe\n76133 Karlsruhe", "hours": {}, "open": true, "categories": ["Local Services", "Shoe Repair"], "city": "Karlsruhe", "review_count": 3, "name": "schuhreparatur", "neighborhoods": [], "longitude": 8.3990264, "state": "BW", "stars": 3.5, "latitude": 49.0098249, "attributes": {}, "type": "business"}
{"business_id": "3POAu53GjpkGdimWn_sWcQ", "full_address": "Karlstr. 55\n76133 Karlsruhe", "hours": {"Monday": {"close": "21:00", "open": "10:00"}, "Tuesday": {"close": "21:00", "open": "10:00"}, "Friday": {"close": "21:00", "open": "10:00"}, "Wednesday": {"close": "21:00", "open": "10:00"}, "Thursday": {"close": "21:00", "open": "10:00"}, "Saturday": {"close": "20:00", "open": "10:00"}}, "open": true, "categories": ["Local Services", "Printing Services"], "city": "Karlsruhe", "review_count": 7, "name": "City Copyshop", "neighborhoods": [], "longitude": 8.3946437, "state": "BW", "stars": 3.5, "latitude": 49.0040554, "attributes": {"Price Range": 1, "Alcohol": "none", "Parking": {"garage": false, "validated": false, "street": false, "lot": false, "valet": false}, "Smoking": "outdoor", "Accepts Credit Cards": false, "Wheelchair Accessible": true}, "type": "business"}
{"business_id": "PHiFf9EP16eZ0zPrwS2uAQ", "full_address": "Augartenstra\u00dfe  51-53\n76137 Karlsruhe", "hours": {}, "open": true, "categories": ["Local Services"], "city": "Karlsruhe", "review_count": 3, "name": "N\u00e4hschule Karlsruhe", "neighborhoods": [], "longitude": 8.40946, "state": "BW", "stars": 5.0, "latitude": 48.99958, "attributes": {}, "type": "business"}
{"business_id": "w77OpJidFdGAUTs1TJ7E2w", "full_address": "Kronenstra\u00dfe 32\n76133 Karlsruhe", "hours": {}, "open": true, "categories": ["Local Services", "Printing Services"], "city": "Karlsruhe", "review_count": 3, "name": "Copy 90 - Digitaldruck", "neighborhoods": [], "longitude": 8.40905, "state": "BW", "stars": 4.5, "latitude": 49.0083, "attributes": {"Accepts Credit Cards": false, "Wheelchair Accessible": true, "Price Range": 1}, "type": "business"}
{"business_id": "nAMMS64Iriz9grhFzO6Evg", "full_address": "Bahnhofstr. 11\n76137 Karlsruhe", "hours": {}, "open": true, "categories": ["Local Services", "Dry Cleaning & Laundry"], "city": "Karlsruhe", "review_count": 6, "name": "Kurt Lausenhammer", "neighborhoods": [], "longitude": 8.39914, "state": "BW", "stars": 3.5, "latitude": 48.9944, "attributes": {"Price Range": 2}, "type": "business"}
{"business_id": "y270_EUXpJKxlDE5LFr-CA", "full_address": "Pfarrstr. 31\n76189 Karlsruhe", "hours": {}, "open": true, "categories": ["Local Services", "Funeral Services & Cemeteries"], "city": "Karlsruhe", "review_count": 3, "name": "Beerdigungsinstitut Gonther", "neighborhoods": [], "longitude": 8.32782, "state": "BW", "stars": 5.0, "latitude": 49.0061, "attributes": {"Parking": {"garage": false, "validated": false, "street": false, "lot": false, "valet": false}}, "type": "business"}
{"business_id": "BGZHzaRaOuxbBPAKxmnkZw", "full_address": "Karlstra\u00dfe 82\n76137 Karlsruhe", "hours": {"Monday": {"close": "18:30", "open": "08:30"}, "Tuesday": {"close": "18:30", "open": "08:30"}, "Friday": {"close": "18:30", "open": "08:30"}, "Wednesday": {"close": "18:30", "open": "08:30"}, "Thursday": {"close": "18:30", "open": "08:30"}, "Saturday": {"close": "13:30", "open": "09:30"}}, "open": true, "categories": ["Children's Clothing", "Fashion", "Shopping", "Appliances & Repair", "Home & Garden", "Local Services", "Kitchen & Bath", "Toy Stores"], "city": "Karlsruhe", "review_count": 3, "name": "atelier B:", "neighborhoods": [], "longitude": 8.39402, "state": "BW", "stars": 4.5, "latitude": 49.0009, "attributes": {}, "type": "business"}
{"business_id": "L3mhx94gZcCYwMvR8Y4pGA", "full_address": "Rheinstr. 50a\n76185 Karlsruhe", "hours": {"Tuesday": {"close": "18:00", "open": "10:00"}, "Friday": {"close": "18:00", "open": "10:00"}, "Thursday": {"close": "18:00", "open": "10:00"}, "Monday": {"close": "18:00", "open": "10:00"}}, "open": true, "categories": ["Local Services", "Sewing & Alterations"], "city": "Karlsruhe", "review_count": 4, "name": "Schneiderei N\u00e4hbar", "neighborhoods": [], "longitude": 8.3577, "state": "BW", "stars": 5.0, "latitude": 49.01237, "attributes": {"Parking": {"garage": false, "validated": false, "street": false, "lot": false, "valet": false}, "Accepts Credit Cards": false, "Wheelchair Accessible": true, "Price Range": 1}, "type": "business"}
{"business_id": "e5Vs5C6fUuHRfC5tLAr1Iw", "full_address": "Kaiserpassage 11\n76133 Karlsruhe", "hours": {}, "open": true, "categories": ["Local Services", "Sewing & Alterations"], "city": "Karlsruhe", "review_count": 5, "name": "\u00c4nderungsschneiderei Sami Geckil", "neighborhoods": [], "longitude": 8.396301, "state": "BW", "stars": 3.0, "latitude": 49.0108, "attributes": {"Price Range": 3}, "type": "business"}
{"business_id": "k7Y8zXSL2X3Gm_MxJj2Zsw", "full_address": "Geibelstr. 40\n76185 Karlsruhe", "hours": {}, "open": true, "categories": ["Local Services", "Dry Cleaning & Laundry"], "city": "Karlsruhe", "review_count": 6, "name": "Waschhaus Exclusiv Preiswert u. Sauber W\u00e4scherei", "neighborhoods": [], "longitude": 8.36142, "state": "BW", "stars": 3.0, "latitude": 49.012, "attributes": {}, "type": "business"}
{"business_id": "F2eR662GpiItrtCKvQovFQ", "full_address": "Kaiserstr. 235 -237\n76133 Karlsruhe", "hours": {"Monday": {"close": "19:00", "open": "10:00"}, "Tuesday": {"close": "19:00", "open": "10:00"}, "Friday": {"close": "19:00", "open": "10:00"}, "Wednesday": {"close": "19:00", "open": "10:00"}, "Thursday": {"close": "19:00", "open": "10:00"}, "Saturday": {"close": "18:00", "open": "10:00"}}, "open": true, "categories": ["Local Services", "Computers", "Shopping", "IT Services & Computer Repair"], "city": "Karlsruhe", "review_count": 15, "name": "Arlt Computer", "neighborhoods": [], "longitude": 8.3911933, "state": "BW", "stars": 4.0, "latitude": 49.0100196, "attributes": {"Parking": {"garage": false, "validated": false, "street": false, "lot": false, "valet": false}, "Wheelchair Accessible": true, "Price Range": 2}, "type": "business"}
{"business_id": "uAbMtNpZiRDqf61PRX4bDw", "full_address": "Carl-Metz-Str. 3\n76185 Karlsruhe", "hours": {"Monday": {"close": "19:00", "open": "10:00"}, "Tuesday": {"close": "19:00", "open": "10:00"}, "Friday": {"close": "19:00", "open": "10:00"}, "Wednesday": {"close": "19:00", "open": "10:00"}, "Thursday": {"close": "19:00", "open": "10:00"}, "Saturday": {"close": "18:00", "open": "10:00"}}, "open": true, "categories": ["Fashion", "Shopping", "Sporting Goods", "Local Services", "Bikes", "Sports Wear", "Bike Repair/Maintenance"], "city": "Karlsruhe", "review_count": 9, "name": "B.O.C.", "neighborhoods": [], "longitude": 8.35423, "state": "BW", "stars": 3.0, "latitude": 49.00984, "attributes": {"Parking": {"garage": false, "street": false, "validated": false, "lot": true, "valet": false}, "Accepts Credit Cards": false, "Wheelchair Accessible": true, "Price Range": 2}, "type": "business"}
{"business_id": "kpknqAb5inS0ic0-0UtUng", "full_address": "Scheffelstr. 21\n76135 Karlsruhe", "hours": {"Monday": {"close": "23:00", "open": "06:00"}, "Tuesday": {"close": "23:00", "open": "06:00"}, "Friday": {"close": "23:00", "open": "06:00"}, "Wednesday": {"close": "23:00", "open": "06:00"}, "Thursday": {"close": "23:00", "open": "06:00"}, "Saturday": {"close": "23:00", "open": "06:00"}}, "open": true, "categories": ["Local Services", "Dry Cleaning & Laundry"], "city": "Karlsruhe", "review_count": 4, "name": "Waschhaus", "neighborhoods": [], "longitude": 8.38159125106006, "state": "BW", "stars": 1.5, "latitude": 49.0079520267344, "attributes": {"Accepts Credit Cards": false, "Price Range": 1}, "type": "business"}
{"business_id": "OM_STp3HD4_VD8Cj7bk5FA", "full_address": "Akademiestrasse 43\nn\u00e4he Kaiserpassage\n76133 Karlsruhe", "hours": {}, "open": true, "categories": ["Local Services", "Food", "Printing Services", "Internet Cafes"], "city": "Karlsruhe", "review_count": 6, "name": "Webdome Internetcafe", "neighborhoods": [], "longitude": 8.3956698, "state": "BW", "stars": 5.0, "latitude": 49.0107889, "attributes": {"Wi-Fi": "paid", "Alcohol": "none", "Has TV": true, "Outdoor Seating": false, "Parking": {"garage": false, "validated": false, "street": false, "lot": false, "valet": false}, "Smoking": "outdoor", "Accepts Credit Cards": false, "Good For Groups": false, "Price Range": 1}, "type": "business"}
{"business_id": "0GJhI55FYF_ELmm88stj3Q", "full_address": "Kaiserstrasse 170\ngegen\u00fcber Rewe Markt\n76133 Karlsruhe", "hours": {}, "open": true, "categories": ["Local Services", "Food", "Printing Services", "Internet Cafes"], "city": "Karlsruhe", "review_count": 6, "name": "Webdome Internetcafe 2", "neighborhoods": [], "longitude": 8.3925711, "state": "BW", "stars": 5.0, "latitude": 49.0102368, "attributes": {"Wi-Fi": "paid", "Alcohol": "none", "Has TV": true, "Outdoor Seating": false, "Parking": {"garage": false, "validated": false, "street": false, "lot": false, "valet": false}, "Accepts Credit Cards": false, "Price Range": 1}, "type": "business"}
{"business_id": "Kl4KJn41-jTkO5g_o9J2bQ", "full_address": "Herrenstra\u00dfe\n76133 Karlsruhe", "hours": {}, "open": true, "categories": ["Local Services", "Shoe Repair"], "city": "Karlsruhe", "review_count": 3, "name": "schuhreparatur", "neighborhoods": [], "longitude": 8.3990264, "state": "BW", "stars": 3.5, "latitude": 49.0098249, "attributes": {}, "type": "business"}
{"business_id": "3POAu53GjpkGdimWn_sWcQ", "full_address": "Karlstr. 55\n76133 Karlsruhe", "hours": {"Monday": {"close": "21:00", "open": "10:00"}, "Tuesday": {"close": "21:00", "open": "10:00"}, "Friday": {"close": "21:00", "open": "10:00"}, "Wednesday": {"close": "21:00", "open": "10:00"}, "Thursday": {"close": "21:00", "open": "10:00"}, "Saturday": {"close": "20:00", "open": "10:00"}}, "open": true, "categories": ["Local Services", "Printing Services"], "city": "Karlsruhe", "review_count": 7, "name": "City Copyshop", "neighborhoods": [], "longitude": 8.3946437, "state": "BW", "stars": 3.5, "latitude": 49.0040554, "attributes": {"Price Range": 1, "Alcohol": "none", "Parking": {"garage": false, "validated": false, "street": false, "lot": false, "valet": false}, "Smoking": "outdoor", "Accepts Credit Cards": false, "Wheelchair Accessible": true}, "type": "business"}
{"business_id": "PHiFf9EP16eZ0zPrwS2uAQ", "full_address": "Augartenstra\u00dfe  51-53\n76137 Karlsruhe", "hours": {}, "open": true, "categories": ["Local Services"], "city": "Karlsruhe", "review_count": 3, "name": "N\u00e4hschule Karlsruhe", "neighborhoods": [], "longitude": 8.40946, "state": "BW", "stars": 5.0, "latitude": 48.99958, "attributes": {}, "type": "business"}
{"business_id": "w77OpJidFdGAUTs1TJ7E2w", "full_address": "Kronenstra\u00dfe 32\n76133 Karlsruhe", "hours": {}, "open": true, "categories": ["Local Services", "Printing Services"], "city": "Karlsruhe", "review_count": 3, "name": "Copy 90 - Digitaldruck", "neighborhoods": [], "longitude": 8.40905, "state": "BW", "stars": 4.5, "latitude": 49.0083, "attributes": {"Accepts Credit Cards": false, "Wheelchair Accessible": true, "Price Range": 1}, "type": "business"}
{"business_id": "nAMMS64Iriz9grhFzO6Evg", "full_address": "Bahnhofstr. 11\n76137 Karlsruhe", "hours": {}, "open": true, "categories": ["Local Services", "Dry Cleaning & Laundry"], "city": "Karlsruhe", "review_count": 6, "name": "Kurt Lausenhammer", "neighborhoods": [], "longitude": 8.39914, "state": "BW", "stars": 3.5, "latitude": 48.9944, "attributes": {"Price Range": 2}, "type": "business"}
{"business_id": "y270_EUXpJKxlDE5LFr-CA", "full_address": "Pfarrstr. 31\n76189 Karlsruhe", "hours": {}, "open": true, "categories": ["Local Services", "Funeral Services & Cemeteries"], "city": "Karlsruhe", "review_count": 3, "name": "Beerdigungsinstitut Gonther", "neighborhoods": [], "longitude": 8.32782, "state": "BW", "stars": 5.0, "latitude": 49.0061, "attributes": {"Parking": {"garage": false, "validated": false, "street": false, "lot": false, "valet": false}}, "type": "business"}
{"business_id": "BGZHzaRaOuxbBPAKxmnkZw", "full_address": "Karlstra\u00dfe 82\n76137 Karlsruhe", "hours": {"Monday": {"close": "18:30", "open": "08:30"}, "Tuesday": {"close": "18:30", "open": "08:30"}, "Friday": {"close": "18:30", "open": "08:30"}, "Wednesday": {"close": "18:30", "open": "08:30"}, "Thursday": {"close": "18:30", "open": "08:30"}, "Saturday": {"close": "13:30", "open": "09:30"}}, "open": true, "categories": ["Children's Clothing", "Fashion", "Shopping", "Appliances & Repair", "Home & Garden", "Local Services", "Kitchen & Bath", "Toy Stores"], "city": "Karlsruhe", "review_count": 3, "name": "atelier B:", "neighborhoods": [], "longitude": 8.39402, "state": "BW", "stars": 4.5, "latitude": 49.0009, "attributes": {}, "type": "business"}
{"business_id": "L3mhx94gZcCYwMvR8Y4pGA", "full_address": "Rheinstr. 50a\n76185 Karlsruhe", "hours": {"Tuesday": {"close": "18:00", "open": "10:00"}, "Friday": {"close": "18:00", "open": "10:00"}, "Thursday": {"close": "18:00", "open": "10:00"}, "Monday": {"close": "18:00", "open": "10:00"}}, "open": true, "categories": ["Local Services", "Sewing & Alterations"], "city": "Karlsruhe", "review_count": 4, "name": "Schneiderei N\u00e4hbar", "neighborhoods": [], "longitude": 8.3577, "state": "BW", "stars": 5.0, "latitude": 49.01237, "attributes": {"Parking": {"garage": false, "validated": false, "street": false, "lot": false, "valet": false}, "Accepts Credit Cards": false, "Wheelchair Accessible": true, "Price Range": 1}, "type": "business"}
{"business_id": "e5Vs5C6fUuHRfC5tLAr1Iw", "full_address": "Kaiserpassage 11\n76133 Karlsruhe", "hours": {}, "open": true, "categories": ["Local Services", "Sewing & Alterations"], "city": "Karlsruhe", "review_count": 5, "name": "\u00c4nderungsschneiderei Sami Geckil", "neighborhoods": [], "longitude": 8.396301, "state": "BW", "stars": 3.0, "latitude": 49.0108, "attributes": {"Price Range": 3}, "type": "business"}
{"business_id": "k7Y8zXSL2X3Gm_MxJj2Zsw", "full_address": "Geibelstr. 40\n76185 Karlsruhe", "hours": {}, "open": true, "categories": ["Local Services", "Dry Cleaning & Laundry"], "city": "Karlsruhe", "review_count": 6, "name": "Waschhaus Exclusiv Preiswert u. Sauber W\u00e4scherei", "neighborhoods": [], "longitude": 8.36142, "state": "BW", "stars": 3.0, "latitude": 49.012, "attributes": {}, "type": "business"}
{"business_id": "F2eR662GpiItrtCKvQovFQ", "full_address": "Kaiserstr. 235 -237\n76133 Karlsruhe", "hours": {"Monday": {"close": "19:00", "open": "10:00"}, "Tuesday": {"close": "19:00", "open": "10:00"}, "Friday": {"close": "19:00", "open": "10:00"}, "Wednesday": {"close": "19:00", "open": "10:00"}, "Thursday": {"close": "19:00", "open": "10:00"}, "Saturday": {"close": "18:00", "open": "10:00"}}, "open": true, "categories": ["Local Services", "Computers", "Shopping", "IT Services & Computer Repair"], "city": "Karlsruhe", "review_count": 15, "name": "Arlt Computer", "neighborhoods": [], "longitude": 8.3911933, "state": "BW", "stars": 4.0, "latitude": 49.0100196, "attributes": {"Parking": {"garage": false, "validated": false, "street": false, "lot": false, "valet": false}, "Wheelchair Accessible": true, "Price Range": 2}, "type": "business"}
{"business_id": "uAbMtNpZiRDqf61PRX4bDw", "full_address": "Carl-Metz-Str. 3\n76185 Karlsruhe", "hours": {"Monday": {"close": "19:00", "open": "10:00"}, "Tuesday": {"close": "19:00", "open": "10:00"}, "Friday": {"close": "19:00", "open": "10:00"}, "Wednesday": {"close": "19:00", "open": "10:00"}, "Thursday": {"close": "19:00", "open": "10:00"}, "Saturday": {"close": "18:00", "open": "10:00"}}, "open": true, "categories": ["Fashion", "Shopping", "Sporting Goods", "Local Services", "Bikes", "Sports Wear", "Bike Repair/Maintenance"], "city": "Karlsruhe", "review_count": 9, "name": "B.O.C.", "neighborhoods": [], "longitude": 8.35423, "state": "BW", "stars": 3.0, "latitude": 49.00984, "attributes": {"Parking": {"garage": false, "street": false, "validated": false, "lot": true, "valet": false}, "Accepts Credit Cards": false, "Wheelchair Accessible": true, "Price Range": 2}, "type": "business"}
{"business_id": "kpknqAb5inS0ic0-0UtUng", "full_address": "Scheffelstr. 21\n76135 Karlsruhe", "hours": {"Monday": {"close": "23:00", "open": "06:00"}, "Tuesday": {"close": "23:00", "open": "06:00"}, "Friday": {"close": "23:00", "open": "06:00"}, "Wednesday": {"close": "23:00", "open": "06:00"}, "Thursday": {"close": "23:00", "open": "06:00"}, "Saturday": {"close": "23:00", "open": "06:00"}}, "open": true, "categories": ["Local Services", "Dry Cleaning & Laundry"], "city": "Karlsruhe", "review_count": 4, "name": "Waschhaus", "neighborhoods": [], "longitude": 8.38159125106006, "state": "BW", "stars": 1.5, "latitude": 49.0079520267344, "attributes": {"Accepts Credit Cards": false, "Price Range": 1}, "type": "business"}
{"business_id": "OM_STp3HD4_VD8Cj7bk5FA", "full_address": "Akademiestrasse 43\nn\u00e4he Kaiserpassage\n76133 Karlsruhe", "hours": {}, "open": true, "categories": ["Local Services", "Food", "Printing Services", "Internet Cafes"], "city": "Karlsruhe", "review_count": 6, "name": "Webdome Internetcafe", "neighborhoods": [], "longitude": 8.3956698, "state": "BW", "stars": 5.0, "latitude": 49.0107889, "attributes": {"Wi-Fi": "paid", "Alcohol": "none", "Has TV": true, "Outdoor Seating": false, "Parking": {"garage": false, "validated": false, "street": false, "lot": false, "valet": false}, "Smoking": "outdoor", "Accepts Credit Cards": false, "Good For Groups": false, "Price Range": 1}, "type": "business"}
{"business_id": "0GJhI55FYF_ELmm88stj3Q", "full_address": "Kaiserstrasse 170\ngegen\u00fcber Rewe Markt\n76133 Karlsruhe", "hours": {}, "open": true, "categories": ["Local Services", "Food", "Printing Services", "Internet Cafes"], "city": "Karlsruhe", "review_count": 6, "name": "Webdome Internetcafe 2", "neighborhoods": [], "longitude": 8.3925711, "state": "BW", "stars": 5.0, "latitude": 49.0102368, "attributes": {"Wi-Fi": "paid", "Alcohol": "none", "Has TV": true, "Outdoor Seating": false, "Parking": {"garage": false, "validated": false, "street": false, "lot": false, "valet": false}, "Accepts Credit Cards": false, "Price Range": 1}, "type": "business"}
{"business_id": "Kl4KJn41-jTkO5g_o9J2bQ", "full_address": "Herrenstra\u00dfe\n76133 Karlsruhe", "hours": {}, "open": true, "categories": ["Local Services", "Shoe Repair"], "city": "Karlsruhe", "review_count": 3, "name": "schuhreparatur", "neighborhoods": [], "longitude": 8.3990264, "state": "BW", "stars": 3.5, "latitude": 49.0098249, "attributes": {}, "type": "business"}
{"business_id": "3POAu53GjpkGdimWn_sWcQ", "full_address": "Karlstr. 55\n76133 Karlsruhe", "hours": {"Monday": {"close": "21:00", "open": "10:00"}, "Tuesday": {"close": "21:00", "open": "10:00"}, "Friday": {"close": "21:00", "open": "10:00"}, "Wednesday": {"close": "21:00", "open": "10:00"}, "Thursday": {"close": "21:00", "open": "10:00"}, "Saturday": {"close": "20:00", "open": "10:00"}}, "open": true, "categories": ["Local Services", "Printing Services"], "city": "Karlsruhe", "review_count": 7, "name": "City Copyshop", "neighborhoods": [], "longitude": 8.3946437, "state": "BW", "stars": 3.5, "latitude": 49.0040554, "attributes": {"Price Range": 1, "Alcohol": "none", "Parking": {"garage": false, "validated": false, "street": false, "lot": false, "valet": false}, "Smoking": "outdoor", "Accepts Credit Cards": false, "Wheelchair Accessible": true}, "type": "business"}
{"business_id": "PHiFf9EP16eZ0zPrwS2uAQ", "full_address": "Augartenstra\u00dfe  51-53\n76137 Karlsruhe", "hours": {}, "open": true, "categories": ["Local Services"], "city": "Karlsruhe", "review_count": 3, "name": "N\u00e4hschule Karlsruhe", "neighborhoods": [], "longitude": 8.40946, "state": "BW", "stars": 5.0, "latitude": 48.99958, "attributes": {}, "type": "business"}
{"business_id": "w77OpJidFdGAUTs1TJ7E2w", "full_address": "Kronenstra\u00dfe 32\n76133 Karlsruhe", "hours": {}, "open": true, "categories": ["Local Services", "Printing Services"], "city": "Karlsruhe", "review_count": 3, "name": "Copy 90 - Digitaldruck", "neighborhoods": [], "longitude": 8.40905, "state": "BW", "stars": 4.5, "latitude": 49.0083, "attributes": {"Accepts Credit Cards": false, "Wheelchair Accessible": true, "Price Range": 1}, "type": "business"}
{"business_id": "nAMMS64Iriz9grhFzO6Evg", "full_address": "Bahnhofstr. 11\n76137 Karlsruhe", "hours": {}, "open": true, "categories": ["Local Services", "Dry Cleaning & Laundry"], "city": "Karlsruhe", "review_count": 6, "name": "Kurt Lausenhammer", "neighborhoods": [], "longitude": 8.39914, "state": "BW", "stars": 3.5, "latitude": 48.9944, "attributes": {"Price Range": 2}, "type": "business"}
{"business_id": "y270_EUXpJKxlDE5LFr-CA", "full_address": "Pfarrstr. 31\n76189 Karlsruhe", "hours": {}, "open": true, "categories": ["Local Services", "Funeral Services & Cemeteries"], "city": "Karlsruhe", "review_count": 3, "name": "Beerdigungsinstitut Gonther", "neighborhoods": [], "longitude": 8.32782, "state": "BW", "stars": 5.0, "latitude": 49.0061, "attributes": {"Parking": {"garage": false, "validated": false, "street": false, "lot": false, "valet": false}}, "type": "business"}
{"business_id": "BGZHzaRaOuxbBPAKxmnkZw", "full_address": "Karlstra\u00dfe 82\n76137 Karlsruhe", "hours": {"Monday": {"close": "18:30", "open": "08:30"}, "Tuesday": {"close": "18:30", "open": "08:30"}, "Friday": {"close": "18:30", "open": "08:30"}, "Wednesday": {"close": "18:30", "open": "08:30"}, "Thursday": {"close": "18:30", "open": "08:30"}, "Saturday": {"close": "13:30", "open": "09:30"}}, "open": true, "categories": ["Children's Clothing", "Fashion", "Shopping", "Appliances & Repair", "Home & Garden", "Local Services", "Kitchen & Bath", "Toy Stores"], "city": "Karlsruhe", "review_count": 3, "name": "atelier B:", "neighborhoods": [], "longitude": 8.39402, "state": "BW", "stars": 4.5, "latitude": 49.0009, "attributes": {}, "type": "business"}
{"business_id": "L3mhx94gZcCYwMvR8Y4pGA", "full_address": "Rheinstr. 50a\n76185 Karlsruhe", "hours": {"Tuesday": {"close": "18:00", "open": "10:00"}, "Friday": {"close": "18:00", "open": "10:00"}, "Thursday": {"close": "18:00", "open": "10:00"}, "Monday": {"close": "18:00", "open": "10:00"}}, "open": true, "categories": ["Local Services", "Sewing & Alterations"], "city": "Karlsruhe", "review_count": 4, "name": "Schneiderei N\u00e4hbar", "neighborhoods": [], "longitude": 8.3577, "state": "BW", "stars": 5.0, "latitude": 49.01237, "attributes": {"Parking": {"garage": false, "validated": false, "street": false, "lot": false, "valet": false}, "Accepts Credit Cards": false, "Wheelchair Accessible": true, "Price Range": 1}, "type": "business"}
{"business_id": "e5Vs5C6fUuHRfC5tLAr1Iw", "full_address": "Kaiserpassage 11\n76133 Karlsruhe", "hours": {}, "open": true, "categories": ["Local Services", "Sewing & Alterations"], "city": "Karlsruhe", "review_count": 5, "name": "\u00c4nderungsschneiderei Sami Geckil", "neighborhoods": [], "longitude": 8.396301, "state": "BW", "stars": 3.0, "latitude": 49.0108, "attributes": {"Price Range": 3}, "type": "business"}
{"business_id": "k7Y8zXSL2X3Gm_MxJj2Zsw", "full_address": "Geibelstr. 40\n76185 Karlsruhe", "hours": {}, "open": true, "categories": ["Local Services", "Dry Cleaning & Laundry"], "city": "Karlsruhe", "review_count": 6, "name": "Waschhaus Exclusiv Preiswert u. Sauber W\u00e4scherei", "neighborhoods": [], "longitude": 8.36142, "state": "BW", "stars": 3.0, "latitude": 49.012, "attributes": {}, "type": "business"}
{"business_id": "F2eR662GpiItrtCKvQovFQ", "full_address": "Kaiserstr. 235 -237\n76133 Karlsruhe", "hours": {"Monday": {"close": "19:00", "open": "10:00"}, "Tuesday": {"close": "19:00", "open": "10:00"}, "Friday": {"close": "19:00", "open": "10:00"}, "Wednesday": {"close": "19:00", "open": "10:00"}, "Thursday": {"close": "19:00", "open": "10:00"}, "Saturday": {"close": "18:00", "open": "10:00"}}, "open": true, "categories": ["Local Services", "Computers", "Shopping", "IT Services & Computer Repair"], "city": "Karlsruhe", "review_count": 15, "name": "Arlt Computer", "neighborhoods": [], "longitude": 8.3911933, "state": "BW", "stars": 4.0, "latitude": 49.0100196, "attributes": {"Parking": {"garage": false, "validated": false, "street": false, "lot": false, "valet": false}, "Wheelchair Accessible": true, "Price Range": 2}, "type": "business"}
{"business_id": "uAbMtNpZiRDqf61PRX4bDw", "full_address": "Carl-Metz-Str. 3\n76185 Karlsruhe", "hours": {"Monday": {"close": "19:00", "open": "10:00"}, "Tuesday": {"close": "19:00", "open": "10:00"}, "Friday": {"close": "19:00", "open": "10:00"}, "Wednesday": {"close": "19:00", "open": "10:00"}, "Thursday": {"close": "19:00", "open": "10:00"}, "Saturday": {"close": "18:00", "open": "10:00"}}, "open": true, "categories": ["Fashion", "Shopping", "Sporting Goods", "Local Services", "Bikes", "Sports Wear", "Bike Repair/Maintenance"], "city": "Karlsruhe", "review_count": 9, "name": "B.O.C.", "neighborhoods": [], "longitude": 8.35423, "state": "BW", "stars": 3.0, "latitude": 49.00984, "attributes": {"Parking": {"garage": false, "street": false, "validated": false, "lot": true, "valet": false}, "Accepts Credit Cards": false, "Wheelchair Accessible": true, "Price Range": 2}, "type": "business"}
{"business_id": "kpknqAb5inS0ic0-0UtUng", "full_address": "Scheffelstr. 21\n76135 Karlsruhe", "hours": {"Monday": {"close": "23:00", "open": "06:00"}, "Tuesday": {"close": "23:00", "open": "06:00"}, "Friday": {"close": "23:00", "open": "06:00"}, "Wednesday": {"close": "23:00", "open": "06:00"}, "Thursday": {"close": "23:00", "open": "06:00"}, "Saturday": {"close": "23:00", "open": "06:00"}}, "open": true, "categories": ["Local Services", "Dry Cleaning & Laundry"], "city": "Karlsruhe", "review_count": 4, "name": "Waschhaus", "neighborhoods": [], "longitude": 8.38159125106006, "state": "BW", "stars": 1.5, "latitude": 49.0079520267344, "attributes": {"Accepts Credit Cards": false, "Price Range": 1}, "type": "business"}
{"business_id": "OM_STp3HD4_VD8Cj7bk5FA", "full_address": "Akademiestrasse 43\nn\u00e4he Kaiserpassage\n76133 Karlsruhe", "hours": {}, "open": true, "categories": ["Local Services", "Food", "Printing Services", "Internet Cafes"], "city": "Karlsruhe", "review_count": 6, "name": "Webdome Internetcafe", "neighborhoods": [], "longitude": 8.3956698, "state": "BW", "stars": 5.0, "latitude": 49.0107889, "attributes": {"Wi-Fi": "paid", "Alcohol": "none", "Has TV": true, "Outdoor Seating": false, "Parking": {"garage": false, "validated": false, "street": false, "lot": false, "valet": false}, "Smoking": "outdoor", "Accepts Credit Cards": false, "Good For Groups": false, "Price Range": 1}, "type": "business"}
{"business_id": "0GJhI55FYF_ELmm88stj3Q", "full_address": "Kaiserstrasse 170\ngegen\u00fcber Rewe Markt\n76133 Karlsruhe", "hours": {}, "open": true, "categories": ["Local Services", "Food", "Printing Services", "Internet Cafes"], "city": "Karlsruhe", "review_count": 6, "name": "Webdome Internetcafe 2", "neighborhoods": [], "longitude": 8.3925711, "state": "BW", "stars": 5.0, "latitude": 49.0102368, "attributes": {"Wi-Fi": "paid", "Alcohol": "none", "Has TV": true, "Outdoor Seating": false, "Parking": {"garage": false, "validated": false, "street": false, "lot": false, "valet": false}, "Accepts Credit Cards": false, "Price Range": 1}, "type": "business"}
{"business_id": "Kl4KJn41-jTkO5g_o9J2bQ", "full_address": "Herrenstra\u00dfe\n76133 Karlsruhe", "hours": {}, "open": true, "categories": ["Local Services", "Shoe Repair"], "city": "Karlsruhe", "review_count": 3, "name": "schuhreparatur", "neighborhoods": [], "longitude": 8.3990264, "state": "BW", "stars": 3.5, "latitude": 49.0098249, "attributes": {}, "type": "business"}
{"business_id": "3POAu53GjpkGdimWn_sWcQ", "full_address": "Karlstr. 55\n76133 Karlsruhe", "hours": {"Monday": {"close": "21:00", "open": "10:00"}, "Tuesday": {"close": "21:00", "open": "10:00"}, "Friday": {"close": "21:00", "open": "10:00"}, "Wednesday": {"close": "21:00", "open": "10:00"}, "Thursday": {"close": "21:00", "open": "10:00"}, "Saturday": {"close": "20:00", "open": "10:00"}}, "open": true, "categories": ["Local Services", "Printing Services"], "city": "Karlsruhe", "review_count": 7, "name": "City Copyshop", "neighborhoods": [], "longitude": 8.3946437, "state": "BW", "stars": 3.5, "latitude": 49.0040554, "attributes": {"Price Range": 1, "Alcohol": "none", "Parking": {"garage": false, "validated": false, "street": false, "lot": false, "valet": false}, "Smoking": "outdoor", "Accepts Credit Cards": false, "Wheelchair Accessible": true}, "type": "business"}
{"business_id": "PHiFf9EP16eZ0zPrwS2uAQ", "full_address": "Augartenstra\u00dfe  51-53\n76137 Karlsruhe", "hours": {}, "open": true, "categories": ["Local Services"], "city": "Karlsruhe", "review_count": 3, "name": "N\u00e4hschule Karlsruhe", "neighborhoods": [], "longitude": 8.40946, "state": "BW", "stars": 5.0, "latitude": 48.99958, "attributes": {}, "type": "business"}
{"business_id": "w77OpJidFdGAUTs1TJ7E2w", "full_address": "Kronenstra\u00dfe 32\n76133 Karlsruhe", "hours": {}, "open": true, "categories": ["Local Services", "Printing Services"], "city": "Karlsruhe", "review_count": 3, "name": "Copy 90 - Digitaldruck", "neighborhoods": [], "longitude": 8.40905, "state": "BW", "stars": 4.5, "latitude": 49.0083, "attributes": {"Accepts Credit Cards": false, "Wheelchair Accessible": true, "Price Range": 1}, "type": "business"}
{"business_id": "nAMMS64Iriz9grhFzO6Evg", "full_address": "Bahnhofstr. 11\n76137 Karlsruhe", "hours": {}, "open": true, "categories": ["Local Services", "Dry Cleaning & Laundry"], "city": "Karlsruhe", "review_count": 6, "name": "Kurt Lausenhammer", "neighborhoods": [], "longitude": 8.39914, "state": "BW", "stars": 3.5, "latitude": 48.9944, "attributes": {"Price Range": 2}, "type": "business"}
{"business_id": "y270_EUXpJKxlDE5LFr-CA", "full_address": "Pfarrstr. 31\n76189 Karlsruhe", "hours": {}, "open": true, "categories": ["Local Services", "Funeral Services & Cemeteries"], "city": "Karlsruhe", "review_count": 3, "name": "Beerdigungsinstitut Gonther", "neighborhoods": [], "longitude": 8.32782, "state": "BW", "stars": 5.0, "latitude": 49.0061, "attributes": {"Parking": {"garage": false, "validated": false, "street": false, "lot": false, "valet": false}}, "type": "business"}
{"business_id": "BGZHzaRaOuxbBPAKxmnkZw", "full_address": "Karlstra\u00dfe 82\n76137 Karlsruhe", "hours": {"Monday": {"close": "18:30", "open": "08:30"}, "Tuesday": {"close": "18:30", "open": "08:30"}, "Friday": {"close": "18:30", "open": "08:30"}, "Wednesday": {"close": "18:30", "open": "08:30"}, "Thursday": {"close": "18:30", "open": "08:30"}, "Saturday": {"close": "13:30", "open": "09:30"}}, "open": true, "categories": ["Children's Clothing", "Fashion", "Shopping", "Appliances & Repair", "Home & Garden", "Local Services", "Kitchen & Bath", "Toy Stores"], "city": "Karlsruhe", "review_count": 3, "name": "atelier B:", "neighborhoods": [], "longitude": 8.39402, "state": "BW", "stars": 4.5, "latitude": 49.0009, "attributes": {}, "type": "business"}
{"business_id": "L3mhx94gZcCYwMvR8Y4pGA", "full_address": "Rheinstr. 50a\n76185 Karlsruhe", "hours": {"Tuesday": {"close": "18:00", "open": "10:00"}, "Friday": {"close": "18:00", "open": "10:00"}, "Thursday": {"close": "18:00", "open": "10:00"}, "Monday": {"close": "18:00", "open": "10:00"}}, "open": true, "categories": ["Local Services", "Sewing & Alterations"], "city": "Karlsruhe", "review_count": 4, "name": "Schneiderei N\u00e4hbar", "neighborhoods": [], "longitude": 8.3577, "state": "BW", "stars": 5.0, "latitude": 49.01237, "attributes": {"Parking": {"garage": false, "validated": false, "street": false, "lot": false, "valet": false}, "Accepts Credit Cards": false, "Wheelchair Accessible": true, "Price Range": 1}, "type": "business"}
{"business_id": "e5Vs5C6fUuHRfC5tLAr1Iw", "full_address": "Kaiserpassage 11\n76133 Karlsruhe", "hours": {}, "open": true, "categories": ["Local Services", "Sewing & Alterations"], "city": "Karlsruhe", "review_count": 5, "name": "\u00c4nderungsschneiderei Sami Geckil", "neighborhoods": [], "longitude": 8.396301, "state": "BW", "stars": 3.0, "latitude": 49.0108, "attributes": {"Price Range": 3}, "type": "business"}
{"business_id": "k7Y8zXSL2X3Gm_MxJj2Zsw", "full_address": "Geibelstr. 40\n76185 Karlsruhe", "hours": {}, "open": true, "categories": ["Local Services", "Dry Cleaning & Laundry"], "city": "Karlsruhe", "review_count": 6, "name": "Waschhaus Exclusiv Preiswert u. Sauber W\u00e4scherei", "neighborhoods": [], "longitude": 8.36142, "state": "BW", "stars": 3.0, "latitude": 49.012, "attributes": {}, "type": "business"}
{"business_id": "F2eR662GpiItrtCKvQovFQ", "full_address": "Kaiserstr. 235 -237\n76133 Karlsruhe", "hours": {"Monday": {"close": "19:00", "open": "10:00"}, "Tuesday": {"close": "19:00", "open": "10:00"}, "Friday": {"close": "19:00", "open": "10:00"}, "Wednesday": {"close": "19:00", "open": "10:00"}, "Thursday": {"close": "19:00", "open": "10:00"}, "Saturday": {"close": "18:00", "open": "10:00"}}, "open": true, "categories": ["Local Services", "Computers", "Shopping", "IT Services & Computer Repair"], "city": "Karlsruhe", "review_count": 15, "name": "Arlt Computer", "neighborhoods": [], "longitude": 8.3911933, "state": "BW", "stars": 4.0, "latitude": 49.0100196, "attributes": {"Parking": {"garage": false, "validated": false, "street": false, "lot": false, "valet": false}, "Wheelchair Accessible": true, "Price Range": 2}, "type": "business"}
{"business_id": "uAbMtNpZiRDqf61PRX4bDw", "full_address": "Carl-Metz-Str. 3\n76185 Karlsruhe", "hours": {"Monday": {"close": "19:00", "open": "10:00"}, "Tuesday": {"close": "19:00", "open": "10:00"}, "Friday": {"close": "19:00", "open": "10:00"}, "Wednesday": {"close": "19:00", "open": "10:00"}, "Thursday": {"close": "19:00", "open": "10:00"}, "Saturday": {"close": "18:00", "open": "10:00"}}, "open": true, "categories": ["Fashion", "Shopping", "Sporting Goods", "Local Services", "Bikes", "Sports Wear", "Bike Repair/Maintenance"], "city": "Karlsruhe", "review_count": 9, "name": "B.O.C.", "neighborhoods": [], "longitude": 8.35423, "state": "BW", "stars": 3.0, "latitude": 49.00984, "attributes": {"Parking": {"garage": false, "street": false, "validated": false, "lot": true, "valet": false}, "Accepts Credit Cards": false, "Wheelchair Accessible": true, "Price Range": 2}, "type": "business"}
{"business_id": "kpknqAb5inS0ic0-0UtUng", "full_address": "Scheffelstr. 21\n76135 Karlsruhe", "hours": {"Monday": {"close": "23:00", "open": "06:00"}, "Tuesday": {"close": "23:00", "open": "06:00"}, "Friday": {"close": "23:00", "open": "06:00"}, "Wednesday": {"close": "23:00", "open": "06:00"}, "Thursday": {"close": "23:00", "open": "06:00"}, "Saturday": {"close": "23:00", "open": "06:00"}}, "open": true, "categories": ["Local Services", "Dry Cleaning & Laundry"], "city": "Karlsruhe", "review_count": 4, "name": "Waschhaus", "neighborhoods": [], "longitude": 8.38159125106006, "state": "BW", "stars": 1.5, "latitude": 49.0079520267344, "attributes": {"Accepts Credit Cards": false, "Price Range": 1}, "type": "business"}
{"business_id": "OM_STp3HD4_VD8Cj7bk5FA", "full_address": "Akademiestrasse 43\nn\u00e4he Kaiserpassage\n76133 Karlsruhe", "hours": {}, "open": true, "categories": ["Local Services", "Food", "Printing Services", "Internet Cafes"], "city": "Karlsruhe", "review_count": 6, "name": "Webdome Internetcafe", "neighborhoods": [], "longitude": 8.3956698, "state": "BW", "stars": 5.0, "latitude": 49.0107889, "attributes": {"Wi-Fi": "paid", "Alcohol": "none", "Has TV": true, "Outdoor Seating": false, "Parking": {"garage": false, "validated": false, "street": false, "lot": false, "valet": false}, "Smoking": "outdoor", "Accepts Credit Cards": false, "Good For Groups": false, "Price Range": 1}, "type": "business"}
{"business_id": "0GJhI55FYF_ELmm88stj3Q", "full_address": "Kaiserstrasse 170\ngegen\u00fcber Rewe Markt\n76133 Karlsruhe", "hours": {}, "open": true, "categories": ["Local Services", "Food", "Printing Services", "Internet Cafes"], "city": "Karlsruhe", "review_count": 6, "name": "Webdome Internetcafe 2", "neighborhoods": [], "longitude": 8.3925711, "state": "BW", "stars": 5.0, "latitude": 49.0102368, "attributes": {"Wi-Fi": "paid", "Alcohol": "none", "Has TV": true, "Outdoor Seating": false, "Parking": {"garage": false, "validated": false, "street": false, "lot": false, "valet": false}, "Accepts Credit Cards": false, "Price Range": 1}, "type": "business"}
{"business_id": "Kl4KJn41-jTkO5g_o9J2bQ", "full_address": "Herrenstra\u00dfe\n76133 Karlsruhe", "hours": {}, "open": true, "categories": ["Local Services", "Shoe Repair"], "city": "Karlsruhe", "review_count": 3, "name": "schuhreparatur", "neighborhoods": [], "longitude": 8.3990264, "state": "BW", "stars": 3.5, "latitude": 49.0098249, "attributes": {}, "type": "business"}
{"business_id": "3POAu53GjpkGdimWn_sWcQ", "full_address": "Karlstr. 55\n76133 Karlsruhe", "hours": {"Monday": {"close": "21:00", "open": "10:00"}, "Tuesday": {"close": "21:00", "open": "10:00"}, "Friday": {"close": "21:00", "open": "10:00"}, "Wednesday": {"close": "21:00", "open": "10:00"}, "Thursday": {"close": "21:00", "open": "10:00"}, "Saturday": {"close": "20:00", "open": "10:00"}}, "open": true, "categories": ["Local Services", "Printing Services"], "city": "Karlsruhe", "review_count": 7, "name": "City Copyshop", "neighborhoods": [], "longitude": 8.3946437, "state": "BW", "stars": 3.5, "latitude": 49.0040554, "attributes": {"Price Range": 1, "Alcohol": "none", "Parking": {"garage": false, "validated": false, "street": false, "lot": false, "valet": false}, "Smoking": "outdoor", "Accepts Credit Cards": false, "Wheelchair Accessible": true}, "type": "business"}
{"business_id": "PHiFf9EP16eZ0zPrwS2uAQ", "full_address": "Augartenstra\u00dfe  51-53\n76137 Karlsruhe", "hours": {}, "open": true, "categories": ["Local Services"], "city": "Karlsruhe", "review_count": 3, "name": "N\u00e4hschule Karlsruhe", "neighborhoods": [], "longitude": 8.40946, "state": "BW", "stars": 5.0, "latitude": 48.99958, "attributes": {}, "type": "business"}
{"business_id": "w77OpJidFdGAUTs1TJ7E2w", "full_address": "Kronenstra\u00dfe 32\n76133 Karlsruhe", "hours": {}, "open": true, "categories": ["Local Services", "Printing Services"], "city": "Karlsruhe", "review_count": 3, "name": "Copy 90 - Digitaldruck", "neighborhoods": [], "longitude": 8.40905, "state": "BW", "stars": 4.5, "latitude": 49.0083, "attributes": {"Accepts Credit Cards": false, "Wheelchair Accessible": true, "Price Range": 1}, "type": "business"}
