{"business_id": "JKPfm4KBvDoAKJwWiMz3Lg", "full_address": "Gerwigstr. 69\n76131 Karlsruhe", "hours": {}, "open": true, "categories": ["Shopping", "Fashion", "Maternity Wear", "Baby Gear & Furniture"], "city": "Karlsruhe", "review_count": 3, "name": "Baby-Center", "neighborhoods": [], "longitude": 8.43805, "state": "BW", "stars": 1.5, "latitude": 49.007, "attributes": {"Parking": {"garage": false, "validated": false, "street": false, "lot": false, "valet": false}, "Wheelchair Accessible": false, "Price Range": 3}, "type": "business"}
{"business_id": "FgXSF5rB-sXvqeheZPFwZw", "full_address": "Karlstr. 56\n76133 Karlsruhe", "hours": {}, "open": true, "categories": ["Maternity Wear", "Fashion", "Shopping", "Baby Gear & Furniture"], "city": "Karlsruhe", "review_count": 3, "name": "baby-walz", "neighborhoods": [], "longitude": 8.39429, "state": "BW", "stars": 1.5, "latitude": 49.0035, "attributes": {"Price Range": 4}, "type": "business"}
{"business_id": "JKPfm4KBvDoAKJwWiMz3Lg", "full_address": "Gerwigstr. 69\n76131 Karlsruhe", "hours": {}, "open": true, "categories": ["Shopping", "Fashion", "Maternity Wear", "Baby Gear & Furniture"], "city": "Karlsruhe", "review_count": 3, "name": "Baby-Center", "neighborhoods": [], "longitude": 8.43805, "state": "BW", "stars": 1.5, "latitude": 49.007, "attributes": {"Parking": {"garage": false, "validated": false, "street": false, "lot": false, "valet": false}, "Wheelchair Accessible": false, "Price Range": 3}, "type": "business"}
{"business_id": "FgXSF5rB-sXvqeheZPFwZw", "full_address": "Karlstr. 56\n76133 Karlsruhe", "hours": {}, "open": true, "categories": ["Maternity Wear", "Fashion", "Shopping", "Baby Gear & Furniture"], "city": "Karlsruhe", "review_count": 3, "name": "baby-walz", "neighborhoods": [], "longitude": 8.39429, "state": "BW", "stars": 1.5, "latitude": 49.0035, "attributes": {"Price Range": 4}, "type": "business"}
{"business_id": "JKPfm4KBvDoAKJwWiMz3Lg", "full_address": "Gerwigstr. 69\n76131 Karlsruhe", "hours": {}, "open": true, "categories": ["Shopping", "Fashion", "Maternity Wear", "Baby Gear & Furniture"], "city": "Karlsruhe", "review_count": 3, "name": "Baby-Center", "neighborhoods": [], "longitude": 8.43805, "state": "BW", "stars": 1.5, "latitude": 49.007, "attributes": {"Parking": {"garage": false, "validated": false, "street": false, "lot": false, "valet": false}, "Wheelchair Accessible": false, "Price Range": 3}, "type": "business"}
{"business_id": "FgXSF5rB-sXvqeheZPFwZw", "full_address": "Karlstr. 56\n76133 Karlsruhe", "hours": {}, "open": true, "categories": ["Maternity Wear", "Fashion", "Shopping", "Baby Gear & Furniture"], "city": "Karlsruhe", "review_count": 3, "name": "baby-walz", "neighborhoods": [], "longitude": 8.39429, "state": "BW", "stars": 1.5, "latitude": 49.0035, "attributes": {"Price Range": 4}, "type": "business"}
{"business_id": "JKPfm4KBvDoAKJwWiMz3Lg", "full_address": "Gerwigstr. 69\n76131 Karlsruhe", "hours": {}, "open": true, "categories": ["Shopping", "Fashion", "Maternity Wear", "Baby Gear & Furniture"], "city": "Karlsruhe", "review_count": 3, "name": "Baby-Center", "neighborhoods": [], "longitude": 8.43805, "state": "BW", "stars": 1.5, "latitude": 49.007, "attributes": {"Parking": {"garage": false, "validated": false, "street": false, "lot": false, "valet": false}, "Wheelchair Accessible": false, "Price Range": 3}, "type": "business"}
{"business_id": "FgXSF5rB-sXvqeheZPFwZw", "full_address": "Karlstr. 56\n76133 Karlsruhe", "hours": {}, "open": true, "categories": ["Maternity Wear", "Fashion", "Shopping", "Baby Gear & Furniture"], "city": "Karlsruhe", "review_count": 3, "name": "baby-walz", "neighborhoods": [], "longitude": 8.39429, "state": "BW", "stars": 1.5, "latitude": 49.0035, "attributes": {"Price Range": 4}, "type": "business"}
{"business_id": "JKPfm4KBvDoAKJwWiMz3Lg", "full_address": "Gerwigstr. 69\n76131 Karlsruhe", "hours": {}, "open": true, "categories": ["Shopping", "Fashion", "Maternity Wear", "Baby Gear & Furniture"], "city": "Karlsruhe", "review_count": 3, "name": "Baby-Center", "neighborhoods": [], "longitude": 8.43805, "state": "BW", "stars": 1.5, "latitude": 49.007, "attributes": {"Parking": {"garage": false, "validated": false, "street": false, "lot": false, "valet": false}, "Wheelchair Accessible": false, "Price Range": 3}, "type": "business"}
{"business_id": "FgXSF5rB-sXvqeheZPFwZw", "full_address": "Karlstr. 56\n76133 Karlsruhe", "hours": {}, "open": true, "categories": ["Maternity Wear", "Fashion", "Shopping", "Baby Gear & Furniture"], "city": "Karlsruhe", "review_count": 3, "name": "baby-walz", "neighborhoods": [], "longitude": 8.39429, "state": "BW", "stars": 1.5, "latitude": 49.0035, "attributes": {"Price Range": 4}, "type": "business"}
{"business_id": "JKPfm4KBvDoAKJwWiMz3Lg", "full_address": "Gerwigstr. 69\n76131 Karlsruhe", "hours": {}, "open": true, "categories": ["Shopping", "Fashion", "Maternity Wear", "Baby Gear & Furniture"], "city": "Karlsruhe", "review_count": 3, "name": "Baby-Center", "neighborhoods": [], "longitude": 8.43805, "state": "BW", "stars": 1.5, "latitude": 49.007, "attributes": {"Parking": {"garage": false, "validated": false, "street": false, "lot": false, "valet": false}, "Wheelchair Accessible": false, "Price Range": 3}, "type": "business"}
{"business_id": "FgXSF5rB-sXvqeheZPFwZw", "full_address": "Karlstr. 56\n76133 Karlsruhe", "hours": {}, "open": true, "categories": ["Maternity Wear", "Fashion", "Shopping", "Baby Gear & Furniture"], "city": "Karlsruhe", "review_count": 3, "name": "baby-walz", "neighborhoods": [], "longitude": 8.39429, "state": "BW", "stars": 1.5, "latitude": 49.0035, "attributes": {"Price Range": 4}, "type": "business"}
