{"business_id": "3NLqLGa6Yb1P25sSBnl4Zg", "full_address": "Kaiserstr. 16\n76131 Karlsruhe", "hours": {}, "open": true, "categories": ["Barbeque", "Restaurants"], "city": "Karlsruhe", "review_count": 3, "name": "Restaurant & Grillhaus Kani", "neighborhoods": [], "longitude": 8.41080363986595, "state": "BW", "stars": 2.5, "latitude": 49.0095050222854, "attributes": {"Take-out": true, "Good For": {"dessert": false, "latenight": false, "lunch": false, "dinner": false, "breakfast": false, "brunch": false}, "Has TV": true, "Outdoor Seating": false, "Attire": "casual", "Wi-Fi": "no", "Good for Kids": true, "Good For Groups": true, "Price Range": 1}, "type": "business"}
{"business_id": "3NLqLGa6Yb1P25sSBnl4Zg", "full_address": "Kaiserstr. 16\n76131 Karlsruhe", "hours": {}, "open": true, "categories": ["Barbeque", "Restaurants"], "city": "Karlsruhe", "review_count": 3, "name": "Restaurant & Grillhaus Kani", "neighborhoods": [], "longitude": 8.41080363986595, "state": "BW", "stars": 2.5, "latitude": 49.0095050222854, "attributes": {"Take-out": true, "Good For": {"dessert": false, "latenight": false, "lunch": false, "dinner": false, "breakfast": false, "brunch": false}, "Has TV": true, "Outdoor Seating": false, "Attire": "casual", "Wi-Fi": "no", "Good for Kids": true, "Good For Groups": true, "Price Range": 1}, "type": "business"}
{"business_id": "3NLqLGa6Yb1P25sSBnl4Zg", "full_address": "Kaiserstr. 16\n76131 Karlsruhe", "hours": {}, "open": true, "categories": ["Barbeque", "Restaurants"], "city": "Karlsruhe", "review_count": 3, "name": "Restaurant & Grillhaus Kani", "neighborhoods": [], "longitude": 8.41080363986595, "state": "BW", "stars": 2.5, "latitude": 49.0095050222854, "attributes": {"Take-out": true, "Good For": {"dessert": false, "latenight": false, "lunch": false, "dinner": false, "breakfast": false, "brunch": false}, "Has TV": true, "Outdoor Seating": false, "Attire": "casual", "Wi-Fi": "no", "Good for Kids": true, "Good For Groups": true, "Price Range": 1}, "type": "business"}
{"business_id": "3NLqLGa6Yb1P25sSBnl4Zg", "full_address": "Kaiserstr. 16\n76131 Karlsruhe", "hours": {}, "open": true, "categories": ["Barbeque", "Restaurants"], "city": "Karlsruhe", "review_count": 3, "name": "Restaurant & Grillhaus Kani", "neighborhoods": [], "longitude": 8.41080363986595, "state": "BW", "stars": 2.5, "latitude": 49.0095050222854, "attributes": {"Take-out": true, "Good For": {"dessert": false, "latenight": false, "lunch": false, "dinner": false, "breakfast": false, "brunch": false}, "Has TV": true, "Outdoor Seating": false, "Attire": "casual", "Wi-Fi": "no", "Good for Kids": true, "Good For Groups": true, "Price Range": 1}, "type": "business"}
{"business_id": "3NLqLGa6Yb1P25sSBnl4Zg", "full_address": "Kaiserstr. 16\n76131 Karlsruhe", "hours": {}, "open": true, "categories": ["Barbeque", "Restaurants"], "city": "Karlsruhe", "review_count": 3, "name": "Restaurant & Grillhaus Kani", "neighborhoods": [], "longitude": 8.41080363986595, "state": "BW", "stars": 2.5, "latitude": 49.0095050222854, "attributes": {"Take-out": true, "Good For": {"dessert": false, "latenight": false, "lunch": false, "dinner": false, "breakfast": false, "brunch": false}, "Has TV": true, "Outdoor Seating": false, "Attire": "casual", "Wi-Fi": "no", "Good for Kids": true, "Good For Groups": true, "Price Range": 1}, "type": "business"}
{"business_id": "3NLqLGa6Yb1P25sSBnl4Zg", "full_address": "Kaiserstr. 16\n76131 Karlsruhe", "hours": {}, "open": true, "categories": ["Barbeque", "Restaurants"], "city": "Karlsruhe", "review_count": 3, "name": "Restaurant & Grillhaus Kani", "neighborhoods": [], "longitude": 8.41080363986595, "state": "BW", "stars": 2.5, "latitude": 49.0095050222854, "attributes": {"Take-out": true, "Good For": {"dessert": false, "latenight": false, "lunch": false, "dinner": false, "breakfast": false, "brunch": false}, "Has TV": true, "Outdoor Seating": false, "Attire": "casual", "Wi-Fi": "no", "Good for Kids": true, "Good For Groups": true, "Price Range": 1}, "type": "business"}
