{"business_id": "BSi3InD9nxAfeKRlxwK7pQ", "full_address": "Schlachthausstr. 1\n76131 Karlsruhe", "hours": {}, "open": true, "categories": ["Arts & Entertainment", "Performing Arts", "Cultural Center"], "city": "Karlsruhe", "review_count": 6, "name": "Tollhaus", "neighborhoods": [], "longitude": 8.42482, "state": "BW", "stars": 4.5, "latitude": 49.0038, "attributes": {"Good for Kids": true, "Parking": {"garage": false, "validated": false, "street": false, "lot": false, "valet": false}, "Wheelchair Accessible": true, "Price Range": 2}, "type": "business"}
{"business_id": "qrGmLp2qyvlVYLuGzn0W7Q", "full_address": "Kaiserallee 11\n76133 Karlsruhe", "hours": {}, "open": true, "categories": ["Arts & Entertainment", "Performing Arts", "Nightlife", "Active Life", "Kids Activities", "Comedy Clubs"], "city": "Karlsruhe", "review_count": 9, "name": "marotte Figurentheater", "neighborhoods": [], "longitude": 8.3847, "state": "BW", "stars": 5.0, "latitude": 49.0091, "attributes": {"Price Range": 2, "Alcohol": "beer_and_wine", "Coat Check": true, "Happy Hour": false, "Outdoor Seating": false, "Parking": {"garage": false, "validated": false, "street": false, "lot": false, "valet": false}, "Smoking": "outdoor", "Accepts Credit Cards": false, "Wheelchair Accessible": false}, "type": "business"}
{"business_id": "dbXe_WkVbbTuAbbz3G8Vtw", "full_address": "Baumeisterstr. 11\n76137 Karlsruhe", "hours": {}, "open": true, "categories": ["Arts & Entertainment", "Performing Arts"], "city": "Karlsruhe", "review_count": 11, "name": "Badisches Staatstheater", "neighborhoods": [], "longitude": 8.40699, "state": "BW", "stars": 3.5, "latitude": 49.0041, "attributes": {"Good for Kids": true, "Parking": {"garage": false, "validated": false, "street": false, "lot": false, "valet": false}, "Wheelchair Accessible": true, "Good For Groups": true, "Price Range": 3}, "type": "business"}
{"business_id": "vgAl99QbSRg48FFBRk1gKg", "full_address": "Herrenstr. 30/32\n76133 Karlsruhe", "hours": {}, "open": true, "categories": ["Arts & Entertainment", "Performing Arts"], "city": "Karlsruhe", "review_count": 7, "name": "Kammertheater", "neighborhoods": [], "longitude": 8.393843, "state": "BW", "stars": 4.5, "latitude": 49.0067498, "attributes": {"Wheelchair Accessible": false, "Price Range": 2}, "type": "business"}
{"business_id": "mDGpCtjxl79YtwtyFEO5fg", "full_address": "Amthausstra\u00dfe  17-19\n76227 Karlsruhe", "hours": {}, "open": true, "categories": ["Arts & Entertainment", "Performing Arts"], "city": "Karlsruhe", "review_count": 6, "name": "Kabarett in der Orgelfabrik, die Spiegelfechter e.V.", "neighborhoods": [], "longitude": 8.4713051, "state": "BW", "stars": 4.5, "latitude": 48.9979356, "attributes": {"Good for Kids": false, "Price Range": 1}, "type": "business"}
{"business_id": "BSi3InD9nxAfeKRlxwK7pQ", "full_address": "Schlachthausstr. 1\n76131 Karlsruhe", "hours": {}, "open": true, "categories": ["Arts & Entertainment", "Performing Arts", "Cultural Center"], "city": "Karlsruhe", "review_count": 6, "name": "Tollhaus", "neighborhoods": [], "longitude": 8.42482, "state": "BW", "stars": 4.5, "latitude": 49.0038, "attributes": {"Good for Kids": true, "Parking": {"garage": false, "validated": false, "street": false, "lot": false, "valet": false}, "Wheelchair Accessible": true, "Price Range": 2}, "type": "business"}
{"business_id": "qrGmLp2qyvlVYLuGzn0W7Q", "full_address": "Kaiserallee 11\n76133 Karlsruhe", "hours": {}, "open": true, "categories": ["Arts & Entertainment", "Performing Arts", "Nightlife", "Active Life", "Kids Activities", "Comedy Clubs"], "city": "Karlsruhe", "review_count": 9, "name": "marotte Figurentheater", "neighborhoods": [], "longitude": 8.3847, "state": "BW", "stars": 5.0, "latitude": 49.0091, "attributes": {"Price Range": 2, "Alcohol": "beer_and_wine", "Coat Check": true, "Happy Hour": false, "Outdoor Seating": false, "Parking": {"garage": false, "validated": false, "street": false, "lot": false, "valet": false}, "Smoking": "outdoor", "Accepts Credit Cards": false, "Wheelchair Accessible": false}, "type": "business"}
{"business_id": "dbXe_WkVbbTuAbbz3G8Vtw", "full_address": "Baumeisterstr. 11\n76137 Karlsruhe", "hours": {}, "open": true, "categories": ["Arts & Entertainment", "Performing Arts"], "city": "Karlsruhe", "review_count": 11, "name": "Badisches Staatstheater", "neighborhoods": [], "longitude": 8.40699, "state": "BW", "stars": 3.5, "latitude": 49.0041, "attributes": {"Good for Kids": true, "Parking": {"garage": false, "validated": false, "street": false, "lot": false, "valet": false}, "Wheelchair Accessible": true, "Good For Groups": true, "Price Range": 3}, "type": "business"}
{"business_id": "vgAl99QbSRg48FFBRk1gKg", "full_address": "Herrenstr. 30/32\n76133 Karlsruhe", "hours": {}, "open": true, "categories": ["Arts & Entertainment", "Performing Arts"], "city": "Karlsruhe", "review_count": 7, "name": "Kammertheater", "neighborhoods": [], "longitude": 8.393843, "state": "BW", "stars": 4.5, "latitude": 49.0067498, "attributes": {"Wheelchair Accessible": false, "Price Range": 2}, "type": "business"}
{"business_id": "mDGpCtjxl79YtwtyFEO5fg", "full_address": "Amthausstra\u00dfe  17-19\n76227 Karlsruhe", "hours": {}, "open": true, "categories": ["Arts & Entertainment", "Performing Arts"], "city": "Karlsruhe", "review_count": 6, "name": "Kabarett in der Orgelfabrik, die Spiegelfechter e.V.", "neighborhoods": [], "longitude": 8.4713051, "state": "BW", "stars": 4.5, "latitude": 48.9979356, "attributes": {"Good for Kids": false, "Price Range": 1}, "type": "business"}
{"business_id": "BSi3InD9nxAfeKRlxwK7pQ", "full_address": "Schlachthausstr. 1\n76131 Karlsruhe", "hours": {}, "open": true, "categories": ["Arts & Entertainment", "Performing Arts", "Cultural Center"], "city": "Karlsruhe", "review_count": 6, "name": "Tollhaus", "neighborhoods": [], "longitude": 8.42482, "state": "BW", "stars": 4.5, "latitude": 49.0038, "attributes": {"Good for Kids": true, "Parking": {"garage": false, "validated": false, "street": false, "lot": false, "valet": false}, "Wheelchair Accessible": true, "Price Range": 2}, "type": "business"}
{"business_id": "qrGmLp2qyvlVYLuGzn0W7Q", "full_address": "Kaiserallee 11\n76133 Karlsruhe", "hours": {}, "open": true, "categories": ["Arts & Entertainment", "Performing Arts", "Nightlife", "Active Life", "Kids Activities", "Comedy Clubs"], "city": "Karlsruhe", "review_count": 9, "name": "marotte Figurentheater", "neighborhoods": [], "longitude": 8.3847, "state": "BW", "stars": 5.0, "latitude": 49.0091, "attributes": {"Price Range": 2, "Alcohol": "beer_and_wine", "Coat Check": true, "Happy Hour": false, "Outdoor Seating": false, "Parking": {"garage": false, "validated": false, "street": false, "lot": false, "valet": false}, "Smoking": "outdoor", "Accepts Credit Cards": false, "Wheelchair Accessible": false}, "type": "business"}
{"business_id": "dbXe_WkVbbTuAbbz3G8Vtw", "full_address": "Baumeisterstr. 11\n76137 Karlsruhe", "hours": {}, "open": true, "categories": ["Arts & Entertainment", "Performing Arts"], "city": "Karlsruhe", "review_count": 11, "name": "Badisches Staatstheater", "neighborhoods": [], "longitude": 8.40699, "state": "BW", "stars": 3.5, "latitude": 49.0041, "attributes": {"Good for Kids": true, "Parking": {"garage": false, "validated": false, "street": false, "lot": false, "valet": false}, "Wheelchair Accessible": true, "Good For Groups": true, "Price Range": 3}, "type": "business"}
{"business_id": "vgAl99QbSRg48FFBRk1gKg", "full_address": "Herrenstr. 30/32\n76133 Karlsruhe", "hours": {}, "open": true, "categories": ["Arts & Entertainment", "Performing Arts"], "city": "Karlsruhe", "review_count": 7, "name": "Kammertheater", "neighborhoods": [], "longitude": 8.393843, "state": "BW", "stars": 4.5, "latitude": 49.0067498, "attributes": {"Wheelchair Accessible": false, "Price Range": 2}, "type": "business"}
{"business_id": "mDGpCtjxl79YtwtyFEO5fg", "full_address": "Amthausstra\u00dfe  17-19\n76227 Karlsruhe", "hours": {}, "open": true, "categories": ["Arts & Entertainment", "Performing Arts"], "city": "Karlsruhe", "review_count": 6, "name": "Kabarett in der Orgelfabrik, die Spiegelfechter e.V.", "neighborhoods": [], "longitude": 8.4713051, "state": "BW", "stars": 4.5, "latitude": 48.9979356, "attributes": {"Good for Kids": false, "Price Range": 1}, "type": "business"}
{"business_id": "BSi3InD9nxAfeKRlxwK7pQ", "full_address": "Schlachthausstr. 1\n76131 Karlsruhe", "hours": {}, "open": true, "categories": ["Arts & Entertainment", "Performing Arts", "Cultural Center"], "city": "Karlsruhe", "review_count": 6, "name": "Tollhaus", "neighborhoods": [], "longitude": 8.42482, "state": "BW", "stars": 4.5, "latitude": 49.0038, "attributes": {"Good for Kids": true, "Parking": {"garage": false, "validated": false, "street": false, "lot": false, "valet": false}, "Wheelchair Accessible": true, "Price Range": 2}, "type": "business"}
{"business_id": "qrGmLp2qyvlVYLuGzn0W7Q", "full_address": "Kaiserallee 11\n76133 Karlsruhe", "hours": {}, "open": true, "categories": ["Arts & Entertainment", "Performing Arts", "Nightlife", "Active Life", "Kids Activities", "Comedy Clubs"], "city": "Karlsruhe", "review_count": 9, "name": "marotte Figurentheater", "neighborhoods": [], "longitude": 8.3847, "state": "BW", "stars": 5.0, "latitude": 49.0091, "attributes": {"Price Range": 2, "Alcohol": "beer_and_wine", "Coat Check": true, "Happy Hour": false, "Outdoor Seating": false, "Parking": {"garage": false, "validated": false, "street": false, "lot": false, "valet": false}, "Smoking": "outdoor", "Accepts Credit Cards": false, "Wheelchair Accessible": false}, "type": "business"}
{"business_id": "dbXe_WkVbbTuAbbz3G8Vtw", "full_address": "Baumeisterstr. 11\n76137 Karlsruhe", "hours": {}, "open": true, "categories": ["Arts & Entertainment", "Performing Arts"], "city": "Karlsruhe", "review_count": 11, "name": "Badisches Staatstheater", "neighborhoods": [], "longitude": 8.40699, "state": "BW", "stars": 3.5, "latitude": 49.0041, "attributes": {"Good for Kids": true, "Parking": {"garage": false, "validated": false, "street": false, "lot": false, "valet": false}, "Wheelchair Accessible": true, "Good For Groups": true, "Price Range": 3}, "type": "business"}
{"business_id": "vgAl99QbSRg48FFBRk1gKg", "full_address": "Herrenstr. 30/32\n76133 Karlsruhe", "hours": {}, "open": true, "categories": ["Arts & Entertainment", "Performing Arts"], "city": "Karlsruhe", "review_count": 7, "name": "Kammertheater", "neighborhoods": [], "longitude": 8.393843, "state": "BW", "stars": 4.5, "latitude": 49.0067498, "attributes": {"Wheelchair Accessible": false, "Price Range": 2}, "type": "business"}
{"business_id": "mDGpCtjxl79YtwtyFEO5fg", "full_address": "Amthausstra\u00dfe  17-19\n76227 Karlsruhe", "hours": {}, "open": true, "categories": ["Arts & Entertainment", "Performing Arts"], "city": "Karlsruhe", "review_count": 6, "name": "Kabarett in der Orgelfabrik, die Spiegelfechter e.V.", "neighborhoods": [], "longitude": 8.4713051, "state": "BW", "stars": 4.5, "latitude": 48.9979356, "attributes": {"Good for Kids": false, "Price Range": 1}, "type": "business"}
{"business_id": "BSi3InD9nxAfeKRlxwK7pQ", "full_address": "Schlachthausstr. 1\n76131 Karlsruhe", "hours": {}, "open": true, "categories": ["Arts & Entertainment", "Performing Arts", "Cultural Center"], "city": "Karlsruhe", "review_count": 6, "name": "Tollhaus", "neighborhoods": [], "longitude": 8.42482, "state": "BW", "stars": 4.5, "latitude": 49.0038, "attributes": {"Good for Kids": true, "Parking": {"garage": false, "validated": false, "street": false, "lot": false, "valet": false}, "Wheelchair Accessible": true, "Price Range": 2}, "type": "business"}
{"business_id": "qrGmLp2qyvlVYLuGzn0W7Q", "full_address": "Kaiserallee 11\n76133 Karlsruhe", "hours": {}, "open": true, "categories": ["Arts & Entertainment", "Performing Arts", "Nightlife", "Active Life", "Kids Activities", "Comedy Clubs"], "city": "Karlsruhe", "review_count": 9, "name": "marotte Figurentheater", "neighborhoods": [], "longitude": 8.3847, "state": "BW", "stars": 5.0, "latitude": 49.0091, "attributes": {"Price Range": 2, "Alcohol": "beer_and_wine", "Coat Check": true, "Happy Hour": false, "Outdoor Seating": false, "Parking": {"garage": false, "validated": false, "street": false, "lot": false, "valet": false}, "Smoking": "outdoor", "Accepts Credit Cards": false, "Wheelchair Accessible": false}, "type": "business"}
{"business_id": "dbXe_WkVbbTuAbbz3G8Vtw", "full_address": "Baumeisterstr. 11\n76137 Karlsruhe", "hours": {}, "open": true, "categories": ["Arts & Entertainment", "Performing Arts"], "city": "Karlsruhe", "review_count": 11, "name": "Badisches Staatstheater", "neighborhoods": [], "longitude": 8.40699, "state": "BW", "stars": 3.5, "latitude": 49.0041, "attributes": {"Good for Kids": true, "Parking": {"garage": false, "validated": false, "street": false, "lot": false, "valet": false}, "Wheelchair Accessible": true, "Good For Groups": true, "Price Range": 3}, "type": "business"}
{"business_id": "vgAl99QbSRg48FFBRk1gKg", "full_address": "Herrenstr. 30/32\n76133 Karlsruhe", "hours": {}, "open": true, "categories": ["Arts & Entertainment", "Performing Arts"], "city": "Karlsruhe", "review_count": 7, "name": "Kammertheater", "neighborhoods": [], "longitude": 8.393843, "state": "BW", "stars": 4.5, "latitude": 49.0067498, "attributes": {"Wheelchair Accessible": false, "Price Range": 2}, "type": "business"}
{"business_id": "mDGpCtjxl79YtwtyFEO5fg", "full_address": "Amthausstra\u00dfe  17-19\n76227 Karlsruhe", "hours": {}, "open": true, "categories": ["Arts & Entertainment", "Performing Arts"], "city": "Karlsruhe", "review_count": 6, "name": "Kabarett in der Orgelfabrik, die Spiegelfechter e.V.", "neighborhoods": [], "longitude": 8.4713051, "state": "BW", "stars": 4.5, "latitude": 48.9979356, "attributes": {"Good for Kids": false, "Price Range": 1}, "type": "business"}
{"business_id": "BSi3InD9nxAfeKRlxwK7pQ", "full_address": "Schlachthausstr. 1\n76131 Karlsruhe", "hours": {}, "open": true, "categories": ["Arts & Entertainment", "Performing Arts", "Cultural Center"], "city": "Karlsruhe", "review_count": 6, "name": "Tollhaus", "neighborhoods": [], "longitude": 8.42482, "state": "BW", "stars": 4.5, "latitude": 49.0038, "attributes": {"Good for Kids": true, "Parking": {"garage": false, "validated": false, "street": false, "lot": false, "valet": false}, "Wheelchair Accessible": true, "Price Range": 2}, "type": "business"}
{"business_id": "qrGmLp2qyvlVYLuGzn0W7Q", "full_address": "Kaiserallee 11\n76133 Karlsruhe", "hours": {}, "open": true, "categories": ["Arts & Entertainment", "Performing Arts", "Nightlife", "Active Life", "Kids Activities", "Comedy Clubs"], "city": "Karlsruhe", "review_count": 9, "name": "marotte Figurentheater", "neighborhoods": [], "longitude": 8.3847, "state": "BW", "stars": 5.0, "latitude": 49.0091, "attributes": {"Price Range": 2, "Alcohol": "beer_and_wine", "Coat Check": true, "Happy Hour": false, "Outdoor Seating": false, "Parking": {"garage": false, "validated": false, "street": false, "lot": false, "valet": false}, "Smoking": "outdoor", "Accepts Credit Cards": false, "Wheelchair Accessible": false}, "type": "business"}
{"business_id": "dbXe_WkVbbTuAbbz3G8Vtw", "full_address": "Baumeisterstr. 11\n76137 Karlsruhe", "hours": {}, "open": true, "categories": ["Arts & Entertainment", "Performing Arts"], "city": "Karlsruhe", "review_count": 11, "name": "Badisches Staatstheater", "neighborhoods": [], "longitude": 8.40699, "state": "BW", "stars": 3.5, "latitude": 49.0041, "attributes": {"Good for Kids": true, "Parking": {"garage": false, "validated": false, "street": false, "lot": false, "valet": false}, "Wheelchair Accessible": true, "Good For Groups": true, "Price Range": 3}, "type": "business"}
{"business_id": "vgAl99QbSRg48FFBRk1gKg", "full_address": "Herrenstr. 30/32\n76133 Karlsruhe", "hours": {}, "open": true, "categories": ["Arts & Entertainment", "Performing Arts"], "city": "Karlsruhe", "review_count": 7, "name": "Kammertheater", "neighborhoods": [], "longitude": 8.393843, "state": "BW", "stars": 4.5, "latitude": 49.0067498, "attributes": {"Wheelchair Accessible": false, "Price Range": 2}, "type": "business"}
{"business_id": "mDGpCtjxl79YtwtyFEO5fg", "full_address": "Amthausstra\u00dfe  17-19\n76227 Karlsruhe", "hours": {}, "open": true, "categories": ["Arts & Entertainment", "Performing Arts"], "city": "Karlsruhe", "review_count": 6, "name": "Kabarett in der Orgelfabrik, die Spiegelfechter e.V.", "neighborhoods": [], "longitude": 8.4713051, "state": "BW", "stars": 4.5, "latitude": 48.9979356, "attributes": {"Good for Kids": false, "Price Range": 1}, "type": "business"}
