{"business_id": "y270_EUXpJKxlDE5LFr-CA", "full_address": "Pfarrstr. 31\n76189 Karlsruhe", "hours": {}, "open": true, "categories": ["Local Services", "Funeral Services & Cemeteries"], "city": "Karlsruhe", "review_count": 3, "name": "Beerdigungsinstitut Gonther", "neighborhoods": [], "longitude": 8.32782, "state": "BW", "stars": 5.0, "latitude": 49.0061, "attributes": {"Parking": {"garage": false, "validated": false, "street": false, "lot": false, "valet": false}}, "type": "business"}
{"business_id": "y270_EUXpJKxlDE5LFr-CA", "full_address": "Pfarrstr. 31\n76189 Karlsruhe", "hours": {}, "open": true, "categories": ["Local Services", "Funeral Services & Cemeteries"], "city": "Karlsruhe", "review_count": 3, "name": "Beerdigungsinstitut Gonther", "neighborhoods": [], "longitude": 8.32782, "state": "BW", "stars": 5.0, "latitude": 49.0061, "attributes": {"Parking": {"garage": false, "validated": false, "street": false, "lot": false, "valet": false}}, "type": "business"}
{"business_id": "y270_EUXpJKxlDE5LFr-CA", "full_address": "Pfarrstr. 31\n76189 Karlsruhe", "hours": {}, "open": true, "categories": ["Local Services", "Funeral Services & Cemeteries"], "city": "Karlsruhe", "review_count": 3, "name": "Beerdigungsinstitut Gonther", "neighborhoods": [], "longitude": 8.32782, "state": "BW", "stars": 5.0, "latitude": 49.0061, "attributes": {"Parking": {"garage": false, "validated": false, "street": false, "lot": false, "valet": false}}, "type": "business"}
{"business_id": "y270_EUXpJKxlDE5LFr-CA", "full_address": "Pfarrstr. 31\n76189 Karlsruhe", "hours": {}, "open": true, "categories": ["Local Services", "Funeral Services & Cemeteries"], "city": "Karlsruhe", "review_count": 3, "name": "Beerdigungsinstitut Gonther", "neighborhoods": [], "longitude": 8.32782, "state": "BW", "stars": 5.0, "latitude": 49.0061, "attributes": {"Parking": {"garage": false, "validated": false, "street": false, "lot": false, "valet": false}}, "type": "business"}
{"business_id": "y270_EUXpJKxlDE5LFr-CA", "full_address": "Pfarrstr. 31\n76189 Karlsruhe", "hours": {}, "open": true, "categories": ["Local Services", "Funeral Services & Cemeteries"], "city": "Karlsruhe", "review_count": 3, "name": "Beerdigungsinstitut Gonther", "neighborhoods": [], "longitude": 8.32782, "state": "BW", "stars": 5.0, "latitude": 49.0061, "attributes": {"Parking": {"garage": false, "validated": false, "street": false, "lot": false, "valet": false}}, "type": "business"}
{"business_id": "y270_EUXpJKxlDE5LFr-CA", "full_address": "Pfarrstr. 31\n76189 Karlsruhe", "hours": {}, "open": true, "categories": ["Local Services", "Funeral Services & Cemeteries"], "city": "Karlsruhe", "review_count": 3, "name": "Beerdigungsinstitut Gonther", "neighborhoods": [], "longitude": 8.32782, "state": "BW", "stars": 5.0, "latitude": 49.0061, "attributes": {"Parking": {"garage": false, "validated": false, "street": false, "lot": false, "valet": false}}, "type": "business"}
