{"business_id": "PfjEZGICY_QNZAQolVDncw", "full_address": "Orthop\u00e4dische Gemeinschaft am Ludwigsplatz\nWaldstr. 67\n76133 Karlsruhe", "hours": {}, "open": true, "categories": ["Doctors", "Orthopedists", "Health & Medical", "Chiropractors"], "city": "Karlsruhe", "review_count": 5, "name": "Dr. med. Oliver Frerking", "neighborhoods": [], "longitude": 8.39616, "state": "BW", "stars": 3.0, "latitude": 49.0092, "attributes": {"By Appointment Only": false}, "type": "business"}
{"business_id": "PfjEZGICY_QNZAQolVDncw", "full_address": "Orthop\u00e4dische Gemeinschaft am Ludwigsplatz\nWaldstr. 67\n76133 Karlsruhe", "hours": {}, "open": true, "categories": ["Doctors", "Orthopedists", "Health & Medical", "Chiropractors"], "city": "Karlsruhe", "review_count": 5, "name": "Dr. med. Oliver Frerking", "neighborhoods": [], "longitude": 8.39616, "state": "BW", "stars": 3.0, "latitude": 49.0092, "attributes": {"By Appointment Only": false}, "type": "business"}
{"business_id": "PfjEZGICY_QNZAQolVDncw", "full_address": "Orthop\u00e4dische Gemeinschaft am Ludwigsplatz\nWaldstr. 67\n76133 Karlsruhe", "hours": {}, "open": true, "categories": ["Doctors", "Orthopedists", "Health & Medical", "Chiropractors"], "city": "Karlsruhe", "review_count": 5, "name": "Dr. med. Oliver Frerking", "neighborhoods": [], "longitude": 8.39616, "state": "BW", "stars": 3.0, "latitude": 49.0092, "attributes": {"By Appointment Only": false}, "type": "business"}
{"business_id": "PfjEZGICY_QNZAQolVDncw", "full_address": "Orthop\u00e4dische Gemeinschaft am Ludwigsplatz\nWaldstr. 67\n76133 Karlsruhe", "hours": {}, "open": true, "categories": ["Doctors", "Orthopedists", "Health & Medical", "Chiropractors"], "city": "Karlsruhe", "review_count": 5, "name": "Dr. med. Oliver Frerking", "neighborhoods": [], "longitude": 8.39616, "state": "BW", "stars": 3.0, "latitude": 49.0092, "attributes": {"By Appointment Only": false}, "type": "business"}
{"business_id": "PfjEZGICY_QNZAQolVDncw", "full_address": "Orthop\u00e4dische Gemeinschaft am Ludwigsplatz\nWaldstr. 67\n76133 Karlsruhe", "hours": {}, "open": true, "categories": ["Doctors", "Orthopedists", "Health & Medical", "Chiropractors"], "city": "Karlsruhe", "review_count": 5, "name": "Dr. med. Oliver Frerking", "neighborhoods": [], "longitude": 8.39616, "state": "BW", "stars": 3.0, "latitude": 49.0092, "attributes": {"By Appointment Only": false}, "type": "business"}
{"business_id": "PfjEZGICY_QNZAQolVDncw", "full_address": "Orthop\u00e4dische Gemeinschaft am Ludwigsplatz\nWaldstr. 67\n76133 Karlsruhe", "hours": {}, "open": true, "categories": ["Doctors", "Orthopedists", "Health & Medical", "Chiropractors"], "city": "Karlsruhe", "review_count": 5, "name": "Dr. med. Oliver Frerking", "neighborhoods": [], "longitude": 8.39616, "state": "BW", "stars": 3.0, "latitude": 49.0092, "attributes": {"By Appointment Only": false}, "type": "business"}
