{"business_id": "beCsTM1YSCFHoGqzjjQewQ", "full_address": "Kronenstra\u00dfe  24\n76133 Karlsruhe", "hours": {}, "open": true, "categories": ["Food", "Street Vendors"], "city": "Karlsruhe", "review_count": 4, "name": "zicaffe Point", "neighborhoods": [], "longitude": 8.4084149, "state": "BW", "stars": 3.0, "latitude": 49.0092773, "attributes": {"Has TV": true, "Outdoor Seating": true}, "type": "business"}
{"business_id": "beCsTM1YSCFHoGqzjjQewQ", "full_address": "Kronenstra\u00dfe  24\n76133 Karlsruhe", "hours": {}, "open": true, "categories": ["Food", "Street Vendors"], "city": "Karlsruhe", "review_count": 4, "name": "zicaffe Point", "neighborhoods": [], "longitude": 8.4084149, "state": "BW", "stars": 3.0, "latitude": 49.0092773, "attributes": {"Has TV": true, "Outdoor Seating": true}, "type": "business"}
{"business_id": "beCsTM1YSCFHoGqzjjQewQ", "full_address": "Kronenstra\u00dfe  24\n76133 Karlsruhe", "hours": {}, "open": true, "categories": ["Food", "Street Vendors"], "city": "Karlsruhe", "review_count": 4, "name": "zicaffe Point", "neighborhoods": [], "longitude": 8.4084149, "state": "BW", "stars": 3.0, "latitude": 49.0092773, "attributes": {"Has TV": true, "Outdoor Seating": true}, "type": "business"}
{"business_id": "beCsTM1YSCFHoGqzjjQewQ", "full_address": "Kronenstra\u00dfe  24\n76133 Karlsruhe", "hours": {}, "open": true, "categories": ["Food", "Street Vendors"], "city": "Karlsruhe", "review_count": 4, "name": "zicaffe Point", "neighborhoods": [], "longitude": 8.4084149, "state": "BW", "stars": 3.0, "latitude": 49.0092773, "attributes": {"Has TV": true, "Outdoor Seating": true}, "type": "business"}
{"business_id": "beCsTM1YSCFHoGqzjjQewQ", "full_address": "Kronenstra\u00dfe  24\n76133 Karlsruhe", "hours": {}, "open": true, "categories": ["Food", "Street Vendors"], "city": "Karlsruhe", "review_count": 4, "name": "zicaffe Point", "neighborhoods": [], "longitude": 8.4084149, "state": "BW", "stars": 3.0, "latitude": 49.0092773, "attributes": {"Has TV": true, "Outdoor Seating": true}, "type": "business"}
{"business_id": "beCsTM1YSCFHoGqzjjQewQ", "full_address": "Kronenstra\u00dfe  24\n76133 Karlsruhe", "hours": {}, "open": true, "categories": ["Food", "Street Vendors"], "city": "Karlsruhe", "review_count": 4, "name": "zicaffe Point", "neighborhoods": [], "longitude": 8.4084149, "state": "BW", "stars": 3.0, "latitude": 49.0092773, "attributes": {"Has TV": true, "Outdoor Seating": true}, "type": "business"}
