{"business_id": "nAMMS64Iriz9grhFzO6Evg", "full_address": "Bahnhofstr. 11\n76137 Karlsruhe", "hours": {}, "open": true, "categories": ["Local Services", "Dry Cleaning & Laundry"], "city": "Karlsruhe", "review_count": 6, "name": "Kurt Lausenhammer", "neighborhoods": [], "longitude": 8.39914, "state": "BW", "stars": 3.5, "latitude": 48.9944, "attributes": {"Price Range": 2}, "type": "business"}
{"business_id": "k7Y8zXSL2X3Gm_MxJj2Zsw", "full_address": "Geibelstr. 40\n76185 Karlsruhe", "hours": {}, "open": true, "categories": ["Local Services", "Dry Cleaning & Laundry"], "city": "Karlsruhe", "review_count": 6, "name": "Waschhaus Exclusiv Preiswert u. Sauber W\u00e4scherei", "neighborhoods": [], "longitude": 8.36142, "state": "BW", "stars": 3.0, "latitude": 49.012, "attributes": {}, "type": "business"}
{"business_id": "kpknqAb5inS0ic0-0UtUng", "full_address": "Scheffelstr. 21\n76135 Karlsruhe", "hours": {"Monday": {"close": "23:00", "open": "06:00"}, "Tuesday": {"close": "23:00", "open": "06:00"}, "Friday": {"close": "23:00", "open": "06:00"}, "Wednesday": {"close": "23:00", "open": "06:00"}, "Thursday": {"close": "23:00", "open": "06:00"}, "Saturday": {"close": "23:00", "open": "06:00"}}, "open": true, "categories": ["Local Services", "Dry Cleaning & Laundry"], "city": "Karlsruhe", "review_count": 4, "name": "Waschhaus", "neighborhoods": [], "longitude": 8.38159125106006, "state": "BW", "stars": 1.5, "latitude": 49.0079520267344, "attributes": {"Accepts Credit Cards": false, "Price Range": 1}, "type": "business"}
{"business_id": "nAMMS64Iriz9grhFzO6Evg", "full_address": "Bahnhofstr. 11\n76137 Karlsruhe", "hours": {}, "open": true, "categories": ["Local Services", "Dry Cleaning & Laundry"], "city": "Karlsruhe", "review_count": 6, "name": "Kurt Lausenhammer", "neighborhoods": [], "longitude": 8.39914, "state": "BW", "stars": 3.5, "latitude": 48.9944, "attributes": {"Price Range": 2}, "type": "business"}
{"business_id": "k7Y8zXSL2X3Gm_MxJj2Zsw", "full_address": "Geibelstr. 40\n76185 Karlsruhe", "hours": {}, "open": true, "categories": ["Local Services", "Dry Cleaning & Laundry"], "city": "Karlsruhe", "review_count": 6, "name": "Waschhaus Exclusiv Preiswert u. Sauber W\u00e4scherei", "neighborhoods": [], "longitude": 8.36142, "state": "BW", "stars": 3.0, "latitude": 49.012, "attributes": {}, "type": "business"}
{"business_id": "kpknqAb5inS0ic0-0UtUng", "full_address": "Scheffelstr. 21\n76135 Karlsruhe", "hours": {"Monday": {"close": "23:00", "open": "06:00"}, "Tuesday": {"close": "23:00", "open": "06:00"}, "Friday": {"close": "23:00", "open": "06:00"}, "Wednesday": {"close": "23:00", "open": "06:00"}, "Thursday": {"close": "23:00", "open": "06:00"}, "Saturday": {"close": "23:00", "open": "06:00"}}, "open": true, "categories": ["Local Services", "Dry Cleaning & Laundry"], "city": "Karlsruhe", "review_count": 4, "name": "Waschhaus", "neighborhoods": [], "longitude": 8.38159125106006, "state": "BW", "stars": 1.5, "latitude": 49.0079520267344, "attributes": {"Accepts Credit Cards": false, "Price Range": 1}, "type": "business"}
{"business_id": "nAMMS64Iriz9grhFzO6Evg", "full_address": "Bahnhofstr. 11\n76137 Karlsruhe", "hours": {}, "open": true, "categories": ["Local Services", "Dry Cleaning & Laundry"], "city": "Karlsruhe", "review_count": 6, "name": "Kurt Lausenhammer", "neighborhoods": [], "longitude": 8.39914, "state": "BW", "stars": 3.5, "latitude": 48.9944, "attributes": {"Price Range": 2}, "type": "business"}
{"business_id": "k7Y8zXSL2X3Gm_MxJj2Zsw", "full_address": "Geibelstr. 40\n76185 Karlsruhe", "hours": {}, "open": true, "categories": ["Local Services", "Dry Cleaning & Laundry"], "city": "Karlsruhe", "review_count": 6, "name": "Waschhaus Exclusiv Preiswert u. Sauber W\u00e4scherei", "neighborhoods": [], "longitude": 8.36142, "state": "BW", "stars": 3.0, "latitude": 49.012, "attributes": {}, "type": "business"}
{"business_id": "kpknqAb5inS0ic0-0UtUng", "full_address": "Scheffelstr. 21\n76135 Karlsruhe", "hours": {"Monday": {"close": "23:00", "open": "06:00"}, "Tuesday": {"close": "23:00", "open": "06:00"}, "Friday": {"close": "23:00", "open": "06:00"}, "Wednesday": {"close": "23:00", "open": "06:00"}, "Thursday": {"close": "23:00", "open": "06:00"}, "Saturday": {"close": "23:00", "open": "06:00"}}, "open": true, "categories": ["Local Services", "Dry Cleaning & Laundry"], "city": "Karlsruhe", "review_count": 4, "name": "Waschhaus", "neighborhoods": [], "longitude": 8.38159125106006, "state": "BW", "stars": 1.5, "latitude": 49.0079520267344, "attributes": {"Accepts Credit Cards": false, "Price Range": 1}, "type": "business"}
{"business_id": "nAMMS64Iriz9grhFzO6Evg", "full_address": "Bahnhofstr. 11\n76137 Karlsruhe", "hours": {}, "open": true, "categories": ["Local Services", "Dry Cleaning & Laundry"], "city": "Karlsruhe", "review_count": 6, "name": "Kurt Lausenhammer", "neighborhoods": [], "longitude": 8.39914, "state": "BW", "stars": 3.5, "latitude": 48.9944, "attributes": {"Price Range": 2}, "type": "business"}
{"business_id": "k7Y8zXSL2X3Gm_MxJj2Zsw", "full_address": "Geibelstr. 40\n76185 Karlsruhe", "hours": {}, "open": true, "categories": ["Local Services", "Dry Cleaning & Laundry"], "city": "Karlsruhe", "review_count": 6, "name": "Waschhaus Exclusiv Preiswert u. Sauber W\u00e4scherei", "neighborhoods": [], "longitude": 8.36142, "state": "BW", "stars": 3.0, "latitude": 49.012, "attributes": {}, "type": "business"}
{"business_id": "kpknqAb5inS0ic0-0UtUng", "full_address": "Scheffelstr. 21\n76135 Karlsruhe", "hours": {"Monday": {"close": "23:00", "open": "06:00"}, "Tuesday": {"close": "23:00", "open": "06:00"}, "Friday": {"close": "23:00", "open": "06:00"}, "Wednesday": {"close": "23:00", "open": "06:00"}, "Thursday": {"close": "23:00", "open": "06:00"}, "Saturday": {"close": "23:00", "open": "06:00"}}, "open": true, "categories": ["Local Services", "Dry Cleaning & Laundry"], "city": "Karlsruhe", "review_count": 4, "name": "Waschhaus", "neighborhoods": [], "longitude": 8.38159125106006, "state": "BW", "stars": 1.5, "latitude": 49.0079520267344, "attributes": {"Accepts Credit Cards": false, "Price Range": 1}, "type": "business"}
{"business_id": "nAMMS64Iriz9grhFzO6Evg", "full_address": "Bahnhofstr. 11\n76137 Karlsruhe", "hours": {}, "open": true, "categories": ["Local Services", "Dry Cleaning & Laundry"], "city": "Karlsruhe", "review_count": 6, "name": "Kurt Lausenhammer", "neighborhoods": [], "longitude": 8.39914, "state": "BW", "stars": 3.5, "latitude": 48.9944, "attributes": {"Price Range": 2}, "type": "business"}
{"business_id": "k7Y8zXSL2X3Gm_MxJj2Zsw", "full_address": "Geibelstr. 40\n76185 Karlsruhe", "hours": {}, "open": true, "categories": ["Local Services", "Dry Cleaning & Laundry"], "city": "Karlsruhe", "review_count": 6, "name": "Waschhaus Exclusiv Preiswert u. Sauber W\u00e4scherei", "neighborhoods": [], "longitude": 8.36142, "state": "BW", "stars": 3.0, "latitude": 49.012, "attributes": {}, "type": "business"}
{"business_id": "kpknqAb5inS0ic0-0UtUng", "full_address": "Scheffelstr. 21\n76135 Karlsruhe", "hours": {"Monday": {"close": "23:00", "open": "06:00"}, "Tuesday": {"close": "23:00", "open": "06:00"}, "Friday": {"close": "23:00", "open": "06:00"}, "Wednesday": {"close": "23:00", "open": "06:00"}, "Thursday": {"close": "23:00", "open": "06:00"}, "Saturday": {"close": "23:00", "open": "06:00"}}, "open": true, "categories": ["Local Services", "Dry Cleaning & Laundry"], "city": "Karlsruhe", "review_count": 4, "name": "Waschhaus", "neighborhoods": [], "longitude": 8.38159125106006, "state": "BW", "stars": 1.5, "latitude": 49.0079520267344, "attributes": {"Accepts Credit Cards": false, "Price Range": 1}, "type": "business"}
{"business_id": "nAMMS64Iriz9grhFzO6Evg", "full_address": "Bahnhofstr. 11\n76137 Karlsruhe", "hours": {}, "open": true, "categories": ["Local Services", "Dry Cleaning & Laundry"], "city": "Karlsruhe", "review_count": 6, "name": "Kurt Lausenhammer", "neighborhoods": [], "longitude": 8.39914, "state": "BW", "stars": 3.5, "latitude": 48.9944, "attributes": {"Price Range": 2}, "type": "business"}
{"business_id": "k7Y8zXSL2X3Gm_MxJj2Zsw", "full_address": "Geibelstr. 40\n76185 Karlsruhe", "hours": {}, "open": true, "categories": ["Local Services", "Dry Cleaning & Laundry"], "city": "Karlsruhe", "review_count": 6, "name": "Waschhaus Exclusiv Preiswert u. Sauber W\u00e4scherei", "neighborhoods": [], "longitude": 8.36142, "state": "BW", "stars": 3.0, "latitude": 49.012, "attributes": {}, "type": "business"}
{"business_id": "kpknqAb5inS0ic0-0UtUng", "full_address": "Scheffelstr. 21\n76135 Karlsruhe", "hours": {"Monday": {"close": "23:00", "open": "06:00"}, "Tuesday": {"close": "23:00", "open": "06:00"}, "Friday": {"close": "23:00", "open": "06:00"}, "Wednesday": {"close": "23:00", "open": "06:00"}, "Thursday": {"close": "23:00", "open": "06:00"}, "Saturday": {"close": "23:00", "open": "06:00"}}, "open": true, "categories": ["Local Services", "Dry Cleaning & Laundry"], "city": "Karlsruhe", "review_count": 4, "name": "Waschhaus", "neighborhoods": [], "longitude": 8.38159125106006, "state": "BW", "stars": 1.5, "latitude": 49.0079520267344, "attributes": {"Accepts Credit Cards": false, "Price Range": 1}, "type": "business"}
