{"business_id": "3LA8ABDMBZnlEnVMmJ-YIA", "full_address": "Rudolfstr. 11\n76131 Karlsruhe", "hours": {"Monday": {"close": "19:00", "open": "06:00"}, "Tuesday": {"close": "19:00", "open": "06:00"}, "Friday": {"close": "19:00", "open": "06:00"}, "Wednesday": {"close": "19:00", "open": "06:00"}, "Thursday": {"close": "19:00", "open": "06:00"}, "Sunday": {"close": "11:00", "open": "08:00"}, "Saturday": {"close": "13:00", "open": "06:00"}}, "open": true, "categories": ["Bakeries", "Food", "Patisserie/Cake Shop", "Cafes", "Restaurants"], "city": "Karlsruhe", "review_count": 5, "name": "B\u00e4ckerei-Konditorei Visel", "neighborhoods": [], "longitude": 8.42244, "state": "BW", "stars": 3.0, "latitude": 49.00981, "attributes": {"Take-out": false, "Wi-Fi": "no", "Good For": {"dessert": false, "latenight": false, "lunch": false, "dinner": false, "breakfast": false, "brunch": false}, "Caters": false, "Noise Level": "average", "Takes Reservations": false, "Has TV": false, "Delivery": false, "Ambience": {"romantic": false, "intimate": false, "classy": false, "hipster": false, "divey": false, "touristy": false, "trendy": false, "upscale": false, "casual": false}, "Parking": {"garage": false, "validated": false, "street": false, "lot": false, "valet": false}, "Wheelchair Accessible": false, "Outdoor Seating": false, "Attire": "casual", "Alcohol": "none", "Waiter Service": false, "Accepts Credit Cards": false, "Good for Kids": true, "Good For Groups": false, "Price Range": 2}, "type": "business"}
{"business_id": "QXou2_cNNSGNqpIUBikQOg", "full_address": "Hardtstr. 10\n76185 Karlsruhe", "hours": {}, "open": true, "categories": ["Bakeries", "Food", "Cafes", "Restaurants"], "city": "Karlsruhe", "review_count": 11, "name": "L\u00f6rz Heinrich", "neighborhoods": [], "longitude": 8.35593, "state": "BW", "stars": 4.5, "latitude": 49.0101, "attributes": {"Take-out": true, "Parking": {"garage": false, "validated": false, "street": false, "lot": false, "valet": false}, "Delivery": false, "Takes Reservations": false, "Accepts Credit Cards": false, "Good for Kids": true, "Good For Groups": true, "Price Range": 2}, "type": "business"}
{"business_id": "DXIsctlGnYN8-G-CJ6Xm6A", "full_address": "Jollystr. 27\n76137 Karlsruhe", "hours": {}, "open": true, "categories": ["Bakeries", "Food", "Patisserie/Cake Shop"], "city": "Karlsruhe", "review_count": 9, "name": "B\u00e4ckerei und Konditorei Martin Meier", "neighborhoods": [], "longitude": 8.39192, "state": "BW", "stars": 3.5, "latitude": 49.0018, "attributes": {"Parking": {"garage": false, "validated": false, "street": false, "lot": false, "valet": false}, "Accepts Credit Cards": false, "Price Range": 2}, "type": "business"}
{"business_id": "sDDPr7bV9uC1ubROF1AADQ", "full_address": "Haid-und-Neu-Str. 2\n76131 Karlsruhe", "hours": {}, "open": true, "categories": ["Bakeries", "Food"], "city": "Karlsruhe", "review_count": 3, "name": "Rudolf Neff", "neighborhoods": [], "longitude": 8.42381, "state": "BW", "stars": 3.0, "latitude": 49.0114, "attributes": {"Delivery": false, "Parking": {}, "Accepts Credit Cards": false, "Price Range": 3}, "type": "business"}
{"business_id": "ZztjV9bUMfOYMF85X0M8AA", "full_address": "Westmarkstr. 12\n76227 Karlsruhe", "hours": {"Monday": {"close": "18:30", "open": "05:30"}, "Tuesday": {"close": "18:30", "open": "05:30"}, "Friday": {"close": "18:30", "open": "05:30"}, "Wednesday": {"close": "18:30", "open": "05:30"}, "Thursday": {"close": "18:30", "open": "05:30"}, "Sunday": {"close": "18:30", "open": "05:30"}, "Saturday": {"close": "13:00", "open": "05:30"}}, "open": true, "categories": ["Bakeries", "Food"], "city": "Karlsruhe", "review_count": 4, "name": "Weber", "neighborhoods": [], "longitude": 8.46038, "state": "BW", "stars": 5.0, "latitude": 48.992, "attributes": {"Parking": {"garage": false, "street": false, "validated": false, "lot": false, "valet": false}, "Accepts Credit Cards": false, "Price Range": 2}, "type": "business"}
{"business_id": "Tm3w1r_ysQSxu-hnV9BetA", "full_address": "Industriestr. 6\n76467 Bietigheim", "hours": {}, "open": true, "categories": ["Bakeries", "Grocery", "Food", "Cafes", "Coffee & Tea", "Restaurants"], "city": "Bietigheim", "review_count": 3, "name": "F\u00f6ry B\u00e4ckerei und Caf\u00e9", "neighborhoods": [], "longitude": 8.25536, "state": "BW", "stars": 5.0, "latitude": 48.9109, "attributes": {"Price Range": 2}, "type": "business"}
{"business_id": "Pnu3TLl2vKHd9kWe6EuNTQ", "full_address": "Zeppelinstr. 15\n76185 Karlsruhe", "hours": {"Monday": {"close": "18:30", "open": "06:00"}, "Tuesday": {"close": "18:30", "open": "06:00"}, "Friday": {"close": "18:30", "open": "06:00"}, "Wednesday": {"close": "18:30", "open": "06:00"}, "Thursday": {"close": "18:30", "open": "06:00"}, "Sunday": {"close": "11:00", "open": "08:00"}, "Saturday": {"close": "17:00", "open": "06:00"}}, "open": true, "categories": ["Bakeries", "Food", "Patisserie/Cake Shop"], "city": "Karlsruhe", "review_count": 3, "name": "B\u00e4ckerei-Konditorei Richard Nu\u00dfbaumer", "neighborhoods": [], "longitude": 8.35607, "state": "BW", "stars": 4.0, "latitude": 49.0025, "attributes": {"Parking": {"garage": false, "street": false, "validated": false, "lot": false, "valet": false}, "Accepts Credit Cards": false, "Wheelchair Accessible": true, "Price Range": 2}, "type": "business"}
{"business_id": "gY-_DMsOpYzSGxHp8Pqigg", "full_address": "Kaiserallee 51 A\n76133 Karlsruhe", "hours": {"Monday": {"close": "19:00", "open": "08:00"}, "Tuesday": {"close": "19:00", "open": "08:00"}, "Friday": {"close": "19:00", "open": "08:00"}, "Wednesday": {"close": "19:00", "open": "08:00"}, "Thursday": {"close": "19:00", "open": "08:00"}, "Sunday": {"close": "19:00", "open": "08:00"}, "Saturday": {"close": "19:00", "open": "08:00"}}, "open": true, "categories": ["Bakeries", "Food", "Coffee & Tea", "Cafes", "Restaurants"], "city": "Karlsruhe", "review_count": 25, "name": "Mary Poppins", "neighborhoods": [], "longitude": 8.37741, "state": "BW", "stars": 3.5, "latitude": 49.01059, "attributes": {"Good For": {"dessert": false, "latenight": false, "lunch": false, "dinner": false, "breakfast": false, "brunch": false}, "Takes Reservations": false, "Has TV": false, "Delivery": false, "Parking": {"garage": false, "validated": false, "street": true, "lot": false, "valet": false}, "Wheelchair Accessible": false, "Outdoor Seating": true, "Attire": "casual", "Alcohol": "none", "Smoking": "outdoor", "Accepts Credit Cards": true, "Good for Kids": true, "Good For Groups": true, "Price Range": 3}, "type": "business"}
{"business_id": "qjdPgk2OuDjmgQkLAEmpIg", "full_address": "Baumeisterstr. 20\n76137 Karlsruhe", "hours": {"Monday": {"close": "18:00", "open": "06:00"}, "Tuesday": {"close": "18:00", "open": "06:00"}, "Friday": {"close": "18:00", "open": "06:00"}, "Wednesday": {"close": "18:00", "open": "06:00"}, "Thursday": {"close": "18:00", "open": "06:00"}, "Sunday": {"close": "16:00", "open": "14:00"}, "Saturday": {"close": "16:00", "open": "06:00"}}, "open": true, "categories": ["Bakeries", "Food"], "city": "Karlsruhe", "review_count": 21, "name": "Gordani", "neighborhoods": [], "longitude": 8.40658, "state": "BW", "stars": 5.0, "latitude": 49.0039, "attributes": {"Delivery": false, "Parking": {"garage": false, "street": true, "validated": false, "lot": false, "valet": false}, "Accepts Credit Cards": false, "Wheelchair Accessible": false, "Price Range": 2}, "type": "business"}
{"business_id": "QRTW1rfw1KKjsSHbboCaJQ", "full_address": "Richard-Wagner-Str. 27\n76275 Ettlingen", "hours": {}, "open": true, "categories": ["Bakeries", "Grocery", "Shopping", "Food", "Post Offices", "Butcher", "Public Services & Government"], "city": "Ettlingen", "review_count": 5, "name": "CAP-Markt", "neighborhoods": [], "longitude": 8.36592, "state": "BW", "stars": 4.5, "latitude": 48.9246, "attributes": {"Price Range": 3}, "type": "business"}
{"business_id": "zd79xkJ8xqQcU26zsf8IrQ", "full_address": "Pfinztalstr. 12\n76227 Karlsruhe", "hours": {"Monday": {"close": "18:30", "open": "06:30"}, "Tuesday": {"close": "18:30", "open": "06:30"}, "Friday": {"close": "18:30", "open": "06:30"}, "Wednesday": {"close": "18:30", "open": "06:30"}, "Thursday": {"close": "18:30", "open": "06:30"}, "Saturday": {"close": "13:00", "open": "06:30"}}, "open": true, "categories": ["Bakeries", "Food", "Sporting Goods", "Shopping"], "city": "Karlsruhe", "review_count": 5, "name": "B\u00e4ckerei Weber", "neighborhoods": [], "longitude": 8.474428, "state": "BW", "stars": 4.0, "latitude": 48.9993023, "attributes": {"Parking": {"garage": false, "validated": false, "street": false, "lot": false, "valet": false}, "Price Range": 1}, "type": "business"}
{"business_id": "OSLkuwNmT-bAXWx_T-SbUg", "full_address": "Veilchenstr. 15\n76131 Karlsruhe", "hours": {"Monday": {"close": "19:00", "open": "06:00"}, "Tuesday": {"close": "19:00", "open": "06:00"}, "Friday": {"close": "19:00", "open": "06:00"}, "Wednesday": {"close": "19:00", "open": "06:00"}, "Thursday": {"close": "19:00", "open": "06:00"}, "Sunday": {"close": "11:00", "open": "08:00"}, "Saturday": {"close": "18:00", "open": "06:00"}}, "open": true, "categories": ["Bakeries", "Food", "Patisserie/Cake Shop", "Cafes", "Restaurants"], "city": "Karlsruhe", "review_count": 3, "name": "B\u00e4ckerei-Konditorei Visel", "neighborhoods": [], "longitude": 8.4279634, "state": "BW", "stars": 4.5, "latitude": 49.0094449, "attributes": {"Accepts Credit Cards": false, "Wheelchair Accessible": false, "Parking": {"garage": false, "validated": false, "street": false, "lot": false, "valet": false}}, "type": "business"}
{"business_id": "Ko0IWAEQtHd5kWr30PXD_A", "full_address": "Leipziger Allee 16\n76139 Karlsruhe", "hours": {"Monday": {"close": "18:00", "open": "06:30"}, "Tuesday": {"close": "18:00", "open": "06:30"}, "Friday": {"close": "18:00", "open": "06:30"}, "Wednesday": {"close": "18:00", "open": "06:30"}, "Thursday": {"close": "18:00", "open": "06:30"}, "Sunday": {"close": "11:00", "open": "08:00"}, "Saturday": {"close": "12:30", "open": "06:00"}}, "open": true, "categories": ["Bakeries", "Food", "Patisserie/Cake Shop", "Cafes", "Restaurants"], "city": "Karlsruhe", "review_count": 3, "name": "B\u00e4ckerei-Konditorei Visel", "neighborhoods": [], "longitude": 8.4555942, "state": "BW", "stars": 3.5, "latitude": 49.0331501, "attributes": {"Take-out": true, "Wi-Fi": "no", "Alcohol": "none", "Caters": false, "Noise Level": "average", "Takes Reservations": false, "Has TV": false, "Delivery": false, "Parking": {"garage": false, "validated": false, "street": false, "lot": false, "valet": false}, "Wheelchair Accessible": true, "Outdoor Seating": false, "Attire": "casual", "Ambience": {"romantic": false, "intimate": false, "classy": false, "hipster": false, "divey": false, "touristy": false, "trendy": false, "upscale": false, "casual": false}, "Waiter Service": false, "Accepts Credit Cards": false, "Good for Kids": true, "Good For Groups": false, "Price Range": 3}, "type": "business"}
{"business_id": "6ofpfv6Bb4_KaUN3YoT8Ew", "full_address": "Bahnhofplatz 1\n76137 Karlsruhe", "hours": {}, "open": true, "categories": ["Bakeries", "Food"], "city": "Karlsruhe", "review_count": 5, "name": "Wiener Feinb\u00e4ckerei Heberer", "neighborhoods": [], "longitude": 8.40179, "state": "BW", "stars": 1.0, "latitude": 48.994, "attributes": {"Wheelchair Accessible": true, "Price Range": 3}, "type": "business"}
{"business_id": "BPY-04VxlC60qxww38dFTQ", "full_address": "Kaiserstr. 241\n76133 Karlsruhe", "hours": {"Monday": {"close": "18:00", "open": "08:00"}, "Tuesday": {"close": "18:00", "open": "08:00"}, "Friday": {"close": "18:00", "open": "08:00"}, "Wednesday": {"close": "18:00", "open": "08:00"}, "Thursday": {"close": "18:00", "open": "08:00"}, "Sunday": {"close": "18:00", "open": "10:00"}, "Saturday": {"close": "18:00", "open": "08:00"}}, "open": true, "categories": ["Bakeries", "Food", "Patisserie/Cake Shop", "Cafes", "Restaurants"], "city": "Karlsruhe", "review_count": 25, "name": "Endle", "neighborhoods": [], "longitude": 8.3907078, "state": "BW", "stars": 4.0, "latitude": 49.0101131, "attributes": {"Good For": {"dessert": false, "latenight": false, "lunch": false, "dinner": false, "breakfast": false, "brunch": false}, "Attire": "casual", "Smoking": "no", "Outdoor Seating": false, "Parking": {"garage": false, "validated": false, "street": false, "lot": false, "valet": false}, "Waiter Service": true, "Accepts Credit Cards": true, "Good for Kids": true, "Price Range": 3}, "type": "business"}
{"business_id": "gKrRXJNjGlZHsoJ7oBbb3g", "full_address": "Kaiserstr. 141\n76133 Karlsruhe", "hours": {}, "open": true, "categories": ["Bakeries", "Food", "Coffee & Tea", "Cafes", "Restaurants"], "city": "Karlsruhe", "review_count": 21, "name": "B\u00f6ckeler's Cafe", "neighborhoods": [], "longitude": 8.40339, "state": "BW", "stars": 2.5, "latitude": 49.00934, "attributes": {"Take-out": true, "Good For": {"dessert": false, "latenight": false, "lunch": false, "dinner": false, "brunch": false, "breakfast": false}, "Takes Reservations": true, "Delivery": false, "Parking": {"garage": false, "validated": false, "street": false, "lot": false, "valet": false}, "Outdoor Seating": true, "Attire": "casual", "Alcohol": "beer_and_wine", "Accepts Credit Cards": true, "Good for Kids": true, "Good For Groups": true, "Price Range": 3}, "type": "business"}
{"business_id": "iYyVFRBxOd5IwVSrsQu1BQ", "full_address": "Georg-Friedrich-Str. 7\n76131 Karlsruhe", "hours": {}, "open": true, "categories": ["Bakeries", "Food"], "city": "Karlsruhe", "review_count": 3, "name": "Der Backladen", "neighborhoods": [], "longitude": 8.42358, "state": "BW", "stars": 2.5, "latitude": 49.01, "attributes": {"Parking": {"garage": false, "validated": false, "street": false, "lot": false, "valet": false}, "Accepts Credit Cards": false, "Wheelchair Accessible": false, "Price Range": 2}, "type": "business"}
{"business_id": "H5HP3XK0wYpCeHga60zg4Q", "full_address": "Rheinstr. 34\n76185 Karlsruhe", "hours": {}, "open": true, "categories": ["Bakeries", "Food"], "city": "Karlsruhe", "review_count": 4, "name": "Badische Backstube F. u. E. Weber", "neighborhoods": [], "longitude": 8.36022, "state": "BW", "stars": 3.5, "latitude": 49.0112, "attributes": {"Accepts Credit Cards": false, "Price Range": 2}, "type": "business"}
{"business_id": "xzucDze4qdMbBNlf4WIM6g", "full_address": "Steinh\u00e4userstr. 22\n76135 Karlsruhe", "hours": {}, "open": true, "categories": ["Bakeries", "Food"], "city": "Karlsruhe", "review_count": 3, "name": "Badische Backstub", "neighborhoods": [], "longitude": 8.3803797, "state": "BW", "stars": 2.5, "latitude": 48.9966844, "attributes": {}, "type": "business"}
{"business_id": "NGrDYIN8_C6b5zNXRUM-Qg", "full_address": "Ludwig-Wilhelm-Str. 14\n76131 Karlsruhe", "hours": {}, "open": true, "categories": ["Bakeries", "Food"], "city": "Karlsruhe", "review_count": 4, "name": "Badische Backstub F. u. E. Weber", "neighborhoods": [], "longitude": 8.42262, "state": "BW", "stars": 3.5, "latitude": 49.0094, "attributes": {"Delivery": false, "Accepts Credit Cards": false, "Price Range": 2}, "type": "business"}
{"business_id": "JemgxznJZEEAsxfYmV5fBA", "full_address": "Mannheimer Str. 51\n76131 Karlsruhe", "hours": {}, "open": true, "categories": ["Bakeries", "Food"], "city": "Karlsruhe", "review_count": 3, "name": "Brotkorb - Hatz B\u00e4ckereibetriebe", "neighborhoods": [], "longitude": 8.4443215, "state": "BW", "stars": 3.0, "latitude": 49.0170552, "attributes": {"Price Range": 2}, "type": "business"}
{"business_id": "UbMfwmBEU9Jt3rRysjh4Yg", "full_address": "Ludwig-Erhard-Allee 20-24\n76131 Karlsruhe", "hours": {"Monday": {"close": "20:00", "open": "06:00"}, "Tuesday": {"close": "20:00", "open": "06:00"}, "Friday": {"close": "20:00", "open": "06:00"}, "Wednesday": {"close": "20:00", "open": "06:00"}, "Thursday": {"close": "20:00", "open": "06:00"}, "Sunday": {"close": "18:00", "open": "08:00"}, "Saturday": {"close": "18:00", "open": "07:00"}}, "open": true, "categories": ["Bakeries", "Food", "Cafes", "Restaurants"], "city": "Karlsruhe", "review_count": 10, "name": "Laib & Leben", "neighborhoods": [], "longitude": 8.42019146223942, "state": "BW", "stars": 3.5, "latitude": 49.0038897551285, "attributes": {"Take-out": true, "Good For": {"dessert": false, "latenight": false, "lunch": false, "dinner": false, "breakfast": false, "brunch": false}, "Noise Level": "average", "Takes Reservations": false, "Delivery": false, "Parking": {"garage": false, "street": false, "validated": false, "lot": false, "valet": false}, "Has TV": false, "Outdoor Seating": false, "Attire": "casual", "Good for Kids": false, "Good For Groups": true, "Price Range": 2}, "type": "business"}
{"business_id": "3M9El2CzdEeSJUuDzZkslg", "full_address": "Nelkenstra\u00dfe 21\nam Gutenbergplatz\n76135 Karlsruhe", "hours": {}, "open": false, "categories": ["Bakeries", "Food"], "city": "Karlsruhe", "review_count": 19, "name": "Gro\u00dfmudder's B\u00e4ckerei und Kaffestube", "neighborhoods": [], "longitude": 8.37639, "state": "BW", "stars": 2.5, "latitude": 49.0091, "attributes": {"Parking": {"garage": false, "validated": false, "street": false, "lot": false, "valet": false}, "Wheelchair Accessible": false, "Price Range": 3}, "type": "business"}
{"business_id": "QURbSnCwx5NlCszp_H89Ng", "full_address": "Wichernstr\nWeststadt\n76135 Karlsruhe", "hours": {}, "open": true, "categories": ["Bakeries", "Food"], "city": "Karlsruhe", "review_count": 3, "name": "B\u00e4ckerei Neff Zweigstelle", "neighborhoods": [], "longitude": 8.36872, "state": "BW", "stars": 2.5, "latitude": 49.0056, "attributes": {}, "type": "business"}
{"business_id": "3LA8ABDMBZnlEnVMmJ-YIA", "full_address": "Rudolfstr. 11\n76131 Karlsruhe", "hours": {"Monday": {"close": "19:00", "open": "06:00"}, "Tuesday": {"close": "19:00", "open": "06:00"}, "Friday": {"close": "19:00", "open": "06:00"}, "Wednesday": {"close": "19:00", "open": "06:00"}, "Thursday": {"close": "19:00", "open": "06:00"}, "Sunday": {"close": "11:00", "open": "08:00"}, "Saturday": {"close": "13:00", "open": "06:00"}}, "open": true, "categories": ["Bakeries", "Food", "Patisserie/Cake Shop", "Cafes", "Restaurants"], "city": "Karlsruhe", "review_count": 5, "name": "B\u00e4ckerei-Konditorei Visel", "neighborhoods": [], "longitude": 8.42244, "state": "BW", "stars": 3.0, "latitude": 49.00981, "attributes": {"Take-out": false, "Wi-Fi": "no", "Good For": {"dessert": false, "latenight": false, "lunch": false, "dinner": false, "breakfast": false, "brunch": false}, "Caters": false, "Noise Level": "average", "Takes Reservations": false, "Has TV": false, "Delivery": false, "Ambience": {"romantic": false, "intimate": false, "classy": false, "hipster": false, "divey": false, "touristy": false, "trendy": false, "upscale": false, "casual": false}, "Parking": {"garage": false, "validated": false, "street": false, "lot": false, "valet": false}, "Wheelchair Accessible": false, "Outdoor Seating": false, "Attire": "casual", "Alcohol": "none", "Waiter Service": false, "Accepts Credit Cards": false, "Good for Kids": true, "Good For Groups": false, "Price Range": 2}, "type": "business"}
{"business_id": "QXou2_cNNSGNqpIUBikQOg", "full_address": "Hardtstr. 10\n76185 Karlsruhe", "hours": {}, "open": true, "categories": ["Bakeries", "Food", "Cafes", "Restaurants"], "city": "Karlsruhe", "review_count": 11, "name": "L\u00f6rz Heinrich", "neighborhoods": [], "longitude": 8.35593, "state": "BW", "stars": 4.5, "latitude": 49.0101, "attributes": {"Take-out": true, "Parking": {"garage": false, "validated": false, "street": false, "lot": false, "valet": false}, "Delivery": false, "Takes Reservations": false, "Accepts Credit Cards": false, "Good for Kids": true, "Good For Groups": true, "Price Range": 2}, "type": "business"}
{"business_id": "DXIsctlGnYN8-G-CJ6Xm6A", "full_address": "Jollystr. 27\n76137 Karlsruhe", "hours": {}, "open": true, "categories": ["Bakeries", "Food", "Patisserie/Cake Shop"], "city": "Karlsruhe", "review_count": 9, "name": "B\u00e4ckerei und Konditorei Martin Meier", "neighborhoods": [], "longitude": 8.39192, "state": "BW", "stars": 3.5, "latitude": 49.0018, "attributes": {"Parking": {"garage": false, "validated": false, "street": false, "lot": false, "valet": false}, "Accepts Credit Cards": false, "Price Range": 2}, "type": "business"}
{"business_id": "sDDPr7bV9uC1ubROF1AADQ", "full_address": "Haid-und-Neu-Str. 2\n76131 Karlsruhe", "hours": {}, "open": true, "categories": ["Bakeries", "Food"], "city": "Karlsruhe", "review_count": 3, "name": "Rudolf Neff", "neighborhoods": [], "longitude": 8.42381, "state": "BW", "stars": 3.0, "latitude": 49.0114, "attributes": {"Delivery": false, "Parking": {}, "Accepts Credit Cards": false, "Price Range": 3}, "type": "business"}
{"business_id": "ZztjV9bUMfOYMF85X0M8AA", "full_address": "Westmarkstr. 12\n76227 Karlsruhe", "hours": {"Monday": {"close": "18:30", "open": "05:30"}, "Tuesday": {"close": "18:30", "open": "05:30"}, "Friday": {"close": "18:30", "open": "05:30"}, "Wednesday": {"close": "18:30", "open": "05:30"}, "Thursday": {"close": "18:30", "open": "05:30"}, "Sunday": {"close": "18:30", "open": "05:30"}, "Saturday": {"close": "13:00", "open": "05:30"}}, "open": true, "categories": ["Bakeries", "Food"], "city": "Karlsruhe", "review_count": 4, "name": "Weber", "neighborhoods": [], "longitude": 8.46038, "state": "BW", "stars": 5.0, "latitude": 48.992, "attributes": {"Parking": {"garage": false, "street": false, "validated": false, "lot": false, "valet": false}, "Accepts Credit Cards": false, "Price Range": 2}, "type": "business"}
{"business_id": "Tm3w1r_ysQSxu-hnV9BetA", "full_address": "Industriestr. 6\n76467 Bietigheim", "hours": {}, "open": true, "categories": ["Bakeries", "Grocery", "Food", "Cafes", "Coffee & Tea", "Restaurants"], "city": "Bietigheim", "review_count": 3, "name": "F\u00f6ry B\u00e4ckerei und Caf\u00e9", "neighborhoods": [], "longitude": 8.25536, "state": "BW", "stars": 5.0, "latitude": 48.9109, "attributes": {"Price Range": 2}, "type": "business"}
{"business_id": "Pnu3TLl2vKHd9kWe6EuNTQ", "full_address": "Zeppelinstr. 15\n76185 Karlsruhe", "hours": {"Monday": {"close": "18:30", "open": "06:00"}, "Tuesday": {"close": "18:30", "open": "06:00"}, "Friday": {"close": "18:30", "open": "06:00"}, "Wednesday": {"close": "18:30", "open": "06:00"}, "Thursday": {"close": "18:30", "open": "06:00"}, "Sunday": {"close": "11:00", "open": "08:00"}, "Saturday": {"close": "17:00", "open": "06:00"}}, "open": true, "categories": ["Bakeries", "Food", "Patisserie/Cake Shop"], "city": "Karlsruhe", "review_count": 3, "name": "B\u00e4ckerei-Konditorei Richard Nu\u00dfbaumer", "neighborhoods": [], "longitude": 8.35607, "state": "BW", "stars": 4.0, "latitude": 49.0025, "attributes": {"Parking": {"garage": false, "street": false, "validated": false, "lot": false, "valet": false}, "Accepts Credit Cards": false, "Wheelchair Accessible": true, "Price Range": 2}, "type": "business"}
{"business_id": "gY-_DMsOpYzSGxHp8Pqigg", "full_address": "Kaiserallee 51 A\n76133 Karlsruhe", "hours": {"Monday": {"close": "19:00", "open": "08:00"}, "Tuesday": {"close": "19:00", "open": "08:00"}, "Friday": {"close": "19:00", "open": "08:00"}, "Wednesday": {"close": "19:00", "open": "08:00"}, "Thursday": {"close": "19:00", "open": "08:00"}, "Sunday": {"close": "19:00", "open": "08:00"}, "Saturday": {"close": "19:00", "open": "08:00"}}, "open": true, "categories": ["Bakeries", "Food", "Coffee & Tea", "Cafes", "Restaurants"], "city": "Karlsruhe", "review_count": 25, "name": "Mary Poppins", "neighborhoods": [], "longitude": 8.37741, "state": "BW", "stars": 3.5, "latitude": 49.01059, "attributes": {"Good For": {"dessert": false, "latenight": false, "lunch": false, "dinner": false, "breakfast": false, "brunch": false}, "Takes Reservations": false, "Has TV": false, "Delivery": false, "Parking": {"garage": false, "validated": false, "street": true, "lot": false, "valet": false}, "Wheelchair Accessible": false, "Outdoor Seating": true, "Attire": "casual", "Alcohol": "none", "Smoking": "outdoor", "Accepts Credit Cards": true, "Good for Kids": true, "Good For Groups": true, "Price Range": 3}, "type": "business"}
{"business_id": "qjdPgk2OuDjmgQkLAEmpIg", "full_address": "Baumeisterstr. 20\n76137 Karlsruhe", "hours": {"Monday": {"close": "18:00", "open": "06:00"}, "Tuesday": {"close": "18:00", "open": "06:00"}, "Friday": {"close": "18:00", "open": "06:00"}, "Wednesday": {"close": "18:00", "open": "06:00"}, "Thursday": {"close": "18:00", "open": "06:00"}, "Sunday": {"close": "16:00", "open": "14:00"}, "Saturday": {"close": "16:00", "open": "06:00"}}, "open": true, "categories": ["Bakeries", "Food"], "city": "Karlsruhe", "review_count": 21, "name": "Gordani", "neighborhoods": [], "longitude": 8.40658, "state": "BW", "stars": 5.0, "latitude": 49.0039, "attributes": {"Delivery": false, "Parking": {"garage": false, "street": true, "validated": false, "lot": false, "valet": false}, "Accepts Credit Cards": false, "Wheelchair Accessible": false, "Price Range": 2}, "type": "business"}
{"business_id": "QRTW1rfw1KKjsSHbboCaJQ", "full_address": "Richard-Wagner-Str. 27\n76275 Ettlingen", "hours": {}, "open": true, "categories": ["Bakeries", "Grocery", "Shopping", "Food", "Post Offices", "Butcher", "Public Services & Government"], "city": "Ettlingen", "review_count": 5, "name": "CAP-Markt", "neighborhoods": [], "longitude": 8.36592, "state": "BW", "stars": 4.5, "latitude": 48.9246, "attributes": {"Price Range": 3}, "type": "business"}
{"business_id": "zd79xkJ8xqQcU26zsf8IrQ", "full_address": "Pfinztalstr. 12\n76227 Karlsruhe", "hours": {"Monday": {"close": "18:30", "open": "06:30"}, "Tuesday": {"close": "18:30", "open": "06:30"}, "Friday": {"close": "18:30", "open": "06:30"}, "Wednesday": {"close": "18:30", "open": "06:30"}, "Thursday": {"close": "18:30", "open": "06:30"}, "Saturday": {"close": "13:00", "open": "06:30"}}, "open": true, "categories": ["Bakeries", "Food", "Sporting Goods", "Shopping"], "city": "Karlsruhe", "review_count": 5, "name": "B\u00e4ckerei Weber", "neighborhoods": [], "longitude": 8.474428, "state": "BW", "stars": 4.0, "latitude": 48.9993023, "attributes": {"Parking": {"garage": false, "validated": false, "street": false, "lot": false, "valet": false}, "Price Range": 1}, "type": "business"}
{"business_id": "OSLkuwNmT-bAXWx_T-SbUg", "full_address": "Veilchenstr. 15\n76131 Karlsruhe", "hours": {"Monday": {"close": "19:00", "open": "06:00"}, "Tuesday": {"close": "19:00", "open": "06:00"}, "Friday": {"close": "19:00", "open": "06:00"}, "Wednesday": {"close": "19:00", "open": "06:00"}, "Thursday": {"close": "19:00", "open": "06:00"}, "Sunday": {"close": "11:00", "open": "08:00"}, "Saturday": {"close": "18:00", "open": "06:00"}}, "open": true, "categories": ["Bakeries", "Food", "Patisserie/Cake Shop", "Cafes", "Restaurants"], "city": "Karlsruhe", "review_count": 3, "name": "B\u00e4ckerei-Konditorei Visel", "neighborhoods": [], "longitude": 8.4279634, "state": "BW", "stars": 4.5, "latitude": 49.0094449, "attributes": {"Accepts Credit Cards": false, "Wheelchair Accessible": false, "Parking": {"garage": false, "validated": false, "street": false, "lot": false, "valet": false}}, "type": "business"}
{"business_id": "Ko0IWAEQtHd5kWr30PXD_A", "full_address": "Leipziger Allee 16\n76139 Karlsruhe", "hours": {"Monday": {"close": "18:00", "open": "06:30"}, "Tuesday": {"close": "18:00", "open": "06:30"}, "Friday": {"close": "18:00", "open": "06:30"}, "Wednesday": {"close": "18:00", "open": "06:30"}, "Thursday": {"close": "18:00", "open": "06:30"}, "Sunday": {"close": "11:00", "open": "08:00"}, "Saturday": {"close": "12:30", "open": "06:00"}}, "open": true, "categories": ["Bakeries", "Food", "Patisserie/Cake Shop", "Cafes", "Restaurants"], "city": "Karlsruhe", "review_count": 3, "name": "B\u00e4ckerei-Konditorei Visel", "neighborhoods": [], "longitude": 8.4555942, "state": "BW", "stars": 3.5, "latitude": 49.0331501, "attributes": {"Take-out": true, "Wi-Fi": "no", "Alcohol": "none", "Caters": false, "Noise Level": "average", "Takes Reservations": false, "Has TV": false, "Delivery": false, "Parking": {"garage": false, "validated": false, "street": false, "lot": false, "valet": false}, "Wheelchair Accessible": true, "Outdoor Seating": false, "Attire": "casual", "Ambience": {"romantic": false, "intimate": false, "classy": false, "hipster": false, "divey": false, "touristy": false, "trendy": false, "upscale": false, "casual": false}, "Waiter Service": false, "Accepts Credit Cards": false, "Good for Kids": true, "Good For Groups": false, "Price Range": 3}, "type": "business"}
{"business_id": "6ofpfv6Bb4_KaUN3YoT8Ew", "full_address": "Bahnhofplatz 1\n76137 Karlsruhe", "hours": {}, "open": true, "categories": ["Bakeries", "Food"], "city": "Karlsruhe", "review_count": 5, "name": "Wiener Feinb\u00e4ckerei Heberer", "neighborhoods": [], "longitude": 8.40179, "state": "BW", "stars": 1.0, "latitude": 48.994, "attributes": {"Wheelchair Accessible": true, "Price Range": 3}, "type": "business"}
{"business_id": "BPY-04VxlC60qxww38dFTQ", "full_address": "Kaiserstr. 241\n76133 Karlsruhe", "hours": {"Monday": {"close": "18:00", "open": "08:00"}, "Tuesday": {"close": "18:00", "open": "08:00"}, "Friday": {"close": "18:00", "open": "08:00"}, "Wednesday": {"close": "18:00", "open": "08:00"}, "Thursday": {"close": "18:00", "open": "08:00"}, "Sunday": {"close": "18:00", "open": "10:00"}, "Saturday": {"close": "18:00", "open": "08:00"}}, "open": true, "categories": ["Bakeries", "Food", "Patisserie/Cake Shop", "Cafes", "Restaurants"], "city": "Karlsruhe", "review_count": 25, "name": "Endle", "neighborhoods": [], "longitude": 8.3907078, "state": "BW", "stars": 4.0, "latitude": 49.0101131, "attributes": {"Good For": {"dessert": false, "latenight": false, "lunch": false, "dinner": false, "breakfast": false, "brunch": false}, "Attire": "casual", "Smoking": "no", "Outdoor Seating": false, "Parking": {"garage": false, "validated": false, "street": false, "lot": false, "valet": false}, "Waiter Service": true, "Accepts Credit Cards": true, "Good for Kids": true, "Price Range": 3}, "type": "business"}
{"business_id": "gKrRXJNjGlZHsoJ7oBbb3g", "full_address": "Kaiserstr. 141\n76133 Karlsruhe", "hours": {}, "open": true, "categories": ["Bakeries", "Food", "Coffee & Tea", "Cafes", "Restaurants"], "city": "Karlsruhe", "review_count": 21, "name": "B\u00f6ckeler's Cafe", "neighborhoods": [], "longitude": 8.40339, "state": "BW", "stars": 2.5, "latitude": 49.00934, "attributes": {"Take-out": true, "Good For": {"dessert": false, "latenight": false, "lunch": false, "dinner": false, "brunch": false, "breakfast": false}, "Takes Reservations": true, "Delivery": false, "Parking": {"garage": false, "validated": false, "street": false, "lot": false, "valet": false}, "Outdoor Seating": true, "Attire": "casual", "Alcohol": "beer_and_wine", "Accepts Credit Cards": true, "Good for Kids": true, "Good For Groups": true, "Price Range": 3}, "type": "business"}
{"business_id": "iYyVFRBxOd5IwVSrsQu1BQ", "full_address": "Georg-Friedrich-Str. 7\n76131 Karlsruhe", "hours": {}, "open": true, "categories": ["Bakeries", "Food"], "city": "Karlsruhe", "review_count": 3, "name": "Der Backladen", "neighborhoods": [], "longitude": 8.42358, "state": "BW", "stars": 2.5, "latitude": 49.01, "attributes": {"Parking": {"garage": false, "validated": false, "street": false, "lot": false, "valet": false}, "Accepts Credit Cards": false, "Wheelchair Accessible": false, "Price Range": 2}, "type": "business"}
{"business_id": "H5HP3XK0wYpCeHga60zg4Q", "full_address": "Rheinstr. 34\n76185 Karlsruhe", "hours": {}, "open": true, "categories": ["Bakeries", "Food"], "city": "Karlsruhe", "review_count": 4, "name": "Badische Backstube F. u. E. Weber", "neighborhoods": [], "longitude": 8.36022, "state": "BW", "stars": 3.5, "latitude": 49.0112, "attributes": {"Accepts Credit Cards": false, "Price Range": 2}, "type": "business"}
{"business_id": "xzucDze4qdMbBNlf4WIM6g", "full_address": "Steinh\u00e4userstr. 22\n76135 Karlsruhe", "hours": {}, "open": true, "categories": ["Bakeries", "Food"], "city": "Karlsruhe", "review_count": 3, "name": "Badische Backstub", "neighborhoods": [], "longitude": 8.3803797, "state": "BW", "stars": 2.5, "latitude": 48.9966844, "attributes": {}, "type": "business"}
{"business_id": "NGrDYIN8_C6b5zNXRUM-Qg", "full_address": "Ludwig-Wilhelm-Str. 14\n76131 Karlsruhe", "hours": {}, "open": true, "categories": ["Bakeries", "Food"], "city": "Karlsruhe", "review_count": 4, "name": "Badische Backstub F. u. E. Weber", "neighborhoods": [], "longitude": 8.42262, "state": "BW", "stars": 3.5, "latitude": 49.0094, "attributes": {"Delivery": false, "Accepts Credit Cards": false, "Price Range": 2}, "type": "business"}
{"business_id": "JemgxznJZEEAsxfYmV5fBA", "full_address": "Mannheimer Str. 51\n76131 Karlsruhe", "hours": {}, "open": true, "categories": ["Bakeries", "Food"], "city": "Karlsruhe", "review_count": 3, "name": "Brotkorb - Hatz B\u00e4ckereibetriebe", "neighborhoods": [], "longitude": 8.4443215, "state": "BW", "stars": 3.0, "latitude": 49.0170552, "attributes": {"Price Range": 2}, "type": "business"}
{"business_id": "UbMfwmBEU9Jt3rRysjh4Yg", "full_address": "Ludwig-Erhard-Allee 20-24\n76131 Karlsruhe", "hours": {"Monday": {"close": "20:00", "open": "06:00"}, "Tuesday": {"close": "20:00", "open": "06:00"}, "Friday": {"close": "20:00", "open": "06:00"}, "Wednesday": {"close": "20:00", "open": "06:00"}, "Thursday": {"close": "20:00", "open": "06:00"}, "Sunday": {"close": "18:00", "open": "08:00"}, "Saturday": {"close": "18:00", "open": "07:00"}}, "open": true, "categories": ["Bakeries", "Food", "Cafes", "Restaurants"], "city": "Karlsruhe", "review_count": 10, "name": "Laib & Leben", "neighborhoods": [], "longitude": 8.42019146223942, "state": "BW", "stars": 3.5, "latitude": 49.0038897551285, "attributes": {"Take-out": true, "Good For": {"dessert": false, "latenight": false, "lunch": false, "dinner": false, "breakfast": false, "brunch": false}, "Noise Level": "average", "Takes Reservations": false, "Delivery": false, "Parking": {"garage": false, "street": false, "validated": false, "lot": false, "valet": false}, "Has TV": false, "Outdoor Seating": false, "Attire": "casual", "Good for Kids": false, "Good For Groups": true, "Price Range": 2}, "type": "business"}
{"business_id": "3M9El2CzdEeSJUuDzZkslg", "full_address": "Nelkenstra\u00dfe 21\nam Gutenbergplatz\n76135 Karlsruhe", "hours": {}, "open": false, "categories": ["Bakeries", "Food"], "city": "Karlsruhe", "review_count": 19, "name": "Gro\u00dfmudder's B\u00e4ckerei und Kaffestube", "neighborhoods": [], "longitude": 8.37639, "state": "BW", "stars": 2.5, "latitude": 49.0091, "attributes": {"Parking": {"garage": false, "validated": false, "street": false, "lot": false, "valet": false}, "Wheelchair Accessible": false, "Price Range": 3}, "type": "business"}
{"business_id": "QURbSnCwx5NlCszp_H89Ng", "full_address": "Wichernstr\nWeststadt\n76135 Karlsruhe", "hours": {}, "open": true, "categories": ["Bakeries", "Food"], "city": "Karlsruhe", "review_count": 3, "name": "B\u00e4ckerei Neff Zweigstelle", "neighborhoods": [], "longitude": 8.36872, "state": "BW", "stars": 2.5, "latitude": 49.0056, "attributes": {}, "type": "business"}
{"business_id": "3LA8ABDMBZnlEnVMmJ-YIA", "full_address": "Rudolfstr. 11\n76131 Karlsruhe", "hours": {"Monday": {"close": "19:00", "open": "06:00"}, "Tuesday": {"close": "19:00", "open": "06:00"}, "Friday": {"close": "19:00", "open": "06:00"}, "Wednesday": {"close": "19:00", "open": "06:00"}, "Thursday": {"close": "19:00", "open": "06:00"}, "Sunday": {"close": "11:00", "open": "08:00"}, "Saturday": {"close": "13:00", "open": "06:00"}}, "open": true, "categories": ["Bakeries", "Food", "Patisserie/Cake Shop", "Cafes", "Restaurants"], "city": "Karlsruhe", "review_count": 5, "name": "B\u00e4ckerei-Konditorei Visel", "neighborhoods": [], "longitude": 8.42244, "state": "BW", "stars": 3.0, "latitude": 49.00981, "attributes": {"Take-out": false, "Wi-Fi": "no", "Good For": {"dessert": false, "latenight": false, "lunch": false, "dinner": false, "breakfast": false, "brunch": false}, "Caters": false, "Noise Level": "average", "Takes Reservations": false, "Has TV": false, "Delivery": false, "Ambience": {"romantic": false, "intimate": false, "classy": false, "hipster": false, "divey": false, "touristy": false, "trendy": false, "upscale": false, "casual": false}, "Parking": {"garage": false, "validated": false, "street": false, "lot": false, "valet": false}, "Wheelchair Accessible": false, "Outdoor Seating": false, "Attire": "casual", "Alcohol": "none", "Waiter Service": false, "Accepts Credit Cards": false, "Good for Kids": true, "Good For Groups": false, "Price Range": 2}, "type": "business"}
{"business_id": "QXou2_cNNSGNqpIUBikQOg", "full_address": "Hardtstr. 10\n76185 Karlsruhe", "hours": {}, "open": true, "categories": ["Bakeries", "Food", "Cafes", "Restaurants"], "city": "Karlsruhe", "review_count": 11, "name": "L\u00f6rz Heinrich", "neighborhoods": [], "longitude": 8.35593, "state": "BW", "stars": 4.5, "latitude": 49.0101, "attributes": {"Take-out": true, "Parking": {"garage": false, "validated": false, "street": false, "lot": false, "valet": false}, "Delivery": false, "Takes Reservations": false, "Accepts Credit Cards": false, "Good for Kids": true, "Good For Groups": true, "Price Range": 2}, "type": "business"}
{"business_id": "DXIsctlGnYN8-G-CJ6Xm6A", "full_address": "Jollystr. 27\n76137 Karlsruhe", "hours": {}, "open": true, "categories": ["Bakeries", "Food", "Patisserie/Cake Shop"], "city": "Karlsruhe", "review_count": 9, "name": "B\u00e4ckerei und Konditorei Martin Meier", "neighborhoods": [], "longitude": 8.39192, "state": "BW", "stars": 3.5, "latitude": 49.0018, "attributes": {"Parking": {"garage": false, "validated": false, "street": false, "lot": false, "valet": false}, "Accepts Credit Cards": false, "Price Range": 2}, "type": "business"}
{"business_id": "sDDPr7bV9uC1ubROF1AADQ", "full_address": "Haid-und-Neu-Str. 2\n76131 Karlsruhe", "hours": {}, "open": true, "categories": ["Bakeries", "Food"], "city": "Karlsruhe", "review_count": 3, "name": "Rudolf Neff", "neighborhoods": [], "longitude": 8.42381, "state": "BW", "stars": 3.0, "latitude": 49.0114, "attributes": {"Delivery": false, "Parking": {}, "Accepts Credit Cards": false, "Price Range": 3}, "type": "business"}
{"business_id": "ZztjV9bUMfOYMF85X0M8AA", "full_address": "Westmarkstr. 12\n76227 Karlsruhe", "hours": {"Monday": {"close": "18:30", "open": "05:30"}, "Tuesday": {"close": "18:30", "open": "05:30"}, "Friday": {"close": "18:30", "open": "05:30"}, "Wednesday": {"close": "18:30", "open": "05:30"}, "Thursday": {"close": "18:30", "open": "05:30"}, "Sunday": {"close": "18:30", "open": "05:30"}, "Saturday": {"close": "13:00", "open": "05:30"}}, "open": true, "categories": ["Bakeries", "Food"], "city": "Karlsruhe", "review_count": 4, "name": "Weber", "neighborhoods": [], "longitude": 8.46038, "state": "BW", "stars": 5.0, "latitude": 48.992, "attributes": {"Parking": {"garage": false, "street": false, "validated": false, "lot": false, "valet": false}, "Accepts Credit Cards": false, "Price Range": 2}, "type": "business"}
{"business_id": "Tm3w1r_ysQSxu-hnV9BetA", "full_address": "Industriestr. 6\n76467 Bietigheim", "hours": {}, "open": true, "categories": ["Bakeries", "Grocery", "Food", "Cafes", "Coffee & Tea", "Restaurants"], "city": "Bietigheim", "review_count": 3, "name": "F\u00f6ry B\u00e4ckerei und Caf\u00e9", "neighborhoods": [], "longitude": 8.25536, "state": "BW", "stars": 5.0, "latitude": 48.9109, "attributes": {"Price Range": 2}, "type": "business"}
{"business_id": "Pnu3TLl2vKHd9kWe6EuNTQ", "full_address": "Zeppelinstr. 15\n76185 Karlsruhe", "hours": {"Monday": {"close": "18:30", "open": "06:00"}, "Tuesday": {"close": "18:30", "open": "06:00"}, "Friday": {"close": "18:30", "open": "06:00"}, "Wednesday": {"close": "18:30", "open": "06:00"}, "Thursday": {"close": "18:30", "open": "06:00"}, "Sunday": {"close": "11:00", "open": "08:00"}, "Saturday": {"close": "17:00", "open": "06:00"}}, "open": true, "categories": ["Bakeries", "Food", "Patisserie/Cake Shop"], "city": "Karlsruhe", "review_count": 3, "name": "B\u00e4ckerei-Konditorei Richard Nu\u00dfbaumer", "neighborhoods": [], "longitude": 8.35607, "state": "BW", "stars": 4.0, "latitude": 49.0025, "attributes": {"Parking": {"garage": false, "street": false, "validated": false, "lot": false, "valet": false}, "Accepts Credit Cards": false, "Wheelchair Accessible": true, "Price Range": 2}, "type": "business"}
{"business_id": "gY-_DMsOpYzSGxHp8Pqigg", "full_address": "Kaiserallee 51 A\n76133 Karlsruhe", "hours": {"Monday": {"close": "19:00", "open": "08:00"}, "Tuesday": {"close": "19:00", "open": "08:00"}, "Friday": {"close": "19:00", "open": "08:00"}, "Wednesday": {"close": "19:00", "open": "08:00"}, "Thursday": {"close": "19:00", "open": "08:00"}, "Sunday": {"close": "19:00", "open": "08:00"}, "Saturday": {"close": "19:00", "open": "08:00"}}, "open": true, "categories": ["Bakeries", "Food", "Coffee & Tea", "Cafes", "Restaurants"], "city": "Karlsruhe", "review_count": 25, "name": "Mary Poppins", "neighborhoods": [], "longitude": 8.37741, "state": "BW", "stars": 3.5, "latitude": 49.01059, "attributes": {"Good For": {"dessert": false, "latenight": false, "lunch": false, "dinner": false, "breakfast": false, "brunch": false}, "Takes Reservations": false, "Has TV": false, "Delivery": false, "Parking": {"garage": false, "validated": false, "street": true, "lot": false, "valet": false}, "Wheelchair Accessible": false, "Outdoor Seating": true, "Attire": "casual", "Alcohol": "none", "Smoking": "outdoor", "Accepts Credit Cards": true, "Good for Kids": true, "Good For Groups": true, "Price Range": 3}, "type": "business"}
{"business_id": "qjdPgk2OuDjmgQkLAEmpIg", "full_address": "Baumeisterstr. 20\n76137 Karlsruhe", "hours": {"Monday": {"close": "18:00", "open": "06:00"}, "Tuesday": {"close": "18:00", "open": "06:00"}, "Friday": {"close": "18:00", "open": "06:00"}, "Wednesday": {"close": "18:00", "open": "06:00"}, "Thursday": {"close": "18:00", "open": "06:00"}, "Sunday": {"close": "16:00", "open": "14:00"}, "Saturday": {"close": "16:00", "open": "06:00"}}, "open": true, "categories": ["Bakeries", "Food"], "city": "Karlsruhe", "review_count": 21, "name": "Gordani", "neighborhoods": [], "longitude": 8.40658, "state": "BW", "stars": 5.0, "latitude": 49.0039, "attributes": {"Delivery": false, "Parking": {"garage": false, "street": true, "validated": false, "lot": false, "valet": false}, "Accepts Credit Cards": false, "Wheelchair Accessible": false, "Price Range": 2}, "type": "business"}
{"business_id": "QRTW1rfw1KKjsSHbboCaJQ", "full_address": "Richard-Wagner-Str. 27\n76275 Ettlingen", "hours": {}, "open": true, "categories": ["Bakeries", "Grocery", "Shopping", "Food", "Post Offices", "Butcher", "Public Services & Government"], "city": "Ettlingen", "review_count": 5, "name": "CAP-Markt", "neighborhoods": [], "longitude": 8.36592, "state": "BW", "stars": 4.5, "latitude": 48.9246, "attributes": {"Price Range": 3}, "type": "business"}
{"business_id": "zd79xkJ8xqQcU26zsf8IrQ", "full_address": "Pfinztalstr. 12\n76227 Karlsruhe", "hours": {"Monday": {"close": "18:30", "open": "06:30"}, "Tuesday": {"close": "18:30", "open": "06:30"}, "Friday": {"close": "18:30", "open": "06:30"}, "Wednesday": {"close": "18:30", "open": "06:30"}, "Thursday": {"close": "18:30", "open": "06:30"}, "Saturday": {"close": "13:00", "open": "06:30"}}, "open": true, "categories": ["Bakeries", "Food", "Sporting Goods", "Shopping"], "city": "Karlsruhe", "review_count": 5, "name": "B\u00e4ckerei Weber", "neighborhoods": [], "longitude": 8.474428, "state": "BW", "stars": 4.0, "latitude": 48.9993023, "attributes": {"Parking": {"garage": false, "validated": false, "street": false, "lot": false, "valet": false}, "Price Range": 1}, "type": "business"}
{"business_id": "OSLkuwNmT-bAXWx_T-SbUg", "full_address": "Veilchenstr. 15\n76131 Karlsruhe", "hours": {"Monday": {"close": "19:00", "open": "06:00"}, "Tuesday": {"close": "19:00", "open": "06:00"}, "Friday": {"close": "19:00", "open": "06:00"}, "Wednesday": {"close": "19:00", "open": "06:00"}, "Thursday": {"close": "19:00", "open": "06:00"}, "Sunday": {"close": "11:00", "open": "08:00"}, "Saturday": {"close": "18:00", "open": "06:00"}}, "open": true, "categories": ["Bakeries", "Food", "Patisserie/Cake Shop", "Cafes", "Restaurants"], "city": "Karlsruhe", "review_count": 3, "name": "B\u00e4ckerei-Konditorei Visel", "neighborhoods": [], "longitude": 8.4279634, "state": "BW", "stars": 4.5, "latitude": 49.0094449, "attributes": {"Accepts Credit Cards": false, "Wheelchair Accessible": false, "Parking": {"garage": false, "validated": false, "street": false, "lot": false, "valet": false}}, "type": "business"}
{"business_id": "Ko0IWAEQtHd5kWr30PXD_A", "full_address": "Leipziger Allee 16\n76139 Karlsruhe", "hours": {"Monday": {"close": "18:00", "open": "06:30"}, "Tuesday": {"close": "18:00", "open": "06:30"}, "Friday": {"close": "18:00", "open": "06:30"}, "Wednesday": {"close": "18:00", "open": "06:30"}, "Thursday": {"close": "18:00", "open": "06:30"}, "Sunday": {"close": "11:00", "open": "08:00"}, "Saturday": {"close": "12:30", "open": "06:00"}}, "open": true, "categories": ["Bakeries", "Food", "Patisserie/Cake Shop", "Cafes", "Restaurants"], "city": "Karlsruhe", "review_count": 3, "name": "B\u00e4ckerei-Konditorei Visel", "neighborhoods": [], "longitude": 8.4555942, "state": "BW", "stars": 3.5, "latitude": 49.0331501, "attributes": {"Take-out": true, "Wi-Fi": "no", "Alcohol": "none", "Caters": false, "Noise Level": "average", "Takes Reservations": false, "Has TV": false, "Delivery": false, "Parking": {"garage": false, "validated": false, "street": false, "lot": false, "valet": false}, "Wheelchair Accessible": true, "Outdoor Seating": false, "Attire": "casual", "Ambience": {"romantic": false, "intimate": false, "classy": false, "hipster": false, "divey": false, "touristy": false, "trendy": false, "upscale": false, "casual": false}, "Waiter Service": false, "Accepts Credit Cards": false, "Good for Kids": true, "Good For Groups": false, "Price Range": 3}, "type": "business"}
{"business_id": "6ofpfv6Bb4_KaUN3YoT8Ew", "full_address": "Bahnhofplatz 1\n76137 Karlsruhe", "hours": {}, "open": true, "categories": ["Bakeries", "Food"], "city": "Karlsruhe", "review_count": 5, "name": "Wiener Feinb\u00e4ckerei Heberer", "neighborhoods": [], "longitude": 8.40179, "state": "BW", "stars": 1.0, "latitude": 48.994, "attributes": {"Wheelchair Accessible": true, "Price Range": 3}, "type": "business"}
{"business_id": "BPY-04VxlC60qxww38dFTQ", "full_address": "Kaiserstr. 241\n76133 Karlsruhe", "hours": {"Monday": {"close": "18:00", "open": "08:00"}, "Tuesday": {"close": "18:00", "open": "08:00"}, "Friday": {"close": "18:00", "open": "08:00"}, "Wednesday": {"close": "18:00", "open": "08:00"}, "Thursday": {"close": "18:00", "open": "08:00"}, "Sunday": {"close": "18:00", "open": "10:00"}, "Saturday": {"close": "18:00", "open": "08:00"}}, "open": true, "categories": ["Bakeries", "Food", "Patisserie/Cake Shop", "Cafes", "Restaurants"], "city": "Karlsruhe", "review_count": 25, "name": "Endle", "neighborhoods": [], "longitude": 8.3907078, "state": "BW", "stars": 4.0, "latitude": 49.0101131, "attributes": {"Good For": {"dessert": false, "latenight": false, "lunch": false, "dinner": false, "breakfast": false, "brunch": false}, "Attire": "casual", "Smoking": "no", "Outdoor Seating": false, "Parking": {"garage": false, "validated": false, "street": false, "lot": false, "valet": false}, "Waiter Service": true, "Accepts Credit Cards": true, "Good for Kids": true, "Price Range": 3}, "type": "business"}
{"business_id": "gKrRXJNjGlZHsoJ7oBbb3g", "full_address": "Kaiserstr. 141\n76133 Karlsruhe", "hours": {}, "open": true, "categories": ["Bakeries", "Food", "Coffee & Tea", "Cafes", "Restaurants"], "city": "Karlsruhe", "review_count": 21, "name": "B\u00f6ckeler's Cafe", "neighborhoods": [], "longitude": 8.40339, "state": "BW", "stars": 2.5, "latitude": 49.00934, "attributes": {"Take-out": true, "Good For": {"dessert": false, "latenight": false, "lunch": false, "dinner": false, "brunch": false, "breakfast": false}, "Takes Reservations": true, "Delivery": false, "Parking": {"garage": false, "validated": false, "street": false, "lot": false, "valet": false}, "Outdoor Seating": true, "Attire": "casual", "Alcohol": "beer_and_wine", "Accepts Credit Cards": true, "Good for Kids": true, "Good For Groups": true, "Price Range": 3}, "type": "business"}
{"business_id": "iYyVFRBxOd5IwVSrsQu1BQ", "full_address": "Georg-Friedrich-Str. 7\n76131 Karlsruhe", "hours": {}, "open": true, "categories": ["Bakeries", "Food"], "city": "Karlsruhe", "review_count": 3, "name": "Der Backladen", "neighborhoods": [], "longitude": 8.42358, "state": "BW", "stars": 2.5, "latitude": 49.01, "attributes": {"Parking": {"garage": false, "validated": false, "street": false, "lot": false, "valet": false}, "Accepts Credit Cards": false, "Wheelchair Accessible": false, "Price Range": 2}, "type": "business"}
{"business_id": "H5HP3XK0wYpCeHga60zg4Q", "full_address": "Rheinstr. 34\n76185 Karlsruhe", "hours": {}, "open": true, "categories": ["Bakeries", "Food"], "city": "Karlsruhe", "review_count": 4, "name": "Badische Backstube F. u. E. Weber", "neighborhoods": [], "longitude": 8.36022, "state": "BW", "stars": 3.5, "latitude": 49.0112, "attributes": {"Accepts Credit Cards": false, "Price Range": 2}, "type": "business"}
{"business_id": "xzucDze4qdMbBNlf4WIM6g", "full_address": "Steinh\u00e4userstr. 22\n76135 Karlsruhe", "hours": {}, "open": true, "categories": ["Bakeries", "Food"], "city": "Karlsruhe", "review_count": 3, "name": "Badische Backstub", "neighborhoods": [], "longitude": 8.3803797, "state": "BW", "stars": 2.5, "latitude": 48.9966844, "attributes": {}, "type": "business"}
{"business_id": "NGrDYIN8_C6b5zNXRUM-Qg", "full_address": "Ludwig-Wilhelm-Str. 14\n76131 Karlsruhe", "hours": {}, "open": true, "categories": ["Bakeries", "Food"], "city": "Karlsruhe", "review_count": 4, "name": "Badische Backstub F. u. E. Weber", "neighborhoods": [], "longitude": 8.42262, "state": "BW", "stars": 3.5, "latitude": 49.0094, "attributes": {"Delivery": false, "Accepts Credit Cards": false, "Price Range": 2}, "type": "business"}
{"business_id": "JemgxznJZEEAsxfYmV5fBA", "full_address": "Mannheimer Str. 51\n76131 Karlsruhe", "hours": {}, "open": true, "categories": ["Bakeries", "Food"], "city": "Karlsruhe", "review_count": 3, "name": "Brotkorb - Hatz B\u00e4ckereibetriebe", "neighborhoods": [], "longitude": 8.4443215, "state": "BW", "stars": 3.0, "latitude": 49.0170552, "attributes": {"Price Range": 2}, "type": "business"}
{"business_id": "UbMfwmBEU9Jt3rRysjh4Yg", "full_address": "Ludwig-Erhard-Allee 20-24\n76131 Karlsruhe", "hours": {"Monday": {"close": "20:00", "open": "06:00"}, "Tuesday": {"close": "20:00", "open": "06:00"}, "Friday": {"close": "20:00", "open": "06:00"}, "Wednesday": {"close": "20:00", "open": "06:00"}, "Thursday": {"close": "20:00", "open": "06:00"}, "Sunday": {"close": "18:00", "open": "08:00"}, "Saturday": {"close": "18:00", "open": "07:00"}}, "open": true, "categories": ["Bakeries", "Food", "Cafes", "Restaurants"], "city": "Karlsruhe", "review_count": 10, "name": "Laib & Leben", "neighborhoods": [], "longitude": 8.42019146223942, "state": "BW", "stars": 3.5, "latitude": 49.0038897551285, "attributes": {"Take-out": true, "Good For": {"dessert": false, "latenight": false, "lunch": false, "dinner": false, "breakfast": false, "brunch": false}, "Noise Level": "average", "Takes Reservations": false, "Delivery": false, "Parking": {"garage": false, "street": false, "validated": false, "lot": false, "valet": false}, "Has TV": false, "Outdoor Seating": false, "Attire": "casual", "Good for Kids": false, "Good For Groups": true, "Price Range": 2}, "type": "business"}
{"business_id": "3M9El2CzdEeSJUuDzZkslg", "full_address": "Nelkenstra\u00dfe 21\nam Gutenbergplatz\n76135 Karlsruhe", "hours": {}, "open": false, "categories": ["Bakeries", "Food"], "city": "Karlsruhe", "review_count": 19, "name": "Gro\u00dfmudder's B\u00e4ckerei und Kaffestube", "neighborhoods": [], "longitude": 8.37639, "state": "BW", "stars": 2.5, "latitude": 49.0091, "attributes": {"Parking": {"garage": false, "validated": false, "street": false, "lot": false, "valet": false}, "Wheelchair Accessible": false, "Price Range": 3}, "type": "business"}
{"business_id": "QURbSnCwx5NlCszp_H89Ng", "full_address": "Wichernstr\nWeststadt\n76135 Karlsruhe", "hours": {}, "open": true, "categories": ["Bakeries", "Food"], "city": "Karlsruhe", "review_count": 3, "name": "B\u00e4ckerei Neff Zweigstelle", "neighborhoods": [], "longitude": 8.36872, "state": "BW", "stars": 2.5, "latitude": 49.0056, "attributes": {}, "type": "business"}
{"business_id": "3LA8ABDMBZnlEnVMmJ-YIA", "full_address": "Rudolfstr. 11\n76131 Karlsruhe", "hours": {"Monday": {"close": "19:00", "open": "06:00"}, "Tuesday": {"close": "19:00", "open": "06:00"}, "Friday": {"close": "19:00", "open": "06:00"}, "Wednesday": {"close": "19:00", "open": "06:00"}, "Thursday": {"close": "19:00", "open": "06:00"}, "Sunday": {"close": "11:00", "open": "08:00"}, "Saturday": {"close": "13:00", "open": "06:00"}}, "open": true, "categories": ["Bakeries", "Food", "Patisserie/Cake Shop", "Cafes", "Restaurants"], "city": "Karlsruhe", "review_count": 5, "name": "B\u00e4ckerei-Konditorei Visel", "neighborhoods": [], "longitude": 8.42244, "state": "BW", "stars": 3.0, "latitude": 49.00981, "attributes": {"Take-out": false, "Wi-Fi": "no", "Good For": {"dessert": false, "latenight": false, "lunch": false, "dinner": false, "breakfast": false, "brunch": false}, "Caters": false, "Noise Level": "average", "Takes Reservations": false, "Has TV": false, "Delivery": false, "Ambience": {"romantic": false, "intimate": false, "classy": false, "hipster": false, "divey": false, "touristy": false, "trendy": false, "upscale": false, "casual": false}, "Parking": {"garage": false, "validated": false, "street": false, "lot": false, "valet": false}, "Wheelchair Accessible": false, "Outdoor Seating": false, "Attire": "casual", "Alcohol": "none", "Waiter Service": false, "Accepts Credit Cards": false, "Good for Kids": true, "Good For Groups": false, "Price Range": 2}, "type": "business"}
{"business_id": "QXou2_cNNSGNqpIUBikQOg", "full_address": "Hardtstr. 10\n76185 Karlsruhe", "hours": {}, "open": true, "categories": ["Bakeries", "Food", "Cafes", "Restaurants"], "city": "Karlsruhe", "review_count": 11, "name": "L\u00f6rz Heinrich", "neighborhoods": [], "longitude": 8.35593, "state": "BW", "stars": 4.5, "latitude": 49.0101, "attributes": {"Take-out": true, "Parking": {"garage": false, "validated": false, "street": false, "lot": false, "valet": false}, "Delivery": false, "Takes Reservations": false, "Accepts Credit Cards": false, "Good for Kids": true, "Good For Groups": true, "Price Range": 2}, "type": "business"}
{"business_id": "DXIsctlGnYN8-G-CJ6Xm6A", "full_address": "Jollystr. 27\n76137 Karlsruhe", "hours": {}, "open": true, "categories": ["Bakeries", "Food", "Patisserie/Cake Shop"], "city": "Karlsruhe", "review_count": 9, "name": "B\u00e4ckerei und Konditorei Martin Meier", "neighborhoods": [], "longitude": 8.39192, "state": "BW", "stars": 3.5, "latitude": 49.0018, "attributes": {"Parking": {"garage": false, "validated": false, "street": false, "lot": false, "valet": false}, "Accepts Credit Cards": false, "Price Range": 2}, "type": "business"}
{"business_id": "sDDPr7bV9uC1ubROF1AADQ", "full_address": "Haid-und-Neu-Str. 2\n76131 Karlsruhe", "hours": {}, "open": true, "categories": ["Bakeries", "Food"], "city": "Karlsruhe", "review_count": 3, "name": "Rudolf Neff", "neighborhoods": [], "longitude": 8.42381, "state": "BW", "stars": 3.0, "latitude": 49.0114, "attributes": {"Delivery": false, "Parking": {}, "Accepts Credit Cards": false, "Price Range": 3}, "type": "business"}
{"business_id": "ZztjV9bUMfOYMF85X0M8AA", "full_address": "Westmarkstr. 12\n76227 Karlsruhe", "hours": {"Monday": {"close": "18:30", "open": "05:30"}, "Tuesday": {"close": "18:30", "open": "05:30"}, "Friday": {"close": "18:30", "open": "05:30"}, "Wednesday": {"close": "18:30", "open": "05:30"}, "Thursday": {"close": "18:30", "open": "05:30"}, "Sunday": {"close": "18:30", "open": "05:30"}, "Saturday": {"close": "13:00", "open": "05:30"}}, "open": true, "categories": ["Bakeries", "Food"], "city": "Karlsruhe", "review_count": 4, "name": "Weber", "neighborhoods": [], "longitude": 8.46038, "state": "BW", "stars": 5.0, "latitude": 48.992, "attributes": {"Parking": {"garage": false, "street": false, "validated": false, "lot": false, "valet": false}, "Accepts Credit Cards": false, "Price Range": 2}, "type": "business"}
{"business_id": "Tm3w1r_ysQSxu-hnV9BetA", "full_address": "Industriestr. 6\n76467 Bietigheim", "hours": {}, "open": true, "categories": ["Bakeries", "Grocery", "Food", "Cafes", "Coffee & Tea", "Restaurants"], "city": "Bietigheim", "review_count": 3, "name": "F\u00f6ry B\u00e4ckerei und Caf\u00e9", "neighborhoods": [], "longitude": 8.25536, "state": "BW", "stars": 5.0, "latitude": 48.9109, "attributes": {"Price Range": 2}, "type": "business"}
{"business_id": "Pnu3TLl2vKHd9kWe6EuNTQ", "full_address": "Zeppelinstr. 15\n76185 Karlsruhe", "hours": {"Monday": {"close": "18:30", "open": "06:00"}, "Tuesday": {"close": "18:30", "open": "06:00"}, "Friday": {"close": "18:30", "open": "06:00"}, "Wednesday": {"close": "18:30", "open": "06:00"}, "Thursday": {"close": "18:30", "open": "06:00"}, "Sunday": {"close": "11:00", "open": "08:00"}, "Saturday": {"close": "17:00", "open": "06:00"}}, "open": true, "categories": ["Bakeries", "Food", "Patisserie/Cake Shop"], "city": "Karlsruhe", "review_count": 3, "name": "B\u00e4ckerei-Konditorei Richard Nu\u00dfbaumer", "neighborhoods": [], "longitude": 8.35607, "state": "BW", "stars": 4.0, "latitude": 49.0025, "attributes": {"Parking": {"garage": false, "street": false, "validated": false, "lot": false, "valet": false}, "Accepts Credit Cards": false, "Wheelchair Accessible": true, "Price Range": 2}, "type": "business"}
{"business_id": "gY-_DMsOpYzSGxHp8Pqigg", "full_address": "Kaiserallee 51 A\n76133 Karlsruhe", "hours": {"Monday": {"close": "19:00", "open": "08:00"}, "Tuesday": {"close": "19:00", "open": "08:00"}, "Friday": {"close": "19:00", "open": "08:00"}, "Wednesday": {"close": "19:00", "open": "08:00"}, "Thursday": {"close": "19:00", "open": "08:00"}, "Sunday": {"close": "19:00", "open": "08:00"}, "Saturday": {"close": "19:00", "open": "08:00"}}, "open": true, "categories": ["Bakeries", "Food", "Coffee & Tea", "Cafes", "Restaurants"], "city": "Karlsruhe", "review_count": 25, "name": "Mary Poppins", "neighborhoods": [], "longitude": 8.37741, "state": "BW", "stars": 3.5, "latitude": 49.01059, "attributes": {"Good For": {"dessert": false, "latenight": false, "lunch": false, "dinner": false, "breakfast": false, "brunch": false}, "Takes Reservations": false, "Has TV": false, "Delivery": false, "Parking": {"garage": false, "validated": false, "street": true, "lot": false, "valet": false}, "Wheelchair Accessible": false, "Outdoor Seating": true, "Attire": "casual", "Alcohol": "none", "Smoking": "outdoor", "Accepts Credit Cards": true, "Good for Kids": true, "Good For Groups": true, "Price Range": 3}, "type": "business"}
{"business_id": "qjdPgk2OuDjmgQkLAEmpIg", "full_address": "Baumeisterstr. 20\n76137 Karlsruhe", "hours": {"Monday": {"close": "18:00", "open": "06:00"}, "Tuesday": {"close": "18:00", "open": "06:00"}, "Friday": {"close": "18:00", "open": "06:00"}, "Wednesday": {"close": "18:00", "open": "06:00"}, "Thursday": {"close": "18:00", "open": "06:00"}, "Sunday": {"close": "16:00", "open": "14:00"}, "Saturday": {"close": "16:00", "open": "06:00"}}, "open": true, "categories": ["Bakeries", "Food"], "city": "Karlsruhe", "review_count": 21, "name": "Gordani", "neighborhoods": [], "longitude": 8.40658, "state": "BW", "stars": 5.0, "latitude": 49.0039, "attributes": {"Delivery": false, "Parking": {"garage": false, "street": true, "validated": false, "lot": false, "valet": false}, "Accepts Credit Cards": false, "Wheelchair Accessible": false, "Price Range": 2}, "type": "business"}
{"business_id": "QRTW1rfw1KKjsSHbboCaJQ", "full_address": "Richard-Wagner-Str. 27\n76275 Ettlingen", "hours": {}, "open": true, "categories": ["Bakeries", "Grocery", "Shopping", "Food", "Post Offices", "Butcher", "Public Services & Government"], "city": "Ettlingen", "review_count": 5, "name": "CAP-Markt", "neighborhoods": [], "longitude": 8.36592, "state": "BW", "stars": 4.5, "latitude": 48.9246, "attributes": {"Price Range": 3}, "type": "business"}
{"business_id": "zd79xkJ8xqQcU26zsf8IrQ", "full_address": "Pfinztalstr. 12\n76227 Karlsruhe", "hours": {"Monday": {"close": "18:30", "open": "06:30"}, "Tuesday": {"close": "18:30", "open": "06:30"}, "Friday": {"close": "18:30", "open": "06:30"}, "Wednesday": {"close": "18:30", "open": "06:30"}, "Thursday": {"close": "18:30", "open": "06:30"}, "Saturday": {"close": "13:00", "open": "06:30"}}, "open": true, "categories": ["Bakeries", "Food", "Sporting Goods", "Shopping"], "city": "Karlsruhe", "review_count": 5, "name": "B\u00e4ckerei Weber", "neighborhoods": [], "longitude": 8.474428, "state": "BW", "stars": 4.0, "latitude": 48.9993023, "attributes": {"Parking": {"garage": false, "validated": false, "street": false, "lot": false, "valet": false}, "Price Range": 1}, "type": "business"}
{"business_id": "OSLkuwNmT-bAXWx_T-SbUg", "full_address": "Veilchenstr. 15\n76131 Karlsruhe", "hours": {"Monday": {"close": "19:00", "open": "06:00"}, "Tuesday": {"close": "19:00", "open": "06:00"}, "Friday": {"close": "19:00", "open": "06:00"}, "Wednesday": {"close": "19:00", "open": "06:00"}, "Thursday": {"close": "19:00", "open": "06:00"}, "Sunday": {"close": "11:00", "open": "08:00"}, "Saturday": {"close": "18:00", "open": "06:00"}}, "open": true, "categories": ["Bakeries", "Food", "Patisserie/Cake Shop", "Cafes", "Restaurants"], "city": "Karlsruhe", "review_count": 3, "name": "B\u00e4ckerei-Konditorei Visel", "neighborhoods": [], "longitude": 8.4279634, "state": "BW", "stars": 4.5, "latitude": 49.0094449, "attributes": {"Accepts Credit Cards": false, "Wheelchair Accessible": false, "Parking": {"garage": false, "validated": false, "street": false, "lot": false, "valet": false}}, "type": "business"}
{"business_id": "Ko0IWAEQtHd5kWr30PXD_A", "full_address": "Leipziger Allee 16\n76139 Karlsruhe", "hours": {"Monday": {"close": "18:00", "open": "06:30"}, "Tuesday": {"close": "18:00", "open": "06:30"}, "Friday": {"close": "18:00", "open": "06:30"}, "Wednesday": {"close": "18:00", "open": "06:30"}, "Thursday": {"close": "18:00", "open": "06:30"}, "Sunday": {"close": "11:00", "open": "08:00"}, "Saturday": {"close": "12:30", "open": "06:00"}}, "open": true, "categories": ["Bakeries", "Food", "Patisserie/Cake Shop", "Cafes", "Restaurants"], "city": "Karlsruhe", "review_count": 3, "name": "B\u00e4ckerei-Konditorei Visel", "neighborhoods": [], "longitude": 8.4555942, "state": "BW", "stars": 3.5, "latitude": 49.0331501, "attributes": {"Take-out": true, "Wi-Fi": "no", "Alcohol": "none", "Caters": false, "Noise Level": "average", "Takes Reservations": false, "Has TV": false, "Delivery": false, "Parking": {"garage": false, "validated": false, "street": false, "lot": false, "valet": false}, "Wheelchair Accessible": true, "Outdoor Seating": false, "Attire": "casual", "Ambience": {"romantic": false, "intimate": false, "classy": false, "hipster": false, "divey": false, "touristy": false, "trendy": false, "upscale": false, "casual": false}, "Waiter Service": false, "Accepts Credit Cards": false, "Good for Kids": true, "Good For Groups": false, "Price Range": 3}, "type": "business"}
{"business_id": "6ofpfv6Bb4_KaUN3YoT8Ew", "full_address": "Bahnhofplatz 1\n76137 Karlsruhe", "hours": {}, "open": true, "categories": ["Bakeries", "Food"], "city": "Karlsruhe", "review_count": 5, "name": "Wiener Feinb\u00e4ckerei Heberer", "neighborhoods": [], "longitude": 8.40179, "state": "BW", "stars": 1.0, "latitude": 48.994, "attributes": {"Wheelchair Accessible": true, "Price Range": 3}, "type": "business"}
{"business_id": "BPY-04VxlC60qxww38dFTQ", "full_address": "Kaiserstr. 241\n76133 Karlsruhe", "hours": {"Monday": {"close": "18:00", "open": "08:00"}, "Tuesday": {"close": "18:00", "open": "08:00"}, "Friday": {"close": "18:00", "open": "08:00"}, "Wednesday": {"close": "18:00", "open": "08:00"}, "Thursday": {"close": "18:00", "open": "08:00"}, "Sunday": {"close": "18:00", "open": "10:00"}, "Saturday": {"close": "18:00", "open": "08:00"}}, "open": true, "categories": ["Bakeries", "Food", "Patisserie/Cake Shop", "Cafes", "Restaurants"], "city": "Karlsruhe", "review_count": 25, "name": "Endle", "neighborhoods": [], "longitude": 8.3907078, "state": "BW", "stars": 4.0, "latitude": 49.0101131, "attributes": {"Good For": {"dessert": false, "latenight": false, "lunch": false, "dinner": false, "breakfast": false, "brunch": false}, "Attire": "casual", "Smoking": "no", "Outdoor Seating": false, "Parking": {"garage": false, "validated": false, "street": false, "lot": false, "valet": false}, "Waiter Service": true, "Accepts Credit Cards": true, "Good for Kids": true, "Price Range": 3}, "type": "business"}
{"business_id": "gKrRXJNjGlZHsoJ7oBbb3g", "full_address": "Kaiserstr. 141\n76133 Karlsruhe", "hours": {}, "open": true, "categories": ["Bakeries", "Food", "Coffee & Tea", "Cafes", "Restaurants"], "city": "Karlsruhe", "review_count": 21, "name": "B\u00f6ckeler's Cafe", "neighborhoods": [], "longitude": 8.40339, "state": "BW", "stars": 2.5, "latitude": 49.00934, "attributes": {"Take-out": true, "Good For": {"dessert": false, "latenight": false, "lunch": false, "dinner": false, "brunch": false, "breakfast": false}, "Takes Reservations": true, "Delivery": false, "Parking": {"garage": false, "validated": false, "street": false, "lot": false, "valet": false}, "Outdoor Seating": true, "Attire": "casual", "Alcohol": "beer_and_wine", "Accepts Credit Cards": true, "Good for Kids": true, "Good For Groups": true, "Price Range": 3}, "type": "business"}
{"business_id": "iYyVFRBxOd5IwVSrsQu1BQ", "full_address": "Georg-Friedrich-Str. 7\n76131 Karlsruhe", "hours": {}, "open": true, "categories": ["Bakeries", "Food"], "city": "Karlsruhe", "review_count": 3, "name": "Der Backladen", "neighborhoods": [], "longitude": 8.42358, "state": "BW", "stars": 2.5, "latitude": 49.01, "attributes": {"Parking": {"garage": false, "validated": false, "street": false, "lot": false, "valet": false}, "Accepts Credit Cards": false, "Wheelchair Accessible": false, "Price Range": 2}, "type": "business"}
{"business_id": "H5HP3XK0wYpCeHga60zg4Q", "full_address": "Rheinstr. 34\n76185 Karlsruhe", "hours": {}, "open": true, "categories": ["Bakeries", "Food"], "city": "Karlsruhe", "review_count": 4, "name": "Badische Backstube F. u. E. Weber", "neighborhoods": [], "longitude": 8.36022, "state": "BW", "stars": 3.5, "latitude": 49.0112, "attributes": {"Accepts Credit Cards": false, "Price Range": 2}, "type": "business"}
{"business_id": "xzucDze4qdMbBNlf4WIM6g", "full_address": "Steinh\u00e4userstr. 22\n76135 Karlsruhe", "hours": {}, "open": true, "categories": ["Bakeries", "Food"], "city": "Karlsruhe", "review_count": 3, "name": "Badische Backstub", "neighborhoods": [], "longitude": 8.3803797, "state": "BW", "stars": 2.5, "latitude": 48.9966844, "attributes": {}, "type": "business"}
{"business_id": "NGrDYIN8_C6b5zNXRUM-Qg", "full_address": "Ludwig-Wilhelm-Str. 14\n76131 Karlsruhe", "hours": {}, "open": true, "categories": ["Bakeries", "Food"], "city": "Karlsruhe", "review_count": 4, "name": "Badische Backstub F. u. E. Weber", "neighborhoods": [], "longitude": 8.42262, "state": "BW", "stars": 3.5, "latitude": 49.0094, "attributes": {"Delivery": false, "Accepts Credit Cards": false, "Price Range": 2}, "type": "business"}
{"business_id": "JemgxznJZEEAsxfYmV5fBA", "full_address": "Mannheimer Str. 51\n76131 Karlsruhe", "hours": {}, "open": true, "categories": ["Bakeries", "Food"], "city": "Karlsruhe", "review_count": 3, "name": "Brotkorb - Hatz B\u00e4ckereibetriebe", "neighborhoods": [], "longitude": 8.4443215, "state": "BW", "stars": 3.0, "latitude": 49.0170552, "attributes": {"Price Range": 2}, "type": "business"}
{"business_id": "UbMfwmBEU9Jt3rRysjh4Yg", "full_address": "Ludwig-Erhard-Allee 20-24\n76131 Karlsruhe", "hours": {"Monday": {"close": "20:00", "open": "06:00"}, "Tuesday": {"close": "20:00", "open": "06:00"}, "Friday": {"close": "20:00", "open": "06:00"}, "Wednesday": {"close": "20:00", "open": "06:00"}, "Thursday": {"close": "20:00", "open": "06:00"}, "Sunday": {"close": "18:00", "open": "08:00"}, "Saturday": {"close": "18:00", "open": "07:00"}}, "open": true, "categories": ["Bakeries", "Food", "Cafes", "Restaurants"], "city": "Karlsruhe", "review_count": 10, "name": "Laib & Leben", "neighborhoods": [], "longitude": 8.42019146223942, "state": "BW", "stars": 3.5, "latitude": 49.0038897551285, "attributes": {"Take-out": true, "Good For": {"dessert": false, "latenight": false, "lunch": false, "dinner": false, "breakfast": false, "brunch": false}, "Noise Level": "average", "Takes Reservations": false, "Delivery": false, "Parking": {"garage": false, "street": false, "validated": false, "lot": false, "valet": false}, "Has TV": false, "Outdoor Seating": false, "Attire": "casual", "Good for Kids": false, "Good For Groups": true, "Price Range": 2}, "type": "business"}
{"business_id": "3M9El2CzdEeSJUuDzZkslg", "full_address": "Nelkenstra\u00dfe 21\nam Gutenbergplatz\n76135 Karlsruhe", "hours": {}, "open": false, "categories": ["Bakeries", "Food"], "city": "Karlsruhe", "review_count": 19, "name": "Gro\u00dfmudder's B\u00e4ckerei und Kaffestube", "neighborhoods": [], "longitude": 8.37639, "state": "BW", "stars": 2.5, "latitude": 49.0091, "attributes": {"Parking": {"garage": false, "validated": false, "street": false, "lot": false, "valet": false}, "Wheelchair Accessible": false, "Price Range": 3}, "type": "business"}
{"business_id": "QURbSnCwx5NlCszp_H89Ng", "full_address": "Wichernstr\nWeststadt\n76135 Karlsruhe", "hours": {}, "open": true, "categories": ["Bakeries", "Food"], "city": "Karlsruhe", "review_count": 3, "name": "B\u00e4ckerei Neff Zweigstelle", "neighborhoods": [], "longitude": 8.36872, "state": "BW", "stars": 2.5, "latitude": 49.0056, "attributes": {}, "type": "business"}
{"business_id": "3LA8ABDMBZnlEnVMmJ-YIA", "full_address": "Rudolfstr. 11\n76131 Karlsruhe", "hours": {"Monday": {"close": "19:00", "open": "06:00"}, "Tuesday": {"close": "19:00", "open": "06:00"}, "Friday": {"close": "19:00", "open": "06:00"}, "Wednesday": {"close": "19:00", "open": "06:00"}, "Thursday": {"close": "19:00", "open": "06:00"}, "Sunday": {"close": "11:00", "open": "08:00"}, "Saturday": {"close": "13:00", "open": "06:00"}}, "open": true, "categories": ["Bakeries", "Food", "Patisserie/Cake Shop", "Cafes", "Restaurants"], "city": "Karlsruhe", "review_count": 5, "name": "B\u00e4ckerei-Konditorei Visel", "neighborhoods": [], "longitude": 8.42244, "state": "BW", "stars": 3.0, "latitude": 49.00981, "attributes": {"Take-out": false, "Wi-Fi": "no", "Good For": {"dessert": false, "latenight": false, "lunch": false, "dinner": false, "breakfast": false, "brunch": false}, "Caters": false, "Noise Level": "average", "Takes Reservations": false, "Has TV": false, "Delivery": false, "Ambience": {"romantic": false, "intimate": false, "classy": false, "hipster": false, "divey": false, "touristy": false, "trendy": false, "upscale": false, "casual": false}, "Parking": {"garage": false, "validated": false, "street": false, "lot": false, "valet": false}, "Wheelchair Accessible": false, "Outdoor Seating": false, "Attire": "casual", "Alcohol": "none", "Waiter Service": false, "Accepts Credit Cards": false, "Good for Kids": true, "Good For Groups": false, "Price Range": 2}, "type": "business"}
{"business_id": "QXou2_cNNSGNqpIUBikQOg", "full_address": "Hardtstr. 10\n76185 Karlsruhe", "hours": {}, "open": true, "categories": ["Bakeries", "Food", "Cafes", "Restaurants"], "city": "Karlsruhe", "review_count": 11, "name": "L\u00f6rz Heinrich", "neighborhoods": [], "longitude": 8.35593, "state": "BW", "stars": 4.5, "latitude": 49.0101, "attributes": {"Take-out": true, "Parking": {"garage": false, "validated": false, "street": false, "lot": false, "valet": false}, "Delivery": false, "Takes Reservations": false, "Accepts Credit Cards": false, "Good for Kids": true, "Good For Groups": true, "Price Range": 2}, "type": "business"}
{"business_id": "DXIsctlGnYN8-G-CJ6Xm6A", "full_address": "Jollystr. 27\n76137 Karlsruhe", "hours": {}, "open": true, "categories": ["Bakeries", "Food", "Patisserie/Cake Shop"], "city": "Karlsruhe", "review_count": 9, "name": "B\u00e4ckerei und Konditorei Martin Meier", "neighborhoods": [], "longitude": 8.39192, "state": "BW", "stars": 3.5, "latitude": 49.0018, "attributes": {"Parking": {"garage": false, "validated": false, "street": false, "lot": false, "valet": false}, "Accepts Credit Cards": false, "Price Range": 2}, "type": "business"}
{"business_id": "sDDPr7bV9uC1ubROF1AADQ", "full_address": "Haid-und-Neu-Str. 2\n76131 Karlsruhe", "hours": {}, "open": true, "categories": ["Bakeries", "Food"], "city": "Karlsruhe", "review_count": 3, "name": "Rudolf Neff", "neighborhoods": [], "longitude": 8.42381, "state": "BW", "stars": 3.0, "latitude": 49.0114, "attributes": {"Delivery": false, "Parking": {}, "Accepts Credit Cards": false, "Price Range": 3}, "type": "business"}
{"business_id": "ZztjV9bUMfOYMF85X0M8AA", "full_address": "Westmarkstr. 12\n76227 Karlsruhe", "hours": {"Monday": {"close": "18:30", "open": "05:30"}, "Tuesday": {"close": "18:30", "open": "05:30"}, "Friday": {"close": "18:30", "open": "05:30"}, "Wednesday": {"close": "18:30", "open": "05:30"}, "Thursday": {"close": "18:30", "open": "05:30"}, "Sunday": {"close": "18:30", "open": "05:30"}, "Saturday": {"close": "13:00", "open": "05:30"}}, "open": true, "categories": ["Bakeries", "Food"], "city": "Karlsruhe", "review_count": 4, "name": "Weber", "neighborhoods": [], "longitude": 8.46038, "state": "BW", "stars": 5.0, "latitude": 48.992, "attributes": {"Parking": {"garage": false, "street": false, "validated": false, "lot": false, "valet": false}, "Accepts Credit Cards": false, "Price Range": 2}, "type": "business"}
{"business_id": "Tm3w1r_ysQSxu-hnV9BetA", "full_address": "Industriestr. 6\n76467 Bietigheim", "hours": {}, "open": true, "categories": ["Bakeries", "Grocery", "Food", "Cafes", "Coffee & Tea", "Restaurants"], "city": "Bietigheim", "review_count": 3, "name": "F\u00f6ry B\u00e4ckerei und Caf\u00e9", "neighborhoods": [], "longitude": 8.25536, "state": "BW", "stars": 5.0, "latitude": 48.9109, "attributes": {"Price Range": 2}, "type": "business"}
{"business_id": "Pnu3TLl2vKHd9kWe6EuNTQ", "full_address": "Zeppelinstr. 15\n76185 Karlsruhe", "hours": {"Monday": {"close": "18:30", "open": "06:00"}, "Tuesday": {"close": "18:30", "open": "06:00"}, "Friday": {"close": "18:30", "open": "06:00"}, "Wednesday": {"close": "18:30", "open": "06:00"}, "Thursday": {"close": "18:30", "open": "06:00"}, "Sunday": {"close": "11:00", "open": "08:00"}, "Saturday": {"close": "17:00", "open": "06:00"}}, "open": true, "categories": ["Bakeries", "Food", "Patisserie/Cake Shop"], "city": "Karlsruhe", "review_count": 3, "name": "B\u00e4ckerei-Konditorei Richard Nu\u00dfbaumer", "neighborhoods": [], "longitude": 8.35607, "state": "BW", "stars": 4.0, "latitude": 49.0025, "attributes": {"Parking": {"garage": false, "street": false, "validated": false, "lot": false, "valet": false}, "Accepts Credit Cards": false, "Wheelchair Accessible": true, "Price Range": 2}, "type": "business"}
{"business_id": "gY-_DMsOpYzSGxHp8Pqigg", "full_address": "Kaiserallee 51 A\n76133 Karlsruhe", "hours": {"Monday": {"close": "19:00", "open": "08:00"}, "Tuesday": {"close": "19:00", "open": "08:00"}, "Friday": {"close": "19:00", "open": "08:00"}, "Wednesday": {"close": "19:00", "open": "08:00"}, "Thursday": {"close": "19:00", "open": "08:00"}, "Sunday": {"close": "19:00", "open": "08:00"}, "Saturday": {"close": "19:00", "open": "08:00"}}, "open": true, "categories": ["Bakeries", "Food", "Coffee & Tea", "Cafes", "Restaurants"], "city": "Karlsruhe", "review_count": 25, "name": "Mary Poppins", "neighborhoods": [], "longitude": 8.37741, "state": "BW", "stars": 3.5, "latitude": 49.01059, "attributes": {"Good For": {"dessert": false, "latenight": false, "lunch": false, "dinner": false, "breakfast": false, "brunch": false}, "Takes Reservations": false, "Has TV": false, "Delivery": false, "Parking": {"garage": false, "validated": false, "street": true, "lot": false, "valet": false}, "Wheelchair Accessible": false, "Outdoor Seating": true, "Attire": "casual", "Alcohol": "none", "Smoking": "outdoor", "Accepts Credit Cards": true, "Good for Kids": true, "Good For Groups": true, "Price Range": 3}, "type": "business"}
{"business_id": "qjdPgk2OuDjmgQkLAEmpIg", "full_address": "Baumeisterstr. 20\n76137 Karlsruhe", "hours": {"Monday": {"close": "18:00", "open": "06:00"}, "Tuesday": {"close": "18:00", "open": "06:00"}, "Friday": {"close": "18:00", "open": "06:00"}, "Wednesday": {"close": "18:00", "open": "06:00"}, "Thursday": {"close": "18:00", "open": "06:00"}, "Sunday": {"close": "16:00", "open": "14:00"}, "Saturday": {"close": "16:00", "open": "06:00"}}, "open": true, "categories": ["Bakeries", "Food"], "city": "Karlsruhe", "review_count": 21, "name": "Gordani", "neighborhoods": [], "longitude": 8.40658, "state": "BW", "stars": 5.0, "latitude": 49.0039, "attributes": {"Delivery": false, "Parking": {"garage": false, "street": true, "validated": false, "lot": false, "valet": false}, "Accepts Credit Cards": false, "Wheelchair Accessible": false, "Price Range": 2}, "type": "business"}
{"business_id": "QRTW1rfw1KKjsSHbboCaJQ", "full_address": "Richard-Wagner-Str. 27\n76275 Ettlingen", "hours": {}, "open": true, "categories": ["Bakeries", "Grocery", "Shopping", "Food", "Post Offices", "Butcher", "Public Services & Government"], "city": "Ettlingen", "review_count": 5, "name": "CAP-Markt", "neighborhoods": [], "longitude": 8.36592, "state": "BW", "stars": 4.5, "latitude": 48.9246, "attributes": {"Price Range": 3}, "type": "business"}
{"business_id": "zd79xkJ8xqQcU26zsf8IrQ", "full_address": "Pfinztalstr. 12\n76227 Karlsruhe", "hours": {"Monday": {"close": "18:30", "open": "06:30"}, "Tuesday": {"close": "18:30", "open": "06:30"}, "Friday": {"close": "18:30", "open": "06:30"}, "Wednesday": {"close": "18:30", "open": "06:30"}, "Thursday": {"close": "18:30", "open": "06:30"}, "Saturday": {"close": "13:00", "open": "06:30"}}, "open": true, "categories": ["Bakeries", "Food", "Sporting Goods", "Shopping"], "city": "Karlsruhe", "review_count": 5, "name": "B\u00e4ckerei Weber", "neighborhoods": [], "longitude": 8.474428, "state": "BW", "stars": 4.0, "latitude": 48.9993023, "attributes": {"Parking": {"garage": false, "validated": false, "street": false, "lot": false, "valet": false}, "Price Range": 1}, "type": "business"}
{"business_id": "OSLkuwNmT-bAXWx_T-SbUg", "full_address": "Veilchenstr. 15\n76131 Karlsruhe", "hours": {"Monday": {"close": "19:00", "open": "06:00"}, "Tuesday": {"close": "19:00", "open": "06:00"}, "Friday": {"close": "19:00", "open": "06:00"}, "Wednesday": {"close": "19:00", "open": "06:00"}, "Thursday": {"close": "19:00", "open": "06:00"}, "Sunday": {"close": "11:00", "open": "08:00"}, "Saturday": {"close": "18:00", "open": "06:00"}}, "open": true, "categories": ["Bakeries", "Food", "Patisserie/Cake Shop", "Cafes", "Restaurants"], "city": "Karlsruhe", "review_count": 3, "name": "B\u00e4ckerei-Konditorei Visel", "neighborhoods": [], "longitude": 8.4279634, "state": "BW", "stars": 4.5, "latitude": 49.0094449, "attributes": {"Accepts Credit Cards": false, "Wheelchair Accessible": false, "Parking": {"garage": false, "validated": false, "street": false, "lot": false, "valet": false}}, "type": "business"}
{"business_id": "Ko0IWAEQtHd5kWr30PXD_A", "full_address": "Leipziger Allee 16\n76139 Karlsruhe", "hours": {"Monday": {"close": "18:00", "open": "06:30"}, "Tuesday": {"close": "18:00", "open": "06:30"}, "Friday": {"close": "18:00", "open": "06:30"}, "Wednesday": {"close": "18:00", "open": "06:30"}, "Thursday": {"close": "18:00", "open": "06:30"}, "Sunday": {"close": "11:00", "open": "08:00"}, "Saturday": {"close": "12:30", "open": "06:00"}}, "open": true, "categories": ["Bakeries", "Food", "Patisserie/Cake Shop", "Cafes", "Restaurants"], "city": "Karlsruhe", "review_count": 3, "name": "B\u00e4ckerei-Konditorei Visel", "neighborhoods": [], "longitude": 8.4555942, "state": "BW", "stars": 3.5, "latitude": 49.0331501, "attributes": {"Take-out": true, "Wi-Fi": "no", "Alcohol": "none", "Caters": false, "Noise Level": "average", "Takes Reservations": false, "Has TV": false, "Delivery": false, "Parking": {"garage": false, "validated": false, "street": false, "lot": false, "valet": false}, "Wheelchair Accessible": true, "Outdoor Seating": false, "Attire": "casual", "Ambience": {"romantic": false, "intimate": false, "classy": false, "hipster": false, "divey": false, "touristy": false, "trendy": false, "upscale": false, "casual": false}, "Waiter Service": false, "Accepts Credit Cards": false, "Good for Kids": true, "Good For Groups": false, "Price Range": 3}, "type": "business"}
{"business_id": "6ofpfv6Bb4_KaUN3YoT8Ew", "full_address": "Bahnhofplatz 1\n76137 Karlsruhe", "hours": {}, "open": true, "categories": ["Bakeries", "Food"], "city": "Karlsruhe", "review_count": 5, "name": "Wiener Feinb\u00e4ckerei Heberer", "neighborhoods": [], "longitude": 8.40179, "state": "BW", "stars": 1.0, "latitude": 48.994, "attributes": {"Wheelchair Accessible": true, "Price Range": 3}, "type": "business"}
{"business_id": "BPY-04VxlC60qxww38dFTQ", "full_address": "Kaiserstr. 241\n76133 Karlsruhe", "hours": {"Monday": {"close": "18:00", "open": "08:00"}, "Tuesday": {"close": "18:00", "open": "08:00"}, "Friday": {"close": "18:00", "open": "08:00"}, "Wednesday": {"close": "18:00", "open": "08:00"}, "Thursday": {"close": "18:00", "open": "08:00"}, "Sunday": {"close": "18:00", "open": "10:00"}, "Saturday": {"close": "18:00", "open": "08:00"}}, "open": true, "categories": ["Bakeries", "Food", "Patisserie/Cake Shop", "Cafes", "Restaurants"], "city": "Karlsruhe", "review_count": 25, "name": "Endle", "neighborhoods": [], "longitude": 8.3907078, "state": "BW", "stars": 4.0, "latitude": 49.0101131, "attributes": {"Good For": {"dessert": false, "latenight": false, "lunch": false, "dinner": false, "breakfast": false, "brunch": false}, "Attire": "casual", "Smoking": "no", "Outdoor Seating": false, "Parking": {"garage": false, "validated": false, "street": false, "lot": false, "valet": false}, "Waiter Service": true, "Accepts Credit Cards": true, "Good for Kids": true, "Price Range": 3}, "type": "business"}
{"business_id": "gKrRXJNjGlZHsoJ7oBbb3g", "full_address": "Kaiserstr. 141\n76133 Karlsruhe", "hours": {}, "open": true, "categories": ["Bakeries", "Food", "Coffee & Tea", "Cafes", "Restaurants"], "city": "Karlsruhe", "review_count": 21, "name": "B\u00f6ckeler's Cafe", "neighborhoods": [], "longitude": 8.40339, "state": "BW", "stars": 2.5, "latitude": 49.00934, "attributes": {"Take-out": true, "Good For": {"dessert": false, "latenight": false, "lunch": false, "dinner": false, "brunch": false, "breakfast": false}, "Takes Reservations": true, "Delivery": false, "Parking": {"garage": false, "validated": false, "street": false, "lot": false, "valet": false}, "Outdoor Seating": true, "Attire": "casual", "Alcohol": "beer_and_wine", "Accepts Credit Cards": true, "Good for Kids": true, "Good For Groups": true, "Price Range": 3}, "type": "business"}
{"business_id": "iYyVFRBxOd5IwVSrsQu1BQ", "full_address": "Georg-Friedrich-Str. 7\n76131 Karlsruhe", "hours": {}, "open": true, "categories": ["Bakeries", "Food"], "city": "Karlsruhe", "review_count": 3, "name": "Der Backladen", "neighborhoods": [], "longitude": 8.42358, "state": "BW", "stars": 2.5, "latitude": 49.01, "attributes": {"Parking": {"garage": false, "validated": false, "street": false, "lot": false, "valet": false}, "Accepts Credit Cards": false, "Wheelchair Accessible": false, "Price Range": 2}, "type": "business"}
{"business_id": "H5HP3XK0wYpCeHga60zg4Q", "full_address": "Rheinstr. 34\n76185 Karlsruhe", "hours": {}, "open": true, "categories": ["Bakeries", "Food"], "city": "Karlsruhe", "review_count": 4, "name": "Badische Backstube F. u. E. Weber", "neighborhoods": [], "longitude": 8.36022, "state": "BW", "stars": 3.5, "latitude": 49.0112, "attributes": {"Accepts Credit Cards": false, "Price Range": 2}, "type": "business"}
{"business_id": "xzucDze4qdMbBNlf4WIM6g", "full_address": "Steinh\u00e4userstr. 22\n76135 Karlsruhe", "hours": {}, "open": true, "categories": ["Bakeries", "Food"], "city": "Karlsruhe", "review_count": 3, "name": "Badische Backstub", "neighborhoods": [], "longitude": 8.3803797, "state": "BW", "stars": 2.5, "latitude": 48.9966844, "attributes": {}, "type": "business"}
{"business_id": "NGrDYIN8_C6b5zNXRUM-Qg", "full_address": "Ludwig-Wilhelm-Str. 14\n76131 Karlsruhe", "hours": {}, "open": true, "categories": ["Bakeries", "Food"], "city": "Karlsruhe", "review_count": 4, "name": "Badische Backstub F. u. E. Weber", "neighborhoods": [], "longitude": 8.42262, "state": "BW", "stars": 3.5, "latitude": 49.0094, "attributes": {"Delivery": false, "Accepts Credit Cards": false, "Price Range": 2}, "type": "business"}
{"business_id": "JemgxznJZEEAsxfYmV5fBA", "full_address": "Mannheimer Str. 51\n76131 Karlsruhe", "hours": {}, "open": true, "categories": ["Bakeries", "Food"], "city": "Karlsruhe", "review_count": 3, "name": "Brotkorb - Hatz B\u00e4ckereibetriebe", "neighborhoods": [], "longitude": 8.4443215, "state": "BW", "stars": 3.0, "latitude": 49.0170552, "attributes": {"Price Range": 2}, "type": "business"}
{"business_id": "UbMfwmBEU9Jt3rRysjh4Yg", "full_address": "Ludwig-Erhard-Allee 20-24\n76131 Karlsruhe", "hours": {"Monday": {"close": "20:00", "open": "06:00"}, "Tuesday": {"close": "20:00", "open": "06:00"}, "Friday": {"close": "20:00", "open": "06:00"}, "Wednesday": {"close": "20:00", "open": "06:00"}, "Thursday": {"close": "20:00", "open": "06:00"}, "Sunday": {"close": "18:00", "open": "08:00"}, "Saturday": {"close": "18:00", "open": "07:00"}}, "open": true, "categories": ["Bakeries", "Food", "Cafes", "Restaurants"], "city": "Karlsruhe", "review_count": 10, "name": "Laib & Leben", "neighborhoods": [], "longitude": 8.42019146223942, "state": "BW", "stars": 3.5, "latitude": 49.0038897551285, "attributes": {"Take-out": true, "Good For": {"dessert": false, "latenight": false, "lunch": false, "dinner": false, "breakfast": false, "brunch": false}, "Noise Level": "average", "Takes Reservations": false, "Delivery": false, "Parking": {"garage": false, "street": false, "validated": false, "lot": false, "valet": false}, "Has TV": false, "Outdoor Seating": false, "Attire": "casual", "Good for Kids": false, "Good For Groups": true, "Price Range": 2}, "type": "business"}
{"business_id": "3M9El2CzdEeSJUuDzZkslg", "full_address": "Nelkenstra\u00dfe 21\nam Gutenbergplatz\n76135 Karlsruhe", "hours": {}, "open": false, "categories": ["Bakeries", "Food"], "city": "Karlsruhe", "review_count": 19, "name": "Gro\u00dfmudder's B\u00e4ckerei und Kaffestube", "neighborhoods": [], "longitude": 8.37639, "state": "BW", "stars": 2.5, "latitude": 49.0091, "attributes": {"Parking": {"garage": false, "validated": false, "street": false, "lot": false, "valet": false}, "Wheelchair Accessible": false, "Price Range": 3}, "type": "business"}
{"business_id": "QURbSnCwx5NlCszp_H89Ng", "full_address": "Wichernstr\nWeststadt\n76135 Karlsruhe", "hours": {}, "open": true, "categories": ["Bakeries", "Food"], "city": "Karlsruhe", "review_count": 3, "name": "B\u00e4ckerei Neff Zweigstelle", "neighborhoods": [], "longitude": 8.36872, "state": "BW", "stars": 2.5, "latitude": 49.0056, "attributes": {}, "type": "business"}
{"business_id": "3LA8ABDMBZnlEnVMmJ-YIA", "full_address": "Rudolfstr. 11\n76131 Karlsruhe", "hours": {"Monday": {"close": "19:00", "open": "06:00"}, "Tuesday": {"close": "19:00", "open": "06:00"}, "Friday": {"close": "19:00", "open": "06:00"}, "Wednesday": {"close": "19:00", "open": "06:00"}, "Thursday": {"close": "19:00", "open": "06:00"}, "Sunday": {"close": "11:00", "open": "08:00"}, "Saturday": {"close": "13:00", "open": "06:00"}}, "open": true, "categories": ["Bakeries", "Food", "Patisserie/Cake Shop", "Cafes", "Restaurants"], "city": "Karlsruhe", "review_count": 5, "name": "B\u00e4ckerei-Konditorei Visel", "neighborhoods": [], "longitude": 8.42244, "state": "BW", "stars": 3.0, "latitude": 49.00981, "attributes": {"Take-out": false, "Wi-Fi": "no", "Good For": {"dessert": false, "latenight": false, "lunch": false, "dinner": false, "breakfast": false, "brunch": false}, "Caters": false, "Noise Level": "average", "Takes Reservations": false, "Has TV": false, "Delivery": false, "Ambience": {"romantic": false, "intimate": false, "classy": false, "hipster": false, "divey": false, "touristy": false, "trendy": false, "upscale": false, "casual": false}, "Parking": {"garage": false, "validated": false, "street": false, "lot": false, "valet": false}, "Wheelchair Accessible": false, "Outdoor Seating": false, "Attire": "casual", "Alcohol": "none", "Waiter Service": false, "Accepts Credit Cards": false, "Good for Kids": true, "Good For Groups": false, "Price Range": 2}, "type": "business"}
{"business_id": "QXou2_cNNSGNqpIUBikQOg", "full_address": "Hardtstr. 10\n76185 Karlsruhe", "hours": {}, "open": true, "categories": ["Bakeries", "Food", "Cafes", "Restaurants"], "city": "Karlsruhe", "review_count": 11, "name": "L\u00f6rz Heinrich", "neighborhoods": [], "longitude": 8.35593, "state": "BW", "stars": 4.5, "latitude": 49.0101, "attributes": {"Take-out": true, "Parking": {"garage": false, "validated": false, "street": false, "lot": false, "valet": false}, "Delivery": false, "Takes Reservations": false, "Accepts Credit Cards": false, "Good for Kids": true, "Good For Groups": true, "Price Range": 2}, "type": "business"}
{"business_id": "DXIsctlGnYN8-G-CJ6Xm6A", "full_address": "Jollystr. 27\n76137 Karlsruhe", "hours": {}, "open": true, "categories": ["Bakeries", "Food", "Patisserie/Cake Shop"], "city": "Karlsruhe", "review_count": 9, "name": "B\u00e4ckerei und Konditorei Martin Meier", "neighborhoods": [], "longitude": 8.39192, "state": "BW", "stars": 3.5, "latitude": 49.0018, "attributes": {"Parking": {"garage": false, "validated": false, "street": false, "lot": false, "valet": false}, "Accepts Credit Cards": false, "Price Range": 2}, "type": "business"}
{"business_id": "sDDPr7bV9uC1ubROF1AADQ", "full_address": "Haid-und-Neu-Str. 2\n76131 Karlsruhe", "hours": {}, "open": true, "categories": ["Bakeries", "Food"], "city": "Karlsruhe", "review_count": 3, "name": "Rudolf Neff", "neighborhoods": [], "longitude": 8.42381, "state": "BW", "stars": 3.0, "latitude": 49.0114, "attributes": {"Delivery": false, "Parking": {}, "Accepts Credit Cards": false, "Price Range": 3}, "type": "business"}
{"business_id": "ZztjV9bUMfOYMF85X0M8AA", "full_address": "Westmarkstr. 12\n76227 Karlsruhe", "hours": {"Monday": {"close": "18:30", "open": "05:30"}, "Tuesday": {"close": "18:30", "open": "05:30"}, "Friday": {"close": "18:30", "open": "05:30"}, "Wednesday": {"close": "18:30", "open": "05:30"}, "Thursday": {"close": "18:30", "open": "05:30"}, "Sunday": {"close": "18:30", "open": "05:30"}, "Saturday": {"close": "13:00", "open": "05:30"}}, "open": true, "categories": ["Bakeries", "Food"], "city": "Karlsruhe", "review_count": 4, "name": "Weber", "neighborhoods": [], "longitude": 8.46038, "state": "BW", "stars": 5.0, "latitude": 48.992, "attributes": {"Parking": {"garage": false, "street": false, "validated": false, "lot": false, "valet": false}, "Accepts Credit Cards": false, "Price Range": 2}, "type": "business"}
{"business_id": "Tm3w1r_ysQSxu-hnV9BetA", "full_address": "Industriestr. 6\n76467 Bietigheim", "hours": {}, "open": true, "categories": ["Bakeries", "Grocery", "Food", "Cafes", "Coffee & Tea", "Restaurants"], "city": "Bietigheim", "review_count": 3, "name": "F\u00f6ry B\u00e4ckerei und Caf\u00e9", "neighborhoods": [], "longitude": 8.25536, "state": "BW", "stars": 5.0, "latitude": 48.9109, "attributes": {"Price Range": 2}, "type": "business"}
{"business_id": "Pnu3TLl2vKHd9kWe6EuNTQ", "full_address": "Zeppelinstr. 15\n76185 Karlsruhe", "hours": {"Monday": {"close": "18:30", "open": "06:00"}, "Tuesday": {"close": "18:30", "open": "06:00"}, "Friday": {"close": "18:30", "open": "06:00"}, "Wednesday": {"close": "18:30", "open": "06:00"}, "Thursday": {"close": "18:30", "open": "06:00"}, "Sunday": {"close": "11:00", "open": "08:00"}, "Saturday": {"close": "17:00", "open": "06:00"}}, "open": true, "categories": ["Bakeries", "Food", "Patisserie/Cake Shop"], "city": "Karlsruhe", "review_count": 3, "name": "B\u00e4ckerei-Konditorei Richard Nu\u00dfbaumer", "neighborhoods": [], "longitude": 8.35607, "state": "BW", "stars": 4.0, "latitude": 49.0025, "attributes": {"Parking": {"garage": false, "street": false, "validated": false, "lot": false, "valet": false}, "Accepts Credit Cards": false, "Wheelchair Accessible": true, "Price Range": 2}, "type": "business"}
{"business_id": "gY-_DMsOpYzSGxHp8Pqigg", "full_address": "Kaiserallee 51 A\n76133 Karlsruhe", "hours": {"Monday": {"close": "19:00", "open": "08:00"}, "Tuesday": {"close": "19:00", "open": "08:00"}, "Friday": {"close": "19:00", "open": "08:00"}, "Wednesday": {"close": "19:00", "open": "08:00"}, "Thursday": {"close": "19:00", "open": "08:00"}, "Sunday": {"close": "19:00", "open": "08:00"}, "Saturday": {"close": "19:00", "open": "08:00"}}, "open": true, "categories": ["Bakeries", "Food", "Coffee & Tea", "Cafes", "Restaurants"], "city": "Karlsruhe", "review_count": 25, "name": "Mary Poppins", "neighborhoods": [], "longitude": 8.37741, "state": "BW", "stars": 3.5, "latitude": 49.01059, "attributes": {"Good For": {"dessert": false, "latenight": false, "lunch": false, "dinner": false, "breakfast": false, "brunch": false}, "Takes Reservations": false, "Has TV": false, "Delivery": false, "Parking": {"garage": false, "validated": false, "street": true, "lot": false, "valet": false}, "Wheelchair Accessible": false, "Outdoor Seating": true, "Attire": "casual", "Alcohol": "none", "Smoking": "outdoor", "Accepts Credit Cards": true, "Good for Kids": true, "Good For Groups": true, "Price Range": 3}, "type": "business"}
{"business_id": "qjdPgk2OuDjmgQkLAEmpIg", "full_address": "Baumeisterstr. 20\n76137 Karlsruhe", "hours": {"Monday": {"close": "18:00", "open": "06:00"}, "Tuesday": {"close": "18:00", "open": "06:00"}, "Friday": {"close": "18:00", "open": "06:00"}, "Wednesday": {"close": "18:00", "open": "06:00"}, "Thursday": {"close": "18:00", "open": "06:00"}, "Sunday": {"close": "16:00", "open": "14:00"}, "Saturday": {"close": "16:00", "open": "06:00"}}, "open": true, "categories": ["Bakeries", "Food"], "city": "Karlsruhe", "review_count": 21, "name": "Gordani", "neighborhoods": [], "longitude": 8.40658, "state": "BW", "stars": 5.0, "latitude": 49.0039, "attributes": {"Delivery": false, "Parking": {"garage": false, "street": true, "validated": false, "lot": false, "valet": false}, "Accepts Credit Cards": false, "Wheelchair Accessible": false, "Price Range": 2}, "type": "business"}
{"business_id": "QRTW1rfw1KKjsSHbboCaJQ", "full_address": "Richard-Wagner-Str. 27\n76275 Ettlingen", "hours": {}, "open": true, "categories": ["Bakeries", "Grocery", "Shopping", "Food", "Post Offices", "Butcher", "Public Services & Government"], "city": "Ettlingen", "review_count": 5, "name": "CAP-Markt", "neighborhoods": [], "longitude": 8.36592, "state": "BW", "stars": 4.5, "latitude": 48.9246, "attributes": {"Price Range": 3}, "type": "business"}
{"business_id": "zd79xkJ8xqQcU26zsf8IrQ", "full_address": "Pfinztalstr. 12\n76227 Karlsruhe", "hours": {"Monday": {"close": "18:30", "open": "06:30"}, "Tuesday": {"close": "18:30", "open": "06:30"}, "Friday": {"close": "18:30", "open": "06:30"}, "Wednesday": {"close": "18:30", "open": "06:30"}, "Thursday": {"close": "18:30", "open": "06:30"}, "Saturday": {"close": "13:00", "open": "06:30"}}, "open": true, "categories": ["Bakeries", "Food", "Sporting Goods", "Shopping"], "city": "Karlsruhe", "review_count": 5, "name": "B\u00e4ckerei Weber", "neighborhoods": [], "longitude": 8.474428, "state": "BW", "stars": 4.0, "latitude": 48.9993023, "attributes": {"Parking": {"garage": false, "validated": false, "street": false, "lot": false, "valet": false}, "Price Range": 1}, "type": "business"}
{"business_id": "OSLkuwNmT-bAXWx_T-SbUg", "full_address": "Veilchenstr. 15\n76131 Karlsruhe", "hours": {"Monday": {"close": "19:00", "open": "06:00"}, "Tuesday": {"close": "19:00", "open": "06:00"}, "Friday": {"close": "19:00", "open": "06:00"}, "Wednesday": {"close": "19:00", "open": "06:00"}, "Thursday": {"close": "19:00", "open": "06:00"}, "Sunday": {"close": "11:00", "open": "08:00"}, "Saturday": {"close": "18:00", "open": "06:00"}}, "open": true, "categories": ["Bakeries", "Food", "Patisserie/Cake Shop", "Cafes", "Restaurants"], "city": "Karlsruhe", "review_count": 3, "name": "B\u00e4ckerei-Konditorei Visel", "neighborhoods": [], "longitude": 8.4279634, "state": "BW", "stars": 4.5, "latitude": 49.0094449, "attributes": {"Accepts Credit Cards": false, "Wheelchair Accessible": false, "Parking": {"garage": false, "validated": false, "street": false, "lot": false, "valet": false}}, "type": "business"}
{"business_id": "Ko0IWAEQtHd5kWr30PXD_A", "full_address": "Leipziger Allee 16\n76139 Karlsruhe", "hours": {"Monday": {"close": "18:00", "open": "06:30"}, "Tuesday": {"close": "18:00", "open": "06:30"}, "Friday": {"close": "18:00", "open": "06:30"}, "Wednesday": {"close": "18:00", "open": "06:30"}, "Thursday": {"close": "18:00", "open": "06:30"}, "Sunday": {"close": "11:00", "open": "08:00"}, "Saturday": {"close": "12:30", "open": "06:00"}}, "open": true, "categories": ["Bakeries", "Food", "Patisserie/Cake Shop", "Cafes", "Restaurants"], "city": "Karlsruhe", "review_count": 3, "name": "B\u00e4ckerei-Konditorei Visel", "neighborhoods": [], "longitude": 8.4555942, "state": "BW", "stars": 3.5, "latitude": 49.0331501, "attributes": {"Take-out": true, "Wi-Fi": "no", "Alcohol": "none", "Caters": false, "Noise Level": "average", "Takes Reservations": false, "Has TV": false, "Delivery": false, "Parking": {"garage": false, "validated": false, "street": false, "lot": false, "valet": false}, "Wheelchair Accessible": true, "Outdoor Seating": false, "Attire": "casual", "Ambience": {"romantic": false, "intimate": false, "classy": false, "hipster": false, "divey": false, "touristy": false, "trendy": false, "upscale": false, "casual": false}, "Waiter Service": false, "Accepts Credit Cards": false, "Good for Kids": true, "Good For Groups": false, "Price Range": 3}, "type": "business"}
{"business_id": "6ofpfv6Bb4_KaUN3YoT8Ew", "full_address": "Bahnhofplatz 1\n76137 Karlsruhe", "hours": {}, "open": true, "categories": ["Bakeries", "Food"], "city": "Karlsruhe", "review_count": 5, "name": "Wiener Feinb\u00e4ckerei Heberer", "neighborhoods": [], "longitude": 8.40179, "state": "BW", "stars": 1.0, "latitude": 48.994, "attributes": {"Wheelchair Accessible": true, "Price Range": 3}, "type": "business"}
{"business_id": "BPY-04VxlC60qxww38dFTQ", "full_address": "Kaiserstr. 241\n76133 Karlsruhe", "hours": {"Monday": {"close": "18:00", "open": "08:00"}, "Tuesday": {"close": "18:00", "open": "08:00"}, "Friday": {"close": "18:00", "open": "08:00"}, "Wednesday": {"close": "18:00", "open": "08:00"}, "Thursday": {"close": "18:00", "open": "08:00"}, "Sunday": {"close": "18:00", "open": "10:00"}, "Saturday": {"close": "18:00", "open": "08:00"}}, "open": true, "categories": ["Bakeries", "Food", "Patisserie/Cake Shop", "Cafes", "Restaurants"], "city": "Karlsruhe", "review_count": 25, "name": "Endle", "neighborhoods": [], "longitude": 8.3907078, "state": "BW", "stars": 4.0, "latitude": 49.0101131, "attributes": {"Good For": {"dessert": false, "latenight": false, "lunch": false, "dinner": false, "breakfast": false, "brunch": false}, "Attire": "casual", "Smoking": "no", "Outdoor Seating": false, "Parking": {"garage": false, "validated": false, "street": false, "lot": false, "valet": false}, "Waiter Service": true, "Accepts Credit Cards": true, "Good for Kids": true, "Price Range": 3}, "type": "business"}
{"business_id": "gKrRXJNjGlZHsoJ7oBbb3g", "full_address": "Kaiserstr. 141\n76133 Karlsruhe", "hours": {}, "open": true, "categories": ["Bakeries", "Food", "Coffee & Tea", "Cafes", "Restaurants"], "city": "Karlsruhe", "review_count": 21, "name": "B\u00f6ckeler's Cafe", "neighborhoods": [], "longitude": 8.40339, "state": "BW", "stars": 2.5, "latitude": 49.00934, "attributes": {"Take-out": true, "Good For": {"dessert": false, "latenight": false, "lunch": false, "dinner": false, "brunch": false, "breakfast": false}, "Takes Reservations": true, "Delivery": false, "Parking": {"garage": false, "validated": false, "street": false, "lot": false, "valet": false}, "Outdoor Seating": true, "Attire": "casual", "Alcohol": "beer_and_wine", "Accepts Credit Cards": true, "Good for Kids": true, "Good For Groups": true, "Price Range": 3}, "type": "business"}
{"business_id": "iYyVFRBxOd5IwVSrsQu1BQ", "full_address": "Georg-Friedrich-Str. 7\n76131 Karlsruhe", "hours": {}, "open": true, "categories": ["Bakeries", "Food"], "city": "Karlsruhe", "review_count": 3, "name": "Der Backladen", "neighborhoods": [], "longitude": 8.42358, "state": "BW", "stars": 2.5, "latitude": 49.01, "attributes": {"Parking": {"garage": false, "validated": false, "street": false, "lot": false, "valet": false}, "Accepts Credit Cards": false, "Wheelchair Accessible": false, "Price Range": 2}, "type": "business"}
{"business_id": "H5HP3XK0wYpCeHga60zg4Q", "full_address": "Rheinstr. 34\n76185 Karlsruhe", "hours": {}, "open": true, "categories": ["Bakeries", "Food"], "city": "Karlsruhe", "review_count": 4, "name": "Badische Backstube F. u. E. Weber", "neighborhoods": [], "longitude": 8.36022, "state": "BW", "stars": 3.5, "latitude": 49.0112, "attributes": {"Accepts Credit Cards": false, "Price Range": 2}, "type": "business"}
{"business_id": "xzucDze4qdMbBNlf4WIM6g", "full_address": "Steinh\u00e4userstr. 22\n76135 Karlsruhe", "hours": {}, "open": true, "categories": ["Bakeries", "Food"], "city": "Karlsruhe", "review_count": 3, "name": "Badische Backstub", "neighborhoods": [], "longitude": 8.3803797, "state": "BW", "stars": 2.5, "latitude": 48.9966844, "attributes": {}, "type": "business"}
{"business_id": "NGrDYIN8_C6b5zNXRUM-Qg", "full_address": "Ludwig-Wilhelm-Str. 14\n76131 Karlsruhe", "hours": {}, "open": true, "categories": ["Bakeries", "Food"], "city": "Karlsruhe", "review_count": 4, "name": "Badische Backstub F. u. E. Weber", "neighborhoods": [], "longitude": 8.42262, "state": "BW", "stars": 3.5, "latitude": 49.0094, "attributes": {"Delivery": false, "Accepts Credit Cards": false, "Price Range": 2}, "type": "business"}
{"business_id": "JemgxznJZEEAsxfYmV5fBA", "full_address": "Mannheimer Str. 51\n76131 Karlsruhe", "hours": {}, "open": true, "categories": ["Bakeries", "Food"], "city": "Karlsruhe", "review_count": 3, "name": "Brotkorb - Hatz B\u00e4ckereibetriebe", "neighborhoods": [], "longitude": 8.4443215, "state": "BW", "stars": 3.0, "latitude": 49.0170552, "attributes": {"Price Range": 2}, "type": "business"}
{"business_id": "UbMfwmBEU9Jt3rRysjh4Yg", "full_address": "Ludwig-Erhard-Allee 20-24\n76131 Karlsruhe", "hours": {"Monday": {"close": "20:00", "open": "06:00"}, "Tuesday": {"close": "20:00", "open": "06:00"}, "Friday": {"close": "20:00", "open": "06:00"}, "Wednesday": {"close": "20:00", "open": "06:00"}, "Thursday": {"close": "20:00", "open": "06:00"}, "Sunday": {"close": "18:00", "open": "08:00"}, "Saturday": {"close": "18:00", "open": "07:00"}}, "open": true, "categories": ["Bakeries", "Food", "Cafes", "Restaurants"], "city": "Karlsruhe", "review_count": 10, "name": "Laib & Leben", "neighborhoods": [], "longitude": 8.42019146223942, "state": "BW", "stars": 3.5, "latitude": 49.0038897551285, "attributes": {"Take-out": true, "Good For": {"dessert": false, "latenight": false, "lunch": false, "dinner": false, "breakfast": false, "brunch": false}, "Noise Level": "average", "Takes Reservations": false, "Delivery": false, "Parking": {"garage": false, "street": false, "validated": false, "lot": false, "valet": false}, "Has TV": false, "Outdoor Seating": false, "Attire": "casual", "Good for Kids": false, "Good For Groups": true, "Price Range": 2}, "type": "business"}
{"business_id": "3M9El2CzdEeSJUuDzZkslg", "full_address": "Nelkenstra\u00dfe 21\nam Gutenbergplatz\n76135 Karlsruhe", "hours": {}, "open": false, "categories": ["Bakeries", "Food"], "city": "Karlsruhe", "review_count": 19, "name": "Gro\u00dfmudder's B\u00e4ckerei und Kaffestube", "neighborhoods": [], "longitude": 8.37639, "state": "BW", "stars": 2.5, "latitude": 49.0091, "attributes": {"Parking": {"garage": false, "validated": false, "street": false, "lot": false, "valet": false}, "Wheelchair Accessible": false, "Price Range": 3}, "type": "business"}
{"business_id": "QURbSnCwx5NlCszp_H89Ng", "full_address": "Wichernstr\nWeststadt\n76135 Karlsruhe", "hours": {}, "open": true, "categories": ["Bakeries", "Food"], "city": "Karlsruhe", "review_count": 3, "name": "B\u00e4ckerei Neff Zweigstelle", "neighborhoods": [], "longitude": 8.36872, "state": "BW", "stars": 2.5, "latitude": 49.0056, "attributes": {}, "type": "business"}
