{"business_id": "Kq1ZRU1MgrYQa2KfxESM7w", "full_address": "Waldhornstr. 31\n76131 Karlsruhe", "hours": {}, "open": true, "categories": ["Soup", "Fast Food", "Restaurants"], "city": "Karlsruhe", "review_count": 6, "name": "Tasse mit Pfiff", "neighborhoods": [], "longitude": 8.41154, "state": "BW", "stars": 4.5, "latitude": 49.0087, "attributes": {"Price Range": 1}, "type": "business"}
{"business_id": "Kq1ZRU1MgrYQa2KfxESM7w", "full_address": "Waldhornstr. 31\n76131 Karlsruhe", "hours": {}, "open": true, "categories": ["Soup", "Fast Food", "Restaurants"], "city": "Karlsruhe", "review_count": 6, "name": "Tasse mit Pfiff", "neighborhoods": [], "longitude": 8.41154, "state": "BW", "stars": 4.5, "latitude": 49.0087, "attributes": {"Price Range": 1}, "type": "business"}
{"business_id": "Kq1ZRU1MgrYQa2KfxESM7w", "full_address": "Waldhornstr. 31\n76131 Karlsruhe", "hours": {}, "open": true, "categories": ["Soup", "Fast Food", "Restaurants"], "city": "Karlsruhe", "review_count": 6, "name": "Tasse mit Pfiff", "neighborhoods": [], "longitude": 8.41154, "state": "BW", "stars": 4.5, "latitude": 49.0087, "attributes": {"Price Range": 1}, "type": "business"}
{"business_id": "Kq1ZRU1MgrYQa2KfxESM7w", "full_address": "Waldhornstr. 31\n76131 Karlsruhe", "hours": {}, "open": true, "categories": ["Soup", "Fast Food", "Restaurants"], "city": "Karlsruhe", "review_count": 6, "name": "Tasse mit Pfiff", "neighborhoods": [], "longitude": 8.41154, "state": "BW", "stars": 4.5, "latitude": 49.0087, "attributes": {"Price Range": 1}, "type": "business"}
{"business_id": "Kq1ZRU1MgrYQa2KfxESM7w", "full_address": "Waldhornstr. 31\n76131 Karlsruhe", "hours": {}, "open": true, "categories": ["Soup", "Fast Food", "Restaurants"], "city": "Karlsruhe", "review_count": 6, "name": "Tasse mit Pfiff", "neighborhoods": [], "longitude": 8.41154, "state": "BW", "stars": 4.5, "latitude": 49.0087, "attributes": {"Price Range": 1}, "type": "business"}
{"business_id": "Kq1ZRU1MgrYQa2KfxESM7w", "full_address": "Waldhornstr. 31\n76131 Karlsruhe", "hours": {}, "open": true, "categories": ["Soup", "Fast Food", "Restaurants"], "city": "Karlsruhe", "review_count": 6, "name": "Tasse mit Pfiff", "neighborhoods": [], "longitude": 8.41154, "state": "BW", "stars": 4.5, "latitude": 49.0087, "attributes": {"Price Range": 1}, "type": "business"}
