{"business_id": "_sWP2LkDml6bE9nKB3MUPg", "full_address": "Kaiserstra\u00dfe 215\n76133 Karlsruhe", "hours": {"Friday": {"close": "00:00", "open": "00:00"}, "Tuesday": {"close": "17:30", "open": "14:30"}, "Thursday": {"close": "17:30", "open": "14:30"}, "Wednesday": {"close": "00:00", "open": "00:00"}, "Monday": {"close": "17:30", "open": "14:30"}}, "open": true, "categories": ["Dermatologists", "Doctors", "Allergists", "Health & Medical"], "city": "Karlsruhe", "review_count": 6, "name": "Drs. Fritz O\u00dfwald, Ina Reitenbach-Blindt, Franz Schwan, David", "neighborhoods": [], "longitude": 8.39524, "state": "BW", "stars": 5.0, "latitude": 49.00978, "attributes": {"By Appointment Only": false, "Wheelchair Accessible": true, "Parking": {"garage": false, "validated": false, "street": false, "lot": false, "valet": false}}, "type": "business"}
{"business_id": "JwTJcaBBc6Z2ckGCPFo0Zw", "full_address": "Turnerstr. 44\n76189 Karlsruhe", "hours": {}, "open": true, "categories": ["Pediatric Dentists", "Health & Medical", "Dentists"], "city": "Karlsruhe", "review_count": 3, "name": "Kinder\u00e4rzte Stephan Kathrin Pfisterer Prinz", "neighborhoods": [], "longitude": 8.33613, "state": "BW", "stars": 4.0, "latitude": 49.0029, "attributes": {"Accepts Credit Cards": false, "Wheelchair Accessible": true, "Parking": {"garage": false, "validated": false, "street": false, "lot": false, "valet": false}}, "type": "business"}
{"business_id": "S0wr9Gj5RFscgffwYiJ4Iw", "full_address": "Karlstr. 18\n76133 Karlsruhe", "hours": {}, "open": true, "categories": ["Health & Medical", "Pharmacy"], "city": "Karlsruhe", "review_count": 6, "name": "Karl-Apotheke", "neighborhoods": [], "longitude": 8.39467, "state": "BW", "stars": 4.0, "latitude": 49.0082, "attributes": {"Parking": {"garage": false, "street": false, "validated": false, "lot": false, "valet": false}, "Accepts Credit Cards": true, "Wheelchair Accessible": true, "Price Range": 2}, "type": "business"}
{"business_id": "zRBgEqzMrrlnya2_eeRHYA", "full_address": "Brettener Str. 1\n76131 Karlsruhe", "hours": {}, "open": true, "categories": ["Health & Medical", "Pharmacy"], "city": "Karlsruhe", "review_count": 3, "name": "Minerva Apotheke", "neighborhoods": [], "longitude": 8.44314, "state": "BW", "stars": 5.0, "latitude": 49.0173, "attributes": {}, "type": "business"}
{"business_id": "UJZKaJKEyYlBEa7byP-uQw", "full_address": "Karlstr. 115\n76137 Karlsruhe", "hours": {}, "open": true, "categories": ["Health & Medical", "Pharmacy"], "city": "Karlsruhe", "review_count": 5, "name": "OK  Apotheke", "neighborhoods": [], "longitude": 8.3938408, "state": "BW", "stars": 4.0, "latitude": 48.9969597, "attributes": {"Wheelchair Accessible": true, "Parking": {"garage": false, "validated": false, "street": false, "lot": false, "valet": false}}, "type": "business"}
{"business_id": "6dOjMBKFbK3bRju_n4Tmog", "full_address": "S\u00fcdendstr. 32\n76137 Karlsruhe", "hours": {}, "open": true, "categories": ["Hospitals", "Medical Centers", "Health & Medical"], "city": "Karlsruhe", "review_count": 3, "name": "St. Vincentius-Kliniken gAG Medizinische Klinik I", "neighborhoods": [], "longitude": 8.38875, "state": "BW", "stars": 2.5, "latitude": 48.9994, "attributes": {"By Appointment Only": false}, "type": "business"}
{"business_id": "qhu-hCLlRiqoJ5du775oig", "full_address": "Sophienstr. 53\n76133 Karlsruhe", "hours": {}, "open": true, "categories": ["Doctors", "Health & Medical", "Family Practice"], "city": "Karlsruhe", "review_count": 3, "name": "Dr. med. Beate Weinschenk", "neighborhoods": [], "longitude": 8.38963, "state": "BW", "stars": 5.0, "latitude": 49.0074, "attributes": {}, "type": "business"}
{"business_id": "KVwqBtoJM4Bzzv4r1mKJSA", "full_address": "Hirschstr. 105\n76137 Karlsruhe", "hours": {}, "open": true, "categories": ["Doctors", "Orthopedists", "Health & Medical"], "city": "Karlsruhe", "review_count": 5, "name": "Facharzt f\u00fcr Orthop\u00e4die und Sportmedizin Wolfgang Krentel", "neighborhoods": [], "longitude": 8.39065, "state": "BW", "stars": 3.5, "latitude": 48.9995, "attributes": {"Wheelchair Accessible": false, "Parking": {"garage": false, "validated": false, "street": false, "lot": false, "valet": false}}, "type": "business"}
{"business_id": "RdWxr1GAp-BrK25nNRMS6Q", "full_address": "Georg-Friedrich-Str. 24\n76131 Karlsruhe", "hours": {}, "open": true, "categories": ["Dermatologists", "Doctors", "Ear Nose & Throat", "Health & Medical"], "city": "Karlsruhe", "review_count": 3, "name": "Dr. med. Wilfried Pfitzer", "neighborhoods": [], "longitude": 8.42355, "state": "BW", "stars": 4.5, "latitude": 49.0094, "attributes": {}, "type": "business"}
{"business_id": "7KaHhijkGVTvCBZ1hlV9Bw", "full_address": "Kriegsstr. 140\n76133 Karlsruhe", "hours": {}, "open": true, "categories": ["Doctors", "Health & Medical", "Internal Medicine"], "city": "Karlsruhe", "review_count": 3, "name": "Internisten Endokrinologische Praxis Carlo Sebastian Varma Zink", "neighborhoods": [], "longitude": 8.39421, "state": "BW", "stars": 2.5, "latitude": 49.0057, "attributes": {"Parking": {"garage": false, "validated": false, "street": false, "lot": false, "valet": false}}, "type": "business"}
{"business_id": "_De17jwK6Frt8stTulbEeA", "full_address": "B\u00e4renweg\n76149 Karlsruhe", "hours": {}, "open": true, "categories": ["Doctors", "Health & Medical", "Obstetricians & Gynecologists"], "city": "Karlsruhe", "review_count": 3, "name": "Dr. Nelis", "neighborhoods": [], "longitude": 8.3787081, "state": "BW", "stars": 3.5, "latitude": 49.0469655, "attributes": {}, "type": "business"}
{"business_id": "EUoTIMnoHlN3pov3E2ICWw", "full_address": "Weinweg 16\n76131 Karlsruhe", "hours": {}, "open": true, "categories": ["Dentists", "Doctors", "Health & Medical"], "city": "Karlsruhe", "review_count": 3, "name": "Rudolf Pacner", "neighborhoods": [], "longitude": 8.44524, "state": "BW", "stars": 4.0, "latitude": 49.0098, "attributes": {}, "type": "business"}
{"business_id": "D5fZo7NO8JOAu5icizIf-A", "full_address": "Kriegsstr. 140\n76133 Karlsruhe", "hours": {}, "open": true, "categories": ["Doctors", "Ear Nose & Throat", "Health & Medical"], "city": "Karlsruhe", "review_count": 3, "name": "Dr. med. Martin Spreng", "neighborhoods": [], "longitude": 8.39429, "state": "BW", "stars": 5.0, "latitude": 49.0056, "attributes": {}, "type": "business"}
{"business_id": "Z6Sn4cSiFt5Fw4aznUjJsA", "full_address": "B\u00fcrgerstr. 16\nauch Karlsstr. 23\n76133 Karlsruhe", "hours": {}, "open": true, "categories": ["Doctors", "Ear Nose & Throat", "Health & Medical"], "city": "Karlsruhe", "review_count": 3, "name": "HNO-Praxis Andreas Scherer", "neighborhoods": [], "longitude": 8.393843, "state": "BW", "stars": 5.0, "latitude": 49.0067498, "attributes": {"Parking": {"garage": false, "validated": false, "street": false, "lot": false, "valet": false}}, "type": "business"}
{"business_id": "4jx3VMVyPW1gL_yoHcGSQw", "full_address": "Erzbergerstr. 131\n76149 Karlsruhe", "hours": {}, "open": true, "categories": ["Doctors", "Health & Medical", "Naturopathic/Holistic"], "city": "Karlsruhe", "review_count": 3, "name": "Stefan Mathias Fuchs", "neighborhoods": [], "longitude": 8.38622, "state": "BW", "stars": 4.5, "latitude": 49.028, "attributes": {}, "type": "business"}
{"business_id": "oDGCwoW6WLbt9_XcY0p-2A", "full_address": "Stephanienstr. 96\n76133 Karlsruhe", "hours": {}, "open": true, "categories": ["Shopping", "Doctors", "Health & Medical", "Eyewear & Opticians"], "city": "Karlsruhe", "review_count": 3, "name": "Dr. med. Thomas Kohm", "neighborhoods": [], "longitude": 8.38877, "state": "BW", "stars": 3.0, "latitude": 49.0107, "attributes": {}, "type": "business"}
{"business_id": "96DyV1HhsRRPkFIN4zfzPQ", "full_address": "Karlstr. 29\n76133 Karlsruhe", "hours": {"Friday": {"close": "12:30", "open": "08:00"}, "Tuesday": {"close": "17:30", "open": "14:00"}, "Thursday": {"close": "18:00", "open": "14:00"}, "Wednesday": {"close": "14:00", "open": "08:00"}, "Monday": {"close": "17:30", "open": "14:00"}}, "open": true, "categories": ["Doctors", "Ophthalmologists", "Health & Medical"], "city": "Karlsruhe", "review_count": 11, "name": "Dr. Stephan Kaut", "neighborhoods": [], "longitude": 8.39517480535322, "state": "BW", "stars": 4.0, "latitude": 49.0075256107311, "attributes": {"Accepts Credit Cards": true, "Wheelchair Accessible": true}, "type": "business"}
{"business_id": "FMozaZuEJ43v_aWue6hkSQ", "full_address": "Nowackanlage 15-17\n76137 Karlsruhe", "hours": {}, "open": true, "categories": ["Shopping", "Doctors", "Health & Medical", "Eyewear & Opticians"], "city": "Karlsruhe", "review_count": 3, "name": "Dr. med. Annegret Schumacher", "neighborhoods": [], "longitude": 8.40426, "state": "BW", "stars": 1.0, "latitude": 49.003, "attributes": {"Price Range": 4}, "type": "business"}
{"business_id": "xeZv-LeNe8gw8enVQL4zGQ", "full_address": "Haid-und-Neu-Str. 12\n76131 Karlsruhe", "hours": {"Monday": {"close": "00:00", "open": "00:00"}, "Tuesday": {"close": "20:00", "open": "15:00"}, "Friday": {"close": "00:00", "open": "00:00"}, "Wednesday": {"close": "20:00", "open": "15:00"}, "Thursday": {"close": "20:00", "open": "15:00"}, "Saturday": {"close": "00:00", "open": "00:00"}}, "open": true, "categories": ["Health & Medical", "Dentists"], "city": "Karlsruhe", "review_count": 4, "name": "Zahnarzt Tobias Ruder", "neighborhoods": [], "longitude": 8.42514, "state": "BW", "stars": 3.5, "latitude": 49.0121, "attributes": {"Parking": {"garage": false, "validated": false, "street": false, "lot": false, "valet": false}}, "type": "business"}
{"business_id": "PfjEZGICY_QNZAQolVDncw", "full_address": "Orthop\u00e4dische Gemeinschaft am Ludwigsplatz\nWaldstr. 67\n76133 Karlsruhe", "hours": {}, "open": true, "categories": ["Doctors", "Orthopedists", "Health & Medical", "Chiropractors"], "city": "Karlsruhe", "review_count": 5, "name": "Dr. med. Oliver Frerking", "neighborhoods": [], "longitude": 8.39616, "state": "BW", "stars": 3.0, "latitude": 49.0092, "attributes": {"By Appointment Only": false}, "type": "business"}
{"business_id": "-yS-eOYb9q88ffWwVVFzng", "full_address": "R\u00fcppurrer Str. 1\n76137 Karlsruhe", "hours": {"Monday": {"close": "22:00", "open": "08:00"}, "Tuesday": {"close": "22:00", "open": "08:00"}, "Friday": {"close": "22:00", "open": "08:00"}, "Wednesday": {"close": "22:00", "open": "08:00"}, "Thursday": {"close": "22:00", "open": "08:00"}, "Saturday": {"close": "22:00", "open": "08:00"}}, "open": true, "categories": ["Health & Medical", "Pharmacy"], "city": "Karlsruhe", "review_count": 3, "name": "Apotheke im Scheck in Center", "neighborhoods": [], "longitude": 8.41053, "state": "BW", "stars": 3.5, "latitude": 49.0052, "attributes": {}, "type": "business"}
{"business_id": "ah-Czxz576_ZTtbetYmwNw", "full_address": "Kriegsstr. 140\n76133 Karlsruhe", "hours": {"Friday": {"close": "12:30", "open": "08:00"}, "Tuesday": {"close": "18:00", "open": "08:00"}, "Thursday": {"close": "18:00", "open": "08:00"}, "Wednesday": {"close": "18:00", "open": "08:00"}, "Monday": {"close": "18:00", "open": "08:00"}}, "open": true, "categories": ["Oral Surgeons", "Health & Medical", "Dentists"], "city": "Karlsruhe", "review_count": 6, "name": "Werner Dr. Dr. dent. und Schierle Prof. Dr. Dr. dent.", "neighborhoods": [], "longitude": 8.39429, "state": "BW", "stars": 4.0, "latitude": 49.0056, "attributes": {"Accepts Credit Cards": false, "Wheelchair Accessible": true, "Parking": {"garage": false, "validated": false, "street": false, "lot": false, "valet": false}}, "type": "business"}
{"business_id": "7J75VLZKDJhCypKjUAcFXQ", "full_address": "Leopoldstr. 40\n76275 Ettlingen", "hours": {}, "open": true, "categories": ["Dermatologists", "Doctors", "Health & Medical", "Internal Medicine"], "city": "Ettlingen", "review_count": 3, "name": "Dr. med. Andreas Kist", "neighborhoods": [], "longitude": 8.40789, "state": "BW", "stars": 3.5, "latitude": 48.94011, "attributes": {"Wheelchair Accessible": true, "Parking": {"garage": false, "validated": false, "street": false, "lot": false, "valet": false}}, "type": "business"}
{"business_id": "_8DkBpvIb05yeT2bHsrBMQ", "full_address": "Moltkestr. 90\nMedizinisches Versorgungszentrum\n76133 Karlsruhe", "hours": {}, "open": true, "categories": ["Health & Medical", "Hospitals"], "city": "Karlsruhe", "review_count": 6, "name": "St\u00e4dtisches Klinikum Karlsruhe gGmbH", "neighborhoods": [], "longitude": 8.3746667, "state": "BW", "stars": 2.0, "latitude": 49.0156295, "attributes": {"By Appointment Only": false}, "type": "business"}
{"business_id": "TdFHwzPd5Ah_maA-kYktHw", "full_address": "Wilhelmstr. 1\n76275 Ettlingen", "hours": {}, "open": true, "categories": ["Neurologist", "Doctors", "Health & Medical", "Physical Therapy", "Psychiatrists"], "city": "Ettlingen", "review_count": 3, "name": "Dr. med. Bernhard Kopp", "neighborhoods": [], "longitude": 8.41062, "state": "BW", "stars": 4.5, "latitude": 48.939, "attributes": {}, "type": "business"}
{"business_id": "Jd8dJj7xYvDlQIBPh4OAjQ", "full_address": "Gerwigstr. 6\n76131 Karlsruhe", "hours": {}, "open": true, "categories": ["Doctors", "Health & Medical", "Family Practice"], "city": "Karlsruhe", "review_count": 4, "name": "Wolfgang Gabriele Calmbach Wiedenmann-Calmbach", "neighborhoods": [], "longitude": 8.42414, "state": "BW", "stars": 4.0, "latitude": 49.0094, "attributes": {"Wheelchair Accessible": false}, "type": "business"}
{"business_id": "18QdyaHkxw-DR-lLAzWpAA", "full_address": "Bergstr. 30\n76337 Waldbronn", "hours": {"Monday": {"close": "22:00", "open": "10:00"}, "Tuesday": {"close": "22:00", "open": "10:00"}, "Friday": {"close": "22:00", "open": "10:00"}, "Wednesday": {"close": "22:00", "open": "10:00"}, "Thursday": {"close": "22:00", "open": "10:00"}, "Sunday": {"close": "22:00", "open": "09:00"}, "Saturday": {"close": "22:00", "open": "09:00"}}, "open": true, "categories": ["Beauty & Spas", "Saunas", "Swimming Pools", "Health & Medical", "Active Life", "Day Spas"], "city": "Waldbronn", "review_count": 9, "name": "Albtherme", "neighborhoods": [], "longitude": 8.47079, "state": "BW", "stars": 4.0, "latitude": 48.9276, "attributes": {"Parking": {"garage": false, "validated": false, "street": false, "lot": false, "valet": false}, "Accepts Credit Cards": false, "Good for Kids": false, "Price Range": 3}, "type": "business"}
{"business_id": "VXdS6bj2V-Bh3V7WLpbSgg", "full_address": "Ettlingerstr. 4\n76137 Karlsruhe", "hours": {"Monday": {"close": "23:00", "open": "14:00"}, "Tuesday": {"close": "23:00", "open": "10:00"}, "Friday": {"close": "23:00", "open": "10:00"}, "Wednesday": {"close": "23:00", "open": "10:00"}, "Thursday": {"close": "23:00", "open": "10:00"}, "Sunday": {"close": "20:00", "open": "10:00"}, "Saturday": {"close": "22:00", "open": "10:00"}}, "open": true, "categories": ["Beauty & Spas", "Saunas", "Swimming Pools", "Health & Medical", "Active Life", "Massage"], "city": "Karlsruhe", "review_count": 25, "name": "Therme Vierordtbad", "neighborhoods": [], "longitude": 8.40286361542425, "state": "BW", "stars": 4.5, "latitude": 49.0013688673535, "attributes": {"Price Range": 2, "Parking": {"garage": false, "street": false, "validated": false, "lot": false, "valet": false}, "By Appointment Only": false, "Accepts Credit Cards": true, "Good for Kids": false, "Wheelchair Accessible": true}, "type": "business"}
{"business_id": "bBBmsMx5uLVC82Si8FE_XA", "full_address": "Karlstr. 124\n76137 Karlsruhe", "hours": {"Monday": {"close": "23:00", "open": "16:00"}, "Tuesday": {"close": "23:00", "open": "16:00"}, "Friday": {"close": "23:00", "open": "16:00"}, "Wednesday": {"close": "23:00", "open": "16:00"}, "Thursday": {"close": "23:00", "open": "16:00"}, "Sunday": {"close": "23:00", "open": "16:00"}, "Saturday": {"close": "23:00", "open": "16:00"}}, "open": true, "categories": ["Health & Medical"], "city": "Karlsruhe", "review_count": 5, "name": "Ambulanter Pflegedienst Gerber Wojtek Gerber", "neighborhoods": [], "longitude": 8.3935327, "state": "BW", "stars": 5.0, "latitude": 48.9979501, "attributes": {"Parking": {"garage": false, "validated": false, "street": false, "lot": false, "valet": false}, "Accepts Credit Cards": false, "Wheelchair Accessible": false, "Price Range": 4}, "type": "business"}
{"business_id": "yszLaYWs06eEc2ZcsK02aQ", "full_address": "Rheinstra\u00dfe  43\n76185 Karlsruhe", "hours": {"Monday": {"close": "18:00", "open": "15:00"}, "Tuesday": {"close": "18:00", "open": "15:00"}, "Friday": {"close": "18:00", "open": "15:00"}, "Wednesday": {"close": "18:00", "open": "15:00"}, "Thursday": {"close": "18:00", "open": "14:00"}, "Saturday": {"close": "00:00", "open": "00:00"}}, "open": true, "categories": ["Doctors", "Health & Medical", "Podiatrists"], "city": "Karlsruhe", "review_count": 3, "name": "Praxis f\u00fcr Fachfu\u00dfpflege", "neighborhoods": [], "longitude": 8.3611818, "state": "BW", "stars": 5.0, "latitude": 49.011065, "attributes": {"Wheelchair Accessible": true, "Parking": {"garage": false, "validated": false, "street": false, "lot": false, "valet": false}}, "type": "business"}
{"business_id": "6XLGrli77rWeukOsOJsVqA", "full_address": "Osteopathie & Naturheilkunde Praxis\nMoltkestr. 90\n76133 Karlsruhe", "hours": {"Tuesday": {"close": "20:00", "open": "16:00"}, "Friday": {"close": "16:00", "open": "10:00"}, "Wednesday": {"close": "20:00", "open": "10:00"}, "Thursday": {"close": "20:00", "open": "10:00"}}, "open": true, "categories": ["Doctors", "Health & Medical", "Osteopathic Physicians"], "city": "Karlsruhe", "review_count": 3, "name": "Klaus Czepan", "neighborhoods": [], "longitude": 8.3717205, "state": "BW", "stars": 4.5, "latitude": 49.0174215, "attributes": {"Accepts Credit Cards": false, "Wheelchair Accessible": true, "Parking": {"garage": false, "validated": false, "street": false, "lot": false, "valet": false}}, "type": "business"}
{"business_id": "yT2lyh79mSDSQaKR7JCMfw", "full_address": "Diakonissenstr. 28\n76199 Karlsruhe", "hours": {}, "open": true, "categories": ["Health & Medical", "Hospitals"], "city": "Karlsruhe", "review_count": 3, "name": "Diakonissen-Krankenhaus Akademisches Lehrkrankenhaus", "neighborhoods": [], "longitude": 8.41187, "state": "BW", "stars": 5.0, "latitude": 48.9725, "attributes": {"Accepts Credit Cards": false, "Wheelchair Accessible": true, "Parking": {"garage": false, "validated": false, "street": false, "lot": false, "valet": false}}, "type": "business"}
{"business_id": "G0l7qwpaS_4l-D86ObrVaQ", "full_address": "Kaiserstr. 110\n76133 Karlsruhe", "hours": {}, "open": true, "categories": ["Dermatologists", "Doctors", "Health & Medical"], "city": "Karlsruhe", "review_count": 5, "name": "Haut\u00e4rzte/Allergologie Robert Adina Figl Figl", "neighborhoods": [], "longitude": 8.3987, "state": "BW", "stars": 3.0, "latitude": 49.0098, "attributes": {}, "type": "business"}
{"business_id": "qGYtcAOItY3ys7CdZ-Q4xA", "full_address": "Amalienstr. 14b\n76131 Karlsruhe", "hours": {}, "open": true, "categories": ["Doctors", "Health & Medical", "Obstetricians & Gynecologists"], "city": "Karlsruhe", "review_count": 3, "name": "Frauenarztpraxis Leokadia Seidler", "neighborhoods": [], "longitude": 8.39506, "state": "BW", "stars": 4.5, "latitude": 49.0078, "attributes": {}, "type": "business"}
{"business_id": "_sWP2LkDml6bE9nKB3MUPg", "full_address": "Kaiserstra\u00dfe 215\n76133 Karlsruhe", "hours": {"Friday": {"close": "00:00", "open": "00:00"}, "Tuesday": {"close": "17:30", "open": "14:30"}, "Thursday": {"close": "17:30", "open": "14:30"}, "Wednesday": {"close": "00:00", "open": "00:00"}, "Monday": {"close": "17:30", "open": "14:30"}}, "open": true, "categories": ["Dermatologists", "Doctors", "Allergists", "Health & Medical"], "city": "Karlsruhe", "review_count": 6, "name": "Drs. Fritz O\u00dfwald, Ina Reitenbach-Blindt, Franz Schwan, David", "neighborhoods": [], "longitude": 8.39524, "state": "BW", "stars": 5.0, "latitude": 49.00978, "attributes": {"By Appointment Only": false, "Wheelchair Accessible": true, "Parking": {"garage": false, "validated": false, "street": false, "lot": false, "valet": false}}, "type": "business"}
{"business_id": "JwTJcaBBc6Z2ckGCPFo0Zw", "full_address": "Turnerstr. 44\n76189 Karlsruhe", "hours": {}, "open": true, "categories": ["Pediatric Dentists", "Health & Medical", "Dentists"], "city": "Karlsruhe", "review_count": 3, "name": "Kinder\u00e4rzte Stephan Kathrin Pfisterer Prinz", "neighborhoods": [], "longitude": 8.33613, "state": "BW", "stars": 4.0, "latitude": 49.0029, "attributes": {"Accepts Credit Cards": false, "Wheelchair Accessible": true, "Parking": {"garage": false, "validated": false, "street": false, "lot": false, "valet": false}}, "type": "business"}
{"business_id": "S0wr9Gj5RFscgffwYiJ4Iw", "full_address": "Karlstr. 18\n76133 Karlsruhe", "hours": {}, "open": true, "categories": ["Health & Medical", "Pharmacy"], "city": "Karlsruhe", "review_count": 6, "name": "Karl-Apotheke", "neighborhoods": [], "longitude": 8.39467, "state": "BW", "stars": 4.0, "latitude": 49.0082, "attributes": {"Parking": {"garage": false, "street": false, "validated": false, "lot": false, "valet": false}, "Accepts Credit Cards": true, "Wheelchair Accessible": true, "Price Range": 2}, "type": "business"}
{"business_id": "zRBgEqzMrrlnya2_eeRHYA", "full_address": "Brettener Str. 1\n76131 Karlsruhe", "hours": {}, "open": true, "categories": ["Health & Medical", "Pharmacy"], "city": "Karlsruhe", "review_count": 3, "name": "Minerva Apotheke", "neighborhoods": [], "longitude": 8.44314, "state": "BW", "stars": 5.0, "latitude": 49.0173, "attributes": {}, "type": "business"}
{"business_id": "UJZKaJKEyYlBEa7byP-uQw", "full_address": "Karlstr. 115\n76137 Karlsruhe", "hours": {}, "open": true, "categories": ["Health & Medical", "Pharmacy"], "city": "Karlsruhe", "review_count": 5, "name": "OK  Apotheke", "neighborhoods": [], "longitude": 8.3938408, "state": "BW", "stars": 4.0, "latitude": 48.9969597, "attributes": {"Wheelchair Accessible": true, "Parking": {"garage": false, "validated": false, "street": false, "lot": false, "valet": false}}, "type": "business"}
{"business_id": "6dOjMBKFbK3bRju_n4Tmog", "full_address": "S\u00fcdendstr. 32\n76137 Karlsruhe", "hours": {}, "open": true, "categories": ["Hospitals", "Medical Centers", "Health & Medical"], "city": "Karlsruhe", "review_count": 3, "name": "St. Vincentius-Kliniken gAG Medizinische Klinik I", "neighborhoods": [], "longitude": 8.38875, "state": "BW", "stars": 2.5, "latitude": 48.9994, "attributes": {"By Appointment Only": false}, "type": "business"}
{"business_id": "qhu-hCLlRiqoJ5du775oig", "full_address": "Sophienstr. 53\n76133 Karlsruhe", "hours": {}, "open": true, "categories": ["Doctors", "Health & Medical", "Family Practice"], "city": "Karlsruhe", "review_count": 3, "name": "Dr. med. Beate Weinschenk", "neighborhoods": [], "longitude": 8.38963, "state": "BW", "stars": 5.0, "latitude": 49.0074, "attributes": {}, "type": "business"}
{"business_id": "KVwqBtoJM4Bzzv4r1mKJSA", "full_address": "Hirschstr. 105\n76137 Karlsruhe", "hours": {}, "open": true, "categories": ["Doctors", "Orthopedists", "Health & Medical"], "city": "Karlsruhe", "review_count": 5, "name": "Facharzt f\u00fcr Orthop\u00e4die und Sportmedizin Wolfgang Krentel", "neighborhoods": [], "longitude": 8.39065, "state": "BW", "stars": 3.5, "latitude": 48.9995, "attributes": {"Wheelchair Accessible": false, "Parking": {"garage": false, "validated": false, "street": false, "lot": false, "valet": false}}, "type": "business"}
{"business_id": "RdWxr1GAp-BrK25nNRMS6Q", "full_address": "Georg-Friedrich-Str. 24\n76131 Karlsruhe", "hours": {}, "open": true, "categories": ["Dermatologists", "Doctors", "Ear Nose & Throat", "Health & Medical"], "city": "Karlsruhe", "review_count": 3, "name": "Dr. med. Wilfried Pfitzer", "neighborhoods": [], "longitude": 8.42355, "state": "BW", "stars": 4.5, "latitude": 49.0094, "attributes": {}, "type": "business"}
{"business_id": "7KaHhijkGVTvCBZ1hlV9Bw", "full_address": "Kriegsstr. 140\n76133 Karlsruhe", "hours": {}, "open": true, "categories": ["Doctors", "Health & Medical", "Internal Medicine"], "city": "Karlsruhe", "review_count": 3, "name": "Internisten Endokrinologische Praxis Carlo Sebastian Varma Zink", "neighborhoods": [], "longitude": 8.39421, "state": "BW", "stars": 2.5, "latitude": 49.0057, "attributes": {"Parking": {"garage": false, "validated": false, "street": false, "lot": false, "valet": false}}, "type": "business"}
{"business_id": "_De17jwK6Frt8stTulbEeA", "full_address": "B\u00e4renweg\n76149 Karlsruhe", "hours": {}, "open": true, "categories": ["Doctors", "Health & Medical", "Obstetricians & Gynecologists"], "city": "Karlsruhe", "review_count": 3, "name": "Dr. Nelis", "neighborhoods": [], "longitude": 8.3787081, "state": "BW", "stars": 3.5, "latitude": 49.0469655, "attributes": {}, "type": "business"}
{"business_id": "EUoTIMnoHlN3pov3E2ICWw", "full_address": "Weinweg 16\n76131 Karlsruhe", "hours": {}, "open": true, "categories": ["Dentists", "Doctors", "Health & Medical"], "city": "Karlsruhe", "review_count": 3, "name": "Rudolf Pacner", "neighborhoods": [], "longitude": 8.44524, "state": "BW", "stars": 4.0, "latitude": 49.0098, "attributes": {}, "type": "business"}
{"business_id": "D5fZo7NO8JOAu5icizIf-A", "full_address": "Kriegsstr. 140\n76133 Karlsruhe", "hours": {}, "open": true, "categories": ["Doctors", "Ear Nose & Throat", "Health & Medical"], "city": "Karlsruhe", "review_count": 3, "name": "Dr. med. Martin Spreng", "neighborhoods": [], "longitude": 8.39429, "state": "BW", "stars": 5.0, "latitude": 49.0056, "attributes": {}, "type": "business"}
{"business_id": "Z6Sn4cSiFt5Fw4aznUjJsA", "full_address": "B\u00fcrgerstr. 16\nauch Karlsstr. 23\n76133 Karlsruhe", "hours": {}, "open": true, "categories": ["Doctors", "Ear Nose & Throat", "Health & Medical"], "city": "Karlsruhe", "review_count": 3, "name": "HNO-Praxis Andreas Scherer", "neighborhoods": [], "longitude": 8.393843, "state": "BW", "stars": 5.0, "latitude": 49.0067498, "attributes": {"Parking": {"garage": false, "validated": false, "street": false, "lot": false, "valet": false}}, "type": "business"}
{"business_id": "4jx3VMVyPW1gL_yoHcGSQw", "full_address": "Erzbergerstr. 131\n76149 Karlsruhe", "hours": {}, "open": true, "categories": ["Doctors", "Health & Medical", "Naturopathic/Holistic"], "city": "Karlsruhe", "review_count": 3, "name": "Stefan Mathias Fuchs", "neighborhoods": [], "longitude": 8.38622, "state": "BW", "stars": 4.5, "latitude": 49.028, "attributes": {}, "type": "business"}
{"business_id": "oDGCwoW6WLbt9_XcY0p-2A", "full_address": "Stephanienstr. 96\n76133 Karlsruhe", "hours": {}, "open": true, "categories": ["Shopping", "Doctors", "Health & Medical", "Eyewear & Opticians"], "city": "Karlsruhe", "review_count": 3, "name": "Dr. med. Thomas Kohm", "neighborhoods": [], "longitude": 8.38877, "state": "BW", "stars": 3.0, "latitude": 49.0107, "attributes": {}, "type": "business"}
{"business_id": "96DyV1HhsRRPkFIN4zfzPQ", "full_address": "Karlstr. 29\n76133 Karlsruhe", "hours": {"Friday": {"close": "12:30", "open": "08:00"}, "Tuesday": {"close": "17:30", "open": "14:00"}, "Thursday": {"close": "18:00", "open": "14:00"}, "Wednesday": {"close": "14:00", "open": "08:00"}, "Monday": {"close": "17:30", "open": "14:00"}}, "open": true, "categories": ["Doctors", "Ophthalmologists", "Health & Medical"], "city": "Karlsruhe", "review_count": 11, "name": "Dr. Stephan Kaut", "neighborhoods": [], "longitude": 8.39517480535322, "state": "BW", "stars": 4.0, "latitude": 49.0075256107311, "attributes": {"Accepts Credit Cards": true, "Wheelchair Accessible": true}, "type": "business"}
{"business_id": "FMozaZuEJ43v_aWue6hkSQ", "full_address": "Nowackanlage 15-17\n76137 Karlsruhe", "hours": {}, "open": true, "categories": ["Shopping", "Doctors", "Health & Medical", "Eyewear & Opticians"], "city": "Karlsruhe", "review_count": 3, "name": "Dr. med. Annegret Schumacher", "neighborhoods": [], "longitude": 8.40426, "state": "BW", "stars": 1.0, "latitude": 49.003, "attributes": {"Price Range": 4}, "type": "business"}
{"business_id": "xeZv-LeNe8gw8enVQL4zGQ", "full_address": "Haid-und-Neu-Str. 12\n76131 Karlsruhe", "hours": {"Monday": {"close": "00:00", "open": "00:00"}, "Tuesday": {"close": "20:00", "open": "15:00"}, "Friday": {"close": "00:00", "open": "00:00"}, "Wednesday": {"close": "20:00", "open": "15:00"}, "Thursday": {"close": "20:00", "open": "15:00"}, "Saturday": {"close": "00:00", "open": "00:00"}}, "open": true, "categories": ["Health & Medical", "Dentists"], "city": "Karlsruhe", "review_count": 4, "name": "Zahnarzt Tobias Ruder", "neighborhoods": [], "longitude": 8.42514, "state": "BW", "stars": 3.5, "latitude": 49.0121, "attributes": {"Parking": {"garage": false, "validated": false, "street": false, "lot": false, "valet": false}}, "type": "business"}
{"business_id": "PfjEZGICY_QNZAQolVDncw", "full_address": "Orthop\u00e4dische Gemeinschaft am Ludwigsplatz\nWaldstr. 67\n76133 Karlsruhe", "hours": {}, "open": true, "categories": ["Doctors", "Orthopedists", "Health & Medical", "Chiropractors"], "city": "Karlsruhe", "review_count": 5, "name": "Dr. med. Oliver Frerking", "neighborhoods": [], "longitude": 8.39616, "state": "BW", "stars": 3.0, "latitude": 49.0092, "attributes": {"By Appointment Only": false}, "type": "business"}
{"business_id": "-yS-eOYb9q88ffWwVVFzng", "full_address": "R\u00fcppurrer Str. 1\n76137 Karlsruhe", "hours": {"Monday": {"close": "22:00", "open": "08:00"}, "Tuesday": {"close": "22:00", "open": "08:00"}, "Friday": {"close": "22:00", "open": "08:00"}, "Wednesday": {"close": "22:00", "open": "08:00"}, "Thursday": {"close": "22:00", "open": "08:00"}, "Saturday": {"close": "22:00", "open": "08:00"}}, "open": true, "categories": ["Health & Medical", "Pharmacy"], "city": "Karlsruhe", "review_count": 3, "name": "Apotheke im Scheck in Center", "neighborhoods": [], "longitude": 8.41053, "state": "BW", "stars": 3.5, "latitude": 49.0052, "attributes": {}, "type": "business"}
{"business_id": "ah-Czxz576_ZTtbetYmwNw", "full_address": "Kriegsstr. 140\n76133 Karlsruhe", "hours": {"Friday": {"close": "12:30", "open": "08:00"}, "Tuesday": {"close": "18:00", "open": "08:00"}, "Thursday": {"close": "18:00", "open": "08:00"}, "Wednesday": {"close": "18:00", "open": "08:00"}, "Monday": {"close": "18:00", "open": "08:00"}}, "open": true, "categories": ["Oral Surgeons", "Health & Medical", "Dentists"], "city": "Karlsruhe", "review_count": 6, "name": "Werner Dr. Dr. dent. und Schierle Prof. Dr. Dr. dent.", "neighborhoods": [], "longitude": 8.39429, "state": "BW", "stars": 4.0, "latitude": 49.0056, "attributes": {"Accepts Credit Cards": false, "Wheelchair Accessible": true, "Parking": {"garage": false, "validated": false, "street": false, "lot": false, "valet": false}}, "type": "business"}
{"business_id": "7J75VLZKDJhCypKjUAcFXQ", "full_address": "Leopoldstr. 40\n76275 Ettlingen", "hours": {}, "open": true, "categories": ["Dermatologists", "Doctors", "Health & Medical", "Internal Medicine"], "city": "Ettlingen", "review_count": 3, "name": "Dr. med. Andreas Kist", "neighborhoods": [], "longitude": 8.40789, "state": "BW", "stars": 3.5, "latitude": 48.94011, "attributes": {"Wheelchair Accessible": true, "Parking": {"garage": false, "validated": false, "street": false, "lot": false, "valet": false}}, "type": "business"}
{"business_id": "_8DkBpvIb05yeT2bHsrBMQ", "full_address": "Moltkestr. 90\nMedizinisches Versorgungszentrum\n76133 Karlsruhe", "hours": {}, "open": true, "categories": ["Health & Medical", "Hospitals"], "city": "Karlsruhe", "review_count": 6, "name": "St\u00e4dtisches Klinikum Karlsruhe gGmbH", "neighborhoods": [], "longitude": 8.3746667, "state": "BW", "stars": 2.0, "latitude": 49.0156295, "attributes": {"By Appointment Only": false}, "type": "business"}
{"business_id": "TdFHwzPd5Ah_maA-kYktHw", "full_address": "Wilhelmstr. 1\n76275 Ettlingen", "hours": {}, "open": true, "categories": ["Neurologist", "Doctors", "Health & Medical", "Physical Therapy", "Psychiatrists"], "city": "Ettlingen", "review_count": 3, "name": "Dr. med. Bernhard Kopp", "neighborhoods": [], "longitude": 8.41062, "state": "BW", "stars": 4.5, "latitude": 48.939, "attributes": {}, "type": "business"}
{"business_id": "Jd8dJj7xYvDlQIBPh4OAjQ", "full_address": "Gerwigstr. 6\n76131 Karlsruhe", "hours": {}, "open": true, "categories": ["Doctors", "Health & Medical", "Family Practice"], "city": "Karlsruhe", "review_count": 4, "name": "Wolfgang Gabriele Calmbach Wiedenmann-Calmbach", "neighborhoods": [], "longitude": 8.42414, "state": "BW", "stars": 4.0, "latitude": 49.0094, "attributes": {"Wheelchair Accessible": false}, "type": "business"}
{"business_id": "18QdyaHkxw-DR-lLAzWpAA", "full_address": "Bergstr. 30\n76337 Waldbronn", "hours": {"Monday": {"close": "22:00", "open": "10:00"}, "Tuesday": {"close": "22:00", "open": "10:00"}, "Friday": {"close": "22:00", "open": "10:00"}, "Wednesday": {"close": "22:00", "open": "10:00"}, "Thursday": {"close": "22:00", "open": "10:00"}, "Sunday": {"close": "22:00", "open": "09:00"}, "Saturday": {"close": "22:00", "open": "09:00"}}, "open": true, "categories": ["Beauty & Spas", "Saunas", "Swimming Pools", "Health & Medical", "Active Life", "Day Spas"], "city": "Waldbronn", "review_count": 9, "name": "Albtherme", "neighborhoods": [], "longitude": 8.47079, "state": "BW", "stars": 4.0, "latitude": 48.9276, "attributes": {"Parking": {"garage": false, "validated": false, "street": false, "lot": false, "valet": false}, "Accepts Credit Cards": false, "Good for Kids": false, "Price Range": 3}, "type": "business"}
{"business_id": "VXdS6bj2V-Bh3V7WLpbSgg", "full_address": "Ettlingerstr. 4\n76137 Karlsruhe", "hours": {"Monday": {"close": "23:00", "open": "14:00"}, "Tuesday": {"close": "23:00", "open": "10:00"}, "Friday": {"close": "23:00", "open": "10:00"}, "Wednesday": {"close": "23:00", "open": "10:00"}, "Thursday": {"close": "23:00", "open": "10:00"}, "Sunday": {"close": "20:00", "open": "10:00"}, "Saturday": {"close": "22:00", "open": "10:00"}}, "open": true, "categories": ["Beauty & Spas", "Saunas", "Swimming Pools", "Health & Medical", "Active Life", "Massage"], "city": "Karlsruhe", "review_count": 25, "name": "Therme Vierordtbad", "neighborhoods": [], "longitude": 8.40286361542425, "state": "BW", "stars": 4.5, "latitude": 49.0013688673535, "attributes": {"Price Range": 2, "Parking": {"garage": false, "street": false, "validated": false, "lot": false, "valet": false}, "By Appointment Only": false, "Accepts Credit Cards": true, "Good for Kids": false, "Wheelchair Accessible": true}, "type": "business"}
{"business_id": "bBBmsMx5uLVC82Si8FE_XA", "full_address": "Karlstr. 124\n76137 Karlsruhe", "hours": {"Monday": {"close": "23:00", "open": "16:00"}, "Tuesday": {"close": "23:00", "open": "16:00"}, "Friday": {"close": "23:00", "open": "16:00"}, "Wednesday": {"close": "23:00", "open": "16:00"}, "Thursday": {"close": "23:00", "open": "16:00"}, "Sunday": {"close": "23:00", "open": "16:00"}, "Saturday": {"close": "23:00", "open": "16:00"}}, "open": true, "categories": ["Health & Medical"], "city": "Karlsruhe", "review_count": 5, "name": "Ambulanter Pflegedienst Gerber Wojtek Gerber", "neighborhoods": [], "longitude": 8.3935327, "state": "BW", "stars": 5.0, "latitude": 48.9979501, "attributes": {"Parking": {"garage": false, "validated": false, "street": false, "lot": false, "valet": false}, "Accepts Credit Cards": false, "Wheelchair Accessible": false, "Price Range": 4}, "type": "business"}
{"business_id": "yszLaYWs06eEc2ZcsK02aQ", "full_address": "Rheinstra\u00dfe  43\n76185 Karlsruhe", "hours": {"Monday": {"close": "18:00", "open": "15:00"}, "Tuesday": {"close": "18:00", "open": "15:00"}, "Friday": {"close": "18:00", "open": "15:00"}, "Wednesday": {"close": "18:00", "open": "15:00"}, "Thursday": {"close": "18:00", "open": "14:00"}, "Saturday": {"close": "00:00", "open": "00:00"}}, "open": true, "categories": ["Doctors", "Health & Medical", "Podiatrists"], "city": "Karlsruhe", "review_count": 3, "name": "Praxis f\u00fcr Fachfu\u00dfpflege", "neighborhoods": [], "longitude": 8.3611818, "state": "BW", "stars": 5.0, "latitude": 49.011065, "attributes": {"Wheelchair Accessible": true, "Parking": {"garage": false, "validated": false, "street": false, "lot": false, "valet": false}}, "type": "business"}
{"business_id": "6XLGrli77rWeukOsOJsVqA", "full_address": "Osteopathie & Naturheilkunde Praxis\nMoltkestr. 90\n76133 Karlsruhe", "hours": {"Tuesday": {"close": "20:00", "open": "16:00"}, "Friday": {"close": "16:00", "open": "10:00"}, "Wednesday": {"close": "20:00", "open": "10:00"}, "Thursday": {"close": "20:00", "open": "10:00"}}, "open": true, "categories": ["Doctors", "Health & Medical", "Osteopathic Physicians"], "city": "Karlsruhe", "review_count": 3, "name": "Klaus Czepan", "neighborhoods": [], "longitude": 8.3717205, "state": "BW", "stars": 4.5, "latitude": 49.0174215, "attributes": {"Accepts Credit Cards": false, "Wheelchair Accessible": true, "Parking": {"garage": false, "validated": false, "street": false, "lot": false, "valet": false}}, "type": "business"}
{"business_id": "yT2lyh79mSDSQaKR7JCMfw", "full_address": "Diakonissenstr. 28\n76199 Karlsruhe", "hours": {}, "open": true, "categories": ["Health & Medical", "Hospitals"], "city": "Karlsruhe", "review_count": 3, "name": "Diakonissen-Krankenhaus Akademisches Lehrkrankenhaus", "neighborhoods": [], "longitude": 8.41187, "state": "BW", "stars": 5.0, "latitude": 48.9725, "attributes": {"Accepts Credit Cards": false, "Wheelchair Accessible": true, "Parking": {"garage": false, "validated": false, "street": false, "lot": false, "valet": false}}, "type": "business"}
{"business_id": "G0l7qwpaS_4l-D86ObrVaQ", "full_address": "Kaiserstr. 110\n76133 Karlsruhe", "hours": {}, "open": true, "categories": ["Dermatologists", "Doctors", "Health & Medical"], "city": "Karlsruhe", "review_count": 5, "name": "Haut\u00e4rzte/Allergologie Robert Adina Figl Figl", "neighborhoods": [], "longitude": 8.3987, "state": "BW", "stars": 3.0, "latitude": 49.0098, "attributes": {}, "type": "business"}
{"business_id": "qGYtcAOItY3ys7CdZ-Q4xA", "full_address": "Amalienstr. 14b\n76131 Karlsruhe", "hours": {}, "open": true, "categories": ["Doctors", "Health & Medical", "Obstetricians & Gynecologists"], "city": "Karlsruhe", "review_count": 3, "name": "Frauenarztpraxis Leokadia Seidler", "neighborhoods": [], "longitude": 8.39506, "state": "BW", "stars": 4.5, "latitude": 49.0078, "attributes": {}, "type": "business"}
{"business_id": "_sWP2LkDml6bE9nKB3MUPg", "full_address": "Kaiserstra\u00dfe 215\n76133 Karlsruhe", "hours": {"Friday": {"close": "00:00", "open": "00:00"}, "Tuesday": {"close": "17:30", "open": "14:30"}, "Thursday": {"close": "17:30", "open": "14:30"}, "Wednesday": {"close": "00:00", "open": "00:00"}, "Monday": {"close": "17:30", "open": "14:30"}}, "open": true, "categories": ["Dermatologists", "Doctors", "Allergists", "Health & Medical"], "city": "Karlsruhe", "review_count": 6, "name": "Drs. Fritz O\u00dfwald, Ina Reitenbach-Blindt, Franz Schwan, David", "neighborhoods": [], "longitude": 8.39524, "state": "BW", "stars": 5.0, "latitude": 49.00978, "attributes": {"By Appointment Only": false, "Wheelchair Accessible": true, "Parking": {"garage": false, "validated": false, "street": false, "lot": false, "valet": false}}, "type": "business"}
{"business_id": "JwTJcaBBc6Z2ckGCPFo0Zw", "full_address": "Turnerstr. 44\n76189 Karlsruhe", "hours": {}, "open": true, "categories": ["Pediatric Dentists", "Health & Medical", "Dentists"], "city": "Karlsruhe", "review_count": 3, "name": "Kinder\u00e4rzte Stephan Kathrin Pfisterer Prinz", "neighborhoods": [], "longitude": 8.33613, "state": "BW", "stars": 4.0, "latitude": 49.0029, "attributes": {"Accepts Credit Cards": false, "Wheelchair Accessible": true, "Parking": {"garage": false, "validated": false, "street": false, "lot": false, "valet": false}}, "type": "business"}
{"business_id": "S0wr9Gj5RFscgffwYiJ4Iw", "full_address": "Karlstr. 18\n76133 Karlsruhe", "hours": {}, "open": true, "categories": ["Health & Medical", "Pharmacy"], "city": "Karlsruhe", "review_count": 6, "name": "Karl-Apotheke", "neighborhoods": [], "longitude": 8.39467, "state": "BW", "stars": 4.0, "latitude": 49.0082, "attributes": {"Parking": {"garage": false, "street": false, "validated": false, "lot": false, "valet": false}, "Accepts Credit Cards": true, "Wheelchair Accessible": true, "Price Range": 2}, "type": "business"}
{"business_id": "zRBgEqzMrrlnya2_eeRHYA", "full_address": "Brettener Str. 1\n76131 Karlsruhe", "hours": {}, "open": true, "categories": ["Health & Medical", "Pharmacy"], "city": "Karlsruhe", "review_count": 3, "name": "Minerva Apotheke", "neighborhoods": [], "longitude": 8.44314, "state": "BW", "stars": 5.0, "latitude": 49.0173, "attributes": {}, "type": "business"}
{"business_id": "UJZKaJKEyYlBEa7byP-uQw", "full_address": "Karlstr. 115\n76137 Karlsruhe", "hours": {}, "open": true, "categories": ["Health & Medical", "Pharmacy"], "city": "Karlsruhe", "review_count": 5, "name": "OK  Apotheke", "neighborhoods": [], "longitude": 8.3938408, "state": "BW", "stars": 4.0, "latitude": 48.9969597, "attributes": {"Wheelchair Accessible": true, "Parking": {"garage": false, "validated": false, "street": false, "lot": false, "valet": false}}, "type": "business"}
{"business_id": "6dOjMBKFbK3bRju_n4Tmog", "full_address": "S\u00fcdendstr. 32\n76137 Karlsruhe", "hours": {}, "open": true, "categories": ["Hospitals", "Medical Centers", "Health & Medical"], "city": "Karlsruhe", "review_count": 3, "name": "St. Vincentius-Kliniken gAG Medizinische Klinik I", "neighborhoods": [], "longitude": 8.38875, "state": "BW", "stars": 2.5, "latitude": 48.9994, "attributes": {"By Appointment Only": false}, "type": "business"}
{"business_id": "qhu-hCLlRiqoJ5du775oig", "full_address": "Sophienstr. 53\n76133 Karlsruhe", "hours": {}, "open": true, "categories": ["Doctors", "Health & Medical", "Family Practice"], "city": "Karlsruhe", "review_count": 3, "name": "Dr. med. Beate Weinschenk", "neighborhoods": [], "longitude": 8.38963, "state": "BW", "stars": 5.0, "latitude": 49.0074, "attributes": {}, "type": "business"}
{"business_id": "KVwqBtoJM4Bzzv4r1mKJSA", "full_address": "Hirschstr. 105\n76137 Karlsruhe", "hours": {}, "open": true, "categories": ["Doctors", "Orthopedists", "Health & Medical"], "city": "Karlsruhe", "review_count": 5, "name": "Facharzt f\u00fcr Orthop\u00e4die und Sportmedizin Wolfgang Krentel", "neighborhoods": [], "longitude": 8.39065, "state": "BW", "stars": 3.5, "latitude": 48.9995, "attributes": {"Wheelchair Accessible": false, "Parking": {"garage": false, "validated": false, "street": false, "lot": false, "valet": false}}, "type": "business"}
{"business_id": "RdWxr1GAp-BrK25nNRMS6Q", "full_address": "Georg-Friedrich-Str. 24\n76131 Karlsruhe", "hours": {}, "open": true, "categories": ["Dermatologists", "Doctors", "Ear Nose & Throat", "Health & Medical"], "city": "Karlsruhe", "review_count": 3, "name": "Dr. med. Wilfried Pfitzer", "neighborhoods": [], "longitude": 8.42355, "state": "BW", "stars": 4.5, "latitude": 49.0094, "attributes": {}, "type": "business"}
{"business_id": "7KaHhijkGVTvCBZ1hlV9Bw", "full_address": "Kriegsstr. 140\n76133 Karlsruhe", "hours": {}, "open": true, "categories": ["Doctors", "Health & Medical", "Internal Medicine"], "city": "Karlsruhe", "review_count": 3, "name": "Internisten Endokrinologische Praxis Carlo Sebastian Varma Zink", "neighborhoods": [], "longitude": 8.39421, "state": "BW", "stars": 2.5, "latitude": 49.0057, "attributes": {"Parking": {"garage": false, "validated": false, "street": false, "lot": false, "valet": false}}, "type": "business"}
{"business_id": "_De17jwK6Frt8stTulbEeA", "full_address": "B\u00e4renweg\n76149 Karlsruhe", "hours": {}, "open": true, "categories": ["Doctors", "Health & Medical", "Obstetricians & Gynecologists"], "city": "Karlsruhe", "review_count": 3, "name": "Dr. Nelis", "neighborhoods": [], "longitude": 8.3787081, "state": "BW", "stars": 3.5, "latitude": 49.0469655, "attributes": {}, "type": "business"}
{"business_id": "EUoTIMnoHlN3pov3E2ICWw", "full_address": "Weinweg 16\n76131 Karlsruhe", "hours": {}, "open": true, "categories": ["Dentists", "Doctors", "Health & Medical"], "city": "Karlsruhe", "review_count": 3, "name": "Rudolf Pacner", "neighborhoods": [], "longitude": 8.44524, "state": "BW", "stars": 4.0, "latitude": 49.0098, "attributes": {}, "type": "business"}
{"business_id": "D5fZo7NO8JOAu5icizIf-A", "full_address": "Kriegsstr. 140\n76133 Karlsruhe", "hours": {}, "open": true, "categories": ["Doctors", "Ear Nose & Throat", "Health & Medical"], "city": "Karlsruhe", "review_count": 3, "name": "Dr. med. Martin Spreng", "neighborhoods": [], "longitude": 8.39429, "state": "BW", "stars": 5.0, "latitude": 49.0056, "attributes": {}, "type": "business"}
{"business_id": "Z6Sn4cSiFt5Fw4aznUjJsA", "full_address": "B\u00fcrgerstr. 16\nauch Karlsstr. 23\n76133 Karlsruhe", "hours": {}, "open": true, "categories": ["Doctors", "Ear Nose & Throat", "Health & Medical"], "city": "Karlsruhe", "review_count": 3, "name": "HNO-Praxis Andreas Scherer", "neighborhoods": [], "longitude": 8.393843, "state": "BW", "stars": 5.0, "latitude": 49.0067498, "attributes": {"Parking": {"garage": false, "validated": false, "street": false, "lot": false, "valet": false}}, "type": "business"}
{"business_id": "4jx3VMVyPW1gL_yoHcGSQw", "full_address": "Erzbergerstr. 131\n76149 Karlsruhe", "hours": {}, "open": true, "categories": ["Doctors", "Health & Medical", "Naturopathic/Holistic"], "city": "Karlsruhe", "review_count": 3, "name": "Stefan Mathias Fuchs", "neighborhoods": [], "longitude": 8.38622, "state": "BW", "stars": 4.5, "latitude": 49.028, "attributes": {}, "type": "business"}
{"business_id": "oDGCwoW6WLbt9_XcY0p-2A", "full_address": "Stephanienstr. 96\n76133 Karlsruhe", "hours": {}, "open": true, "categories": ["Shopping", "Doctors", "Health & Medical", "Eyewear & Opticians"], "city": "Karlsruhe", "review_count": 3, "name": "Dr. med. Thomas Kohm", "neighborhoods": [], "longitude": 8.38877, "state": "BW", "stars": 3.0, "latitude": 49.0107, "attributes": {}, "type": "business"}
{"business_id": "96DyV1HhsRRPkFIN4zfzPQ", "full_address": "Karlstr. 29\n76133 Karlsruhe", "hours": {"Friday": {"close": "12:30", "open": "08:00"}, "Tuesday": {"close": "17:30", "open": "14:00"}, "Thursday": {"close": "18:00", "open": "14:00"}, "Wednesday": {"close": "14:00", "open": "08:00"}, "Monday": {"close": "17:30", "open": "14:00"}}, "open": true, "categories": ["Doctors", "Ophthalmologists", "Health & Medical"], "city": "Karlsruhe", "review_count": 11, "name": "Dr. Stephan Kaut", "neighborhoods": [], "longitude": 8.39517480535322, "state": "BW", "stars": 4.0, "latitude": 49.0075256107311, "attributes": {"Accepts Credit Cards": true, "Wheelchair Accessible": true}, "type": "business"}
{"business_id": "FMozaZuEJ43v_aWue6hkSQ", "full_address": "Nowackanlage 15-17\n76137 Karlsruhe", "hours": {}, "open": true, "categories": ["Shopping", "Doctors", "Health & Medical", "Eyewear & Opticians"], "city": "Karlsruhe", "review_count": 3, "name": "Dr. med. Annegret Schumacher", "neighborhoods": [], "longitude": 8.40426, "state": "BW", "stars": 1.0, "latitude": 49.003, "attributes": {"Price Range": 4}, "type": "business"}
{"business_id": "xeZv-LeNe8gw8enVQL4zGQ", "full_address": "Haid-und-Neu-Str. 12\n76131 Karlsruhe", "hours": {"Monday": {"close": "00:00", "open": "00:00"}, "Tuesday": {"close": "20:00", "open": "15:00"}, "Friday": {"close": "00:00", "open": "00:00"}, "Wednesday": {"close": "20:00", "open": "15:00"}, "Thursday": {"close": "20:00", "open": "15:00"}, "Saturday": {"close": "00:00", "open": "00:00"}}, "open": true, "categories": ["Health & Medical", "Dentists"], "city": "Karlsruhe", "review_count": 4, "name": "Zahnarzt Tobias Ruder", "neighborhoods": [], "longitude": 8.42514, "state": "BW", "stars": 3.5, "latitude": 49.0121, "attributes": {"Parking": {"garage": false, "validated": false, "street": false, "lot": false, "valet": false}}, "type": "business"}
{"business_id": "PfjEZGICY_QNZAQolVDncw", "full_address": "Orthop\u00e4dische Gemeinschaft am Ludwigsplatz\nWaldstr. 67\n76133 Karlsruhe", "hours": {}, "open": true, "categories": ["Doctors", "Orthopedists", "Health & Medical", "Chiropractors"], "city": "Karlsruhe", "review_count": 5, "name": "Dr. med. Oliver Frerking", "neighborhoods": [], "longitude": 8.39616, "state": "BW", "stars": 3.0, "latitude": 49.0092, "attributes": {"By Appointment Only": false}, "type": "business"}
{"business_id": "-yS-eOYb9q88ffWwVVFzng", "full_address": "R\u00fcppurrer Str. 1\n76137 Karlsruhe", "hours": {"Monday": {"close": "22:00", "open": "08:00"}, "Tuesday": {"close": "22:00", "open": "08:00"}, "Friday": {"close": "22:00", "open": "08:00"}, "Wednesday": {"close": "22:00", "open": "08:00"}, "Thursday": {"close": "22:00", "open": "08:00"}, "Saturday": {"close": "22:00", "open": "08:00"}}, "open": true, "categories": ["Health & Medical", "Pharmacy"], "city": "Karlsruhe", "review_count": 3, "name": "Apotheke im Scheck in Center", "neighborhoods": [], "longitude": 8.41053, "state": "BW", "stars": 3.5, "latitude": 49.0052, "attributes": {}, "type": "business"}
{"business_id": "ah-Czxz576_ZTtbetYmwNw", "full_address": "Kriegsstr. 140\n76133 Karlsruhe", "hours": {"Friday": {"close": "12:30", "open": "08:00"}, "Tuesday": {"close": "18:00", "open": "08:00"}, "Thursday": {"close": "18:00", "open": "08:00"}, "Wednesday": {"close": "18:00", "open": "08:00"}, "Monday": {"close": "18:00", "open": "08:00"}}, "open": true, "categories": ["Oral Surgeons", "Health & Medical", "Dentists"], "city": "Karlsruhe", "review_count": 6, "name": "Werner Dr. Dr. dent. und Schierle Prof. Dr. Dr. dent.", "neighborhoods": [], "longitude": 8.39429, "state": "BW", "stars": 4.0, "latitude": 49.0056, "attributes": {"Accepts Credit Cards": false, "Wheelchair Accessible": true, "Parking": {"garage": false, "validated": false, "street": false, "lot": false, "valet": false}}, "type": "business"}
{"business_id": "7J75VLZKDJhCypKjUAcFXQ", "full_address": "Leopoldstr. 40\n76275 Ettlingen", "hours": {}, "open": true, "categories": ["Dermatologists", "Doctors", "Health & Medical", "Internal Medicine"], "city": "Ettlingen", "review_count": 3, "name": "Dr. med. Andreas Kist", "neighborhoods": [], "longitude": 8.40789, "state": "BW", "stars": 3.5, "latitude": 48.94011, "attributes": {"Wheelchair Accessible": true, "Parking": {"garage": false, "validated": false, "street": false, "lot": false, "valet": false}}, "type": "business"}
{"business_id": "_8DkBpvIb05yeT2bHsrBMQ", "full_address": "Moltkestr. 90\nMedizinisches Versorgungszentrum\n76133 Karlsruhe", "hours": {}, "open": true, "categories": ["Health & Medical", "Hospitals"], "city": "Karlsruhe", "review_count": 6, "name": "St\u00e4dtisches Klinikum Karlsruhe gGmbH", "neighborhoods": [], "longitude": 8.3746667, "state": "BW", "stars": 2.0, "latitude": 49.0156295, "attributes": {"By Appointment Only": false}, "type": "business"}
{"business_id": "TdFHwzPd5Ah_maA-kYktHw", "full_address": "Wilhelmstr. 1\n76275 Ettlingen", "hours": {}, "open": true, "categories": ["Neurologist", "Doctors", "Health & Medical", "Physical Therapy", "Psychiatrists"], "city": "Ettlingen", "review_count": 3, "name": "Dr. med. Bernhard Kopp", "neighborhoods": [], "longitude": 8.41062, "state": "BW", "stars": 4.5, "latitude": 48.939, "attributes": {}, "type": "business"}
{"business_id": "Jd8dJj7xYvDlQIBPh4OAjQ", "full_address": "Gerwigstr. 6\n76131 Karlsruhe", "hours": {}, "open": true, "categories": ["Doctors", "Health & Medical", "Family Practice"], "city": "Karlsruhe", "review_count": 4, "name": "Wolfgang Gabriele Calmbach Wiedenmann-Calmbach", "neighborhoods": [], "longitude": 8.42414, "state": "BW", "stars": 4.0, "latitude": 49.0094, "attributes": {"Wheelchair Accessible": false}, "type": "business"}
{"business_id": "18QdyaHkxw-DR-lLAzWpAA", "full_address": "Bergstr. 30\n76337 Waldbronn", "hours": {"Monday": {"close": "22:00", "open": "10:00"}, "Tuesday": {"close": "22:00", "open": "10:00"}, "Friday": {"close": "22:00", "open": "10:00"}, "Wednesday": {"close": "22:00", "open": "10:00"}, "Thursday": {"close": "22:00", "open": "10:00"}, "Sunday": {"close": "22:00", "open": "09:00"}, "Saturday": {"close": "22:00", "open": "09:00"}}, "open": true, "categories": ["Beauty & Spas", "Saunas", "Swimming Pools", "Health & Medical", "Active Life", "Day Spas"], "city": "Waldbronn", "review_count": 9, "name": "Albtherme", "neighborhoods": [], "longitude": 8.47079, "state": "BW", "stars": 4.0, "latitude": 48.9276, "attributes": {"Parking": {"garage": false, "validated": false, "street": false, "lot": false, "valet": false}, "Accepts Credit Cards": false, "Good for Kids": false, "Price Range": 3}, "type": "business"}
{"business_id": "VXdS6bj2V-Bh3V7WLpbSgg", "full_address": "Ettlingerstr. 4\n76137 Karlsruhe", "hours": {"Monday": {"close": "23:00", "open": "14:00"}, "Tuesday": {"close": "23:00", "open": "10:00"}, "Friday": {"close": "23:00", "open": "10:00"}, "Wednesday": {"close": "23:00", "open": "10:00"}, "Thursday": {"close": "23:00", "open": "10:00"}, "Sunday": {"close": "20:00", "open": "10:00"}, "Saturday": {"close": "22:00", "open": "10:00"}}, "open": true, "categories": ["Beauty & Spas", "Saunas", "Swimming Pools", "Health & Medical", "Active Life", "Massage"], "city": "Karlsruhe", "review_count": 25, "name": "Therme Vierordtbad", "neighborhoods": [], "longitude": 8.40286361542425, "state": "BW", "stars": 4.5, "latitude": 49.0013688673535, "attributes": {"Price Range": 2, "Parking": {"garage": false, "street": false, "validated": false, "lot": false, "valet": false}, "By Appointment Only": false, "Accepts Credit Cards": true, "Good for Kids": false, "Wheelchair Accessible": true}, "type": "business"}
{"business_id": "bBBmsMx5uLVC82Si8FE_XA", "full_address": "Karlstr. 124\n76137 Karlsruhe", "hours": {"Monday": {"close": "23:00", "open": "16:00"}, "Tuesday": {"close": "23:00", "open": "16:00"}, "Friday": {"close": "23:00", "open": "16:00"}, "Wednesday": {"close": "23:00", "open": "16:00"}, "Thursday": {"close": "23:00", "open": "16:00"}, "Sunday": {"close": "23:00", "open": "16:00"}, "Saturday": {"close": "23:00", "open": "16:00"}}, "open": true, "categories": ["Health & Medical"], "city": "Karlsruhe", "review_count": 5, "name": "Ambulanter Pflegedienst Gerber Wojtek Gerber", "neighborhoods": [], "longitude": 8.3935327, "state": "BW", "stars": 5.0, "latitude": 48.9979501, "attributes": {"Parking": {"garage": false, "validated": false, "street": false, "lot": false, "valet": false}, "Accepts Credit Cards": false, "Wheelchair Accessible": false, "Price Range": 4}, "type": "business"}
{"business_id": "yszLaYWs06eEc2ZcsK02aQ", "full_address": "Rheinstra\u00dfe  43\n76185 Karlsruhe", "hours": {"Monday": {"close": "18:00", "open": "15:00"}, "Tuesday": {"close": "18:00", "open": "15:00"}, "Friday": {"close": "18:00", "open": "15:00"}, "Wednesday": {"close": "18:00", "open": "15:00"}, "Thursday": {"close": "18:00", "open": "14:00"}, "Saturday": {"close": "00:00", "open": "00:00"}}, "open": true, "categories": ["Doctors", "Health & Medical", "Podiatrists"], "city": "Karlsruhe", "review_count": 3, "name": "Praxis f\u00fcr Fachfu\u00dfpflege", "neighborhoods": [], "longitude": 8.3611818, "state": "BW", "stars": 5.0, "latitude": 49.011065, "attributes": {"Wheelchair Accessible": true, "Parking": {"garage": false, "validated": false, "street": false, "lot": false, "valet": false}}, "type": "business"}
{"business_id": "6XLGrli77rWeukOsOJsVqA", "full_address": "Osteopathie & Naturheilkunde Praxis\nMoltkestr. 90\n76133 Karlsruhe", "hours": {"Tuesday": {"close": "20:00", "open": "16:00"}, "Friday": {"close": "16:00", "open": "10:00"}, "Wednesday": {"close": "20:00", "open": "10:00"}, "Thursday": {"close": "20:00", "open": "10:00"}}, "open": true, "categories": ["Doctors", "Health & Medical", "Osteopathic Physicians"], "city": "Karlsruhe", "review_count": 3, "name": "Klaus Czepan", "neighborhoods": [], "longitude": 8.3717205, "state": "BW", "stars": 4.5, "latitude": 49.0174215, "attributes": {"Accepts Credit Cards": false, "Wheelchair Accessible": true, "Parking": {"garage": false, "validated": false, "street": false, "lot": false, "valet": false}}, "type": "business"}
{"business_id": "yT2lyh79mSDSQaKR7JCMfw", "full_address": "Diakonissenstr. 28\n76199 Karlsruhe", "hours": {}, "open": true, "categories": ["Health & Medical", "Hospitals"], "city": "Karlsruhe", "review_count": 3, "name": "Diakonissen-Krankenhaus Akademisches Lehrkrankenhaus", "neighborhoods": [], "longitude": 8.41187, "state": "BW", "stars": 5.0, "latitude": 48.9725, "attributes": {"Accepts Credit Cards": false, "Wheelchair Accessible": true, "Parking": {"garage": false, "validated": false, "street": false, "lot": false, "valet": false}}, "type": "business"}
{"business_id": "G0l7qwpaS_4l-D86ObrVaQ", "full_address": "Kaiserstr. 110\n76133 Karlsruhe", "hours": {}, "open": true, "categories": ["Dermatologists", "Doctors", "Health & Medical"], "city": "Karlsruhe", "review_count": 5, "name": "Haut\u00e4rzte/Allergologie Robert Adina Figl Figl", "neighborhoods": [], "longitude": 8.3987, "state": "BW", "stars": 3.0, "latitude": 49.0098, "attributes": {}, "type": "business"}
{"business_id": "qGYtcAOItY3ys7CdZ-Q4xA", "full_address": "Amalienstr. 14b\n76131 Karlsruhe", "hours": {}, "open": true, "categories": ["Doctors", "Health & Medical", "Obstetricians & Gynecologists"], "city": "Karlsruhe", "review_count": 3, "name": "Frauenarztpraxis Leokadia Seidler", "neighborhoods": [], "longitude": 8.39506, "state": "BW", "stars": 4.5, "latitude": 49.0078, "attributes": {}, "type": "business"}
{"business_id": "_sWP2LkDml6bE9nKB3MUPg", "full_address": "Kaiserstra\u00dfe 215\n76133 Karlsruhe", "hours": {"Friday": {"close": "00:00", "open": "00:00"}, "Tuesday": {"close": "17:30", "open": "14:30"}, "Thursday": {"close": "17:30", "open": "14:30"}, "Wednesday": {"close": "00:00", "open": "00:00"}, "Monday": {"close": "17:30", "open": "14:30"}}, "open": true, "categories": ["Dermatologists", "Doctors", "Allergists", "Health & Medical"], "city": "Karlsruhe", "review_count": 6, "name": "Drs. Fritz O\u00dfwald, Ina Reitenbach-Blindt, Franz Schwan, David", "neighborhoods": [], "longitude": 8.39524, "state": "BW", "stars": 5.0, "latitude": 49.00978, "attributes": {"By Appointment Only": false, "Wheelchair Accessible": true, "Parking": {"garage": false, "validated": false, "street": false, "lot": false, "valet": false}}, "type": "business"}
{"business_id": "JwTJcaBBc6Z2ckGCPFo0Zw", "full_address": "Turnerstr. 44\n76189 Karlsruhe", "hours": {}, "open": true, "categories": ["Pediatric Dentists", "Health & Medical", "Dentists"], "city": "Karlsruhe", "review_count": 3, "name": "Kinder\u00e4rzte Stephan Kathrin Pfisterer Prinz", "neighborhoods": [], "longitude": 8.33613, "state": "BW", "stars": 4.0, "latitude": 49.0029, "attributes": {"Accepts Credit Cards": false, "Wheelchair Accessible": true, "Parking": {"garage": false, "validated": false, "street": false, "lot": false, "valet": false}}, "type": "business"}
{"business_id": "S0wr9Gj5RFscgffwYiJ4Iw", "full_address": "Karlstr. 18\n76133 Karlsruhe", "hours": {}, "open": true, "categories": ["Health & Medical", "Pharmacy"], "city": "Karlsruhe", "review_count": 6, "name": "Karl-Apotheke", "neighborhoods": [], "longitude": 8.39467, "state": "BW", "stars": 4.0, "latitude": 49.0082, "attributes": {"Parking": {"garage": false, "street": false, "validated": false, "lot": false, "valet": false}, "Accepts Credit Cards": true, "Wheelchair Accessible": true, "Price Range": 2}, "type": "business"}
{"business_id": "zRBgEqzMrrlnya2_eeRHYA", "full_address": "Brettener Str. 1\n76131 Karlsruhe", "hours": {}, "open": true, "categories": ["Health & Medical", "Pharmacy"], "city": "Karlsruhe", "review_count": 3, "name": "Minerva Apotheke", "neighborhoods": [], "longitude": 8.44314, "state": "BW", "stars": 5.0, "latitude": 49.0173, "attributes": {}, "type": "business"}
{"business_id": "UJZKaJKEyYlBEa7byP-uQw", "full_address": "Karlstr. 115\n76137 Karlsruhe", "hours": {}, "open": true, "categories": ["Health & Medical", "Pharmacy"], "city": "Karlsruhe", "review_count": 5, "name": "OK  Apotheke", "neighborhoods": [], "longitude": 8.3938408, "state": "BW", "stars": 4.0, "latitude": 48.9969597, "attributes": {"Wheelchair Accessible": true, "Parking": {"garage": false, "validated": false, "street": false, "lot": false, "valet": false}}, "type": "business"}
{"business_id": "6dOjMBKFbK3bRju_n4Tmog", "full_address": "S\u00fcdendstr. 32\n76137 Karlsruhe", "hours": {}, "open": true, "categories": ["Hospitals", "Medical Centers", "Health & Medical"], "city": "Karlsruhe", "review_count": 3, "name": "St. Vincentius-Kliniken gAG Medizinische Klinik I", "neighborhoods": [], "longitude": 8.38875, "state": "BW", "stars": 2.5, "latitude": 48.9994, "attributes": {"By Appointment Only": false}, "type": "business"}
{"business_id": "qhu-hCLlRiqoJ5du775oig", "full_address": "Sophienstr. 53\n76133 Karlsruhe", "hours": {}, "open": true, "categories": ["Doctors", "Health & Medical", "Family Practice"], "city": "Karlsruhe", "review_count": 3, "name": "Dr. med. Beate Weinschenk", "neighborhoods": [], "longitude": 8.38963, "state": "BW", "stars": 5.0, "latitude": 49.0074, "attributes": {}, "type": "business"}
{"business_id": "KVwqBtoJM4Bzzv4r1mKJSA", "full_address": "Hirschstr. 105\n76137 Karlsruhe", "hours": {}, "open": true, "categories": ["Doctors", "Orthopedists", "Health & Medical"], "city": "Karlsruhe", "review_count": 5, "name": "Facharzt f\u00fcr Orthop\u00e4die und Sportmedizin Wolfgang Krentel", "neighborhoods": [], "longitude": 8.39065, "state": "BW", "stars": 3.5, "latitude": 48.9995, "attributes": {"Wheelchair Accessible": false, "Parking": {"garage": false, "validated": false, "street": false, "lot": false, "valet": false}}, "type": "business"}
{"business_id": "RdWxr1GAp-BrK25nNRMS6Q", "full_address": "Georg-Friedrich-Str. 24\n76131 Karlsruhe", "hours": {}, "open": true, "categories": ["Dermatologists", "Doctors", "Ear Nose & Throat", "Health & Medical"], "city": "Karlsruhe", "review_count": 3, "name": "Dr. med. Wilfried Pfitzer", "neighborhoods": [], "longitude": 8.42355, "state": "BW", "stars": 4.5, "latitude": 49.0094, "attributes": {}, "type": "business"}
{"business_id": "7KaHhijkGVTvCBZ1hlV9Bw", "full_address": "Kriegsstr. 140\n76133 Karlsruhe", "hours": {}, "open": true, "categories": ["Doctors", "Health & Medical", "Internal Medicine"], "city": "Karlsruhe", "review_count": 3, "name": "Internisten Endokrinologische Praxis Carlo Sebastian Varma Zink", "neighborhoods": [], "longitude": 8.39421, "state": "BW", "stars": 2.5, "latitude": 49.0057, "attributes": {"Parking": {"garage": false, "validated": false, "street": false, "lot": false, "valet": false}}, "type": "business"}
{"business_id": "_De17jwK6Frt8stTulbEeA", "full_address": "B\u00e4renweg\n76149 Karlsruhe", "hours": {}, "open": true, "categories": ["Doctors", "Health & Medical", "Obstetricians & Gynecologists"], "city": "Karlsruhe", "review_count": 3, "name": "Dr. Nelis", "neighborhoods": [], "longitude": 8.3787081, "state": "BW", "stars": 3.5, "latitude": 49.0469655, "attributes": {}, "type": "business"}
{"business_id": "EUoTIMnoHlN3pov3E2ICWw", "full_address": "Weinweg 16\n76131 Karlsruhe", "hours": {}, "open": true, "categories": ["Dentists", "Doctors", "Health & Medical"], "city": "Karlsruhe", "review_count": 3, "name": "Rudolf Pacner", "neighborhoods": [], "longitude": 8.44524, "state": "BW", "stars": 4.0, "latitude": 49.0098, "attributes": {}, "type": "business"}
{"business_id": "D5fZo7NO8JOAu5icizIf-A", "full_address": "Kriegsstr. 140\n76133 Karlsruhe", "hours": {}, "open": true, "categories": ["Doctors", "Ear Nose & Throat", "Health & Medical"], "city": "Karlsruhe", "review_count": 3, "name": "Dr. med. Martin Spreng", "neighborhoods": [], "longitude": 8.39429, "state": "BW", "stars": 5.0, "latitude": 49.0056, "attributes": {}, "type": "business"}
{"business_id": "Z6Sn4cSiFt5Fw4aznUjJsA", "full_address": "B\u00fcrgerstr. 16\nauch Karlsstr. 23\n76133 Karlsruhe", "hours": {}, "open": true, "categories": ["Doctors", "Ear Nose & Throat", "Health & Medical"], "city": "Karlsruhe", "review_count": 3, "name": "HNO-Praxis Andreas Scherer", "neighborhoods": [], "longitude": 8.393843, "state": "BW", "stars": 5.0, "latitude": 49.0067498, "attributes": {"Parking": {"garage": false, "validated": false, "street": false, "lot": false, "valet": false}}, "type": "business"}
{"business_id": "4jx3VMVyPW1gL_yoHcGSQw", "full_address": "Erzbergerstr. 131\n76149 Karlsruhe", "hours": {}, "open": true, "categories": ["Doctors", "Health & Medical", "Naturopathic/Holistic"], "city": "Karlsruhe", "review_count": 3, "name": "Stefan Mathias Fuchs", "neighborhoods": [], "longitude": 8.38622, "state": "BW", "stars": 4.5, "latitude": 49.028, "attributes": {}, "type": "business"}
{"business_id": "oDGCwoW6WLbt9_XcY0p-2A", "full_address": "Stephanienstr. 96\n76133 Karlsruhe", "hours": {}, "open": true, "categories": ["Shopping", "Doctors", "Health & Medical", "Eyewear & Opticians"], "city": "Karlsruhe", "review_count": 3, "name": "Dr. med. Thomas Kohm", "neighborhoods": [], "longitude": 8.38877, "state": "BW", "stars": 3.0, "latitude": 49.0107, "attributes": {}, "type": "business"}
{"business_id": "96DyV1HhsRRPkFIN4zfzPQ", "full_address": "Karlstr. 29\n76133 Karlsruhe", "hours": {"Friday": {"close": "12:30", "open": "08:00"}, "Tuesday": {"close": "17:30", "open": "14:00"}, "Thursday": {"close": "18:00", "open": "14:00"}, "Wednesday": {"close": "14:00", "open": "08:00"}, "Monday": {"close": "17:30", "open": "14:00"}}, "open": true, "categories": ["Doctors", "Ophthalmologists", "Health & Medical"], "city": "Karlsruhe", "review_count": 11, "name": "Dr. Stephan Kaut", "neighborhoods": [], "longitude": 8.39517480535322, "state": "BW", "stars": 4.0, "latitude": 49.0075256107311, "attributes": {"Accepts Credit Cards": true, "Wheelchair Accessible": true}, "type": "business"}
{"business_id": "FMozaZuEJ43v_aWue6hkSQ", "full_address": "Nowackanlage 15-17\n76137 Karlsruhe", "hours": {}, "open": true, "categories": ["Shopping", "Doctors", "Health & Medical", "Eyewear & Opticians"], "city": "Karlsruhe", "review_count": 3, "name": "Dr. med. Annegret Schumacher", "neighborhoods": [], "longitude": 8.40426, "state": "BW", "stars": 1.0, "latitude": 49.003, "attributes": {"Price Range": 4}, "type": "business"}
{"business_id": "xeZv-LeNe8gw8enVQL4zGQ", "full_address": "Haid-und-Neu-Str. 12\n76131 Karlsruhe", "hours": {"Monday": {"close": "00:00", "open": "00:00"}, "Tuesday": {"close": "20:00", "open": "15:00"}, "Friday": {"close": "00:00", "open": "00:00"}, "Wednesday": {"close": "20:00", "open": "15:00"}, "Thursday": {"close": "20:00", "open": "15:00"}, "Saturday": {"close": "00:00", "open": "00:00"}}, "open": true, "categories": ["Health & Medical", "Dentists"], "city": "Karlsruhe", "review_count": 4, "name": "Zahnarzt Tobias Ruder", "neighborhoods": [], "longitude": 8.42514, "state": "BW", "stars": 3.5, "latitude": 49.0121, "attributes": {"Parking": {"garage": false, "validated": false, "street": false, "lot": false, "valet": false}}, "type": "business"}
{"business_id": "PfjEZGICY_QNZAQolVDncw", "full_address": "Orthop\u00e4dische Gemeinschaft am Ludwigsplatz\nWaldstr. 67\n76133 Karlsruhe", "hours": {}, "open": true, "categories": ["Doctors", "Orthopedists", "Health & Medical", "Chiropractors"], "city": "Karlsruhe", "review_count": 5, "name": "Dr. med. Oliver Frerking", "neighborhoods": [], "longitude": 8.39616, "state": "BW", "stars": 3.0, "latitude": 49.0092, "attributes": {"By Appointment Only": false}, "type": "business"}
{"business_id": "-yS-eOYb9q88ffWwVVFzng", "full_address": "R\u00fcppurrer Str. 1\n76137 Karlsruhe", "hours": {"Monday": {"close": "22:00", "open": "08:00"}, "Tuesday": {"close": "22:00", "open": "08:00"}, "Friday": {"close": "22:00", "open": "08:00"}, "Wednesday": {"close": "22:00", "open": "08:00"}, "Thursday": {"close": "22:00", "open": "08:00"}, "Saturday": {"close": "22:00", "open": "08:00"}}, "open": true, "categories": ["Health & Medical", "Pharmacy"], "city": "Karlsruhe", "review_count": 3, "name": "Apotheke im Scheck in Center", "neighborhoods": [], "longitude": 8.41053, "state": "BW", "stars": 3.5, "latitude": 49.0052, "attributes": {}, "type": "business"}
{"business_id": "ah-Czxz576_ZTtbetYmwNw", "full_address": "Kriegsstr. 140\n76133 Karlsruhe", "hours": {"Friday": {"close": "12:30", "open": "08:00"}, "Tuesday": {"close": "18:00", "open": "08:00"}, "Thursday": {"close": "18:00", "open": "08:00"}, "Wednesday": {"close": "18:00", "open": "08:00"}, "Monday": {"close": "18:00", "open": "08:00"}}, "open": true, "categories": ["Oral Surgeons", "Health & Medical", "Dentists"], "city": "Karlsruhe", "review_count": 6, "name": "Werner Dr. Dr. dent. und Schierle Prof. Dr. Dr. dent.", "neighborhoods": [], "longitude": 8.39429, "state": "BW", "stars": 4.0, "latitude": 49.0056, "attributes": {"Accepts Credit Cards": false, "Wheelchair Accessible": true, "Parking": {"garage": false, "validated": false, "street": false, "lot": false, "valet": false}}, "type": "business"}
{"business_id": "7J75VLZKDJhCypKjUAcFXQ", "full_address": "Leopoldstr. 40\n76275 Ettlingen", "hours": {}, "open": true, "categories": ["Dermatologists", "Doctors", "Health & Medical", "Internal Medicine"], "city": "Ettlingen", "review_count": 3, "name": "Dr. med. Andreas Kist", "neighborhoods": [], "longitude": 8.40789, "state": "BW", "stars": 3.5, "latitude": 48.94011, "attributes": {"Wheelchair Accessible": true, "Parking": {"garage": false, "validated": false, "street": false, "lot": false, "valet": false}}, "type": "business"}
{"business_id": "_8DkBpvIb05yeT2bHsrBMQ", "full_address": "Moltkestr. 90\nMedizinisches Versorgungszentrum\n76133 Karlsruhe", "hours": {}, "open": true, "categories": ["Health & Medical", "Hospitals"], "city": "Karlsruhe", "review_count": 6, "name": "St\u00e4dtisches Klinikum Karlsruhe gGmbH", "neighborhoods": [], "longitude": 8.3746667, "state": "BW", "stars": 2.0, "latitude": 49.0156295, "attributes": {"By Appointment Only": false}, "type": "business"}
{"business_id": "TdFHwzPd5Ah_maA-kYktHw", "full_address": "Wilhelmstr. 1\n76275 Ettlingen", "hours": {}, "open": true, "categories": ["Neurologist", "Doctors", "Health & Medical", "Physical Therapy", "Psychiatrists"], "city": "Ettlingen", "review_count": 3, "name": "Dr. med. Bernhard Kopp", "neighborhoods": [], "longitude": 8.41062, "state": "BW", "stars": 4.5, "latitude": 48.939, "attributes": {}, "type": "business"}
{"business_id": "Jd8dJj7xYvDlQIBPh4OAjQ", "full_address": "Gerwigstr. 6\n76131 Karlsruhe", "hours": {}, "open": true, "categories": ["Doctors", "Health & Medical", "Family Practice"], "city": "Karlsruhe", "review_count": 4, "name": "Wolfgang Gabriele Calmbach Wiedenmann-Calmbach", "neighborhoods": [], "longitude": 8.42414, "state": "BW", "stars": 4.0, "latitude": 49.0094, "attributes": {"Wheelchair Accessible": false}, "type": "business"}
{"business_id": "18QdyaHkxw-DR-lLAzWpAA", "full_address": "Bergstr. 30\n76337 Waldbronn", "hours": {"Monday": {"close": "22:00", "open": "10:00"}, "Tuesday": {"close": "22:00", "open": "10:00"}, "Friday": {"close": "22:00", "open": "10:00"}, "Wednesday": {"close": "22:00", "open": "10:00"}, "Thursday": {"close": "22:00", "open": "10:00"}, "Sunday": {"close": "22:00", "open": "09:00"}, "Saturday": {"close": "22:00", "open": "09:00"}}, "open": true, "categories": ["Beauty & Spas", "Saunas", "Swimming Pools", "Health & Medical", "Active Life", "Day Spas"], "city": "Waldbronn", "review_count": 9, "name": "Albtherme", "neighborhoods": [], "longitude": 8.47079, "state": "BW", "stars": 4.0, "latitude": 48.9276, "attributes": {"Parking": {"garage": false, "validated": false, "street": false, "lot": false, "valet": false}, "Accepts Credit Cards": false, "Good for Kids": false, "Price Range": 3}, "type": "business"}
{"business_id": "VXdS6bj2V-Bh3V7WLpbSgg", "full_address": "Ettlingerstr. 4\n76137 Karlsruhe", "hours": {"Monday": {"close": "23:00", "open": "14:00"}, "Tuesday": {"close": "23:00", "open": "10:00"}, "Friday": {"close": "23:00", "open": "10:00"}, "Wednesday": {"close": "23:00", "open": "10:00"}, "Thursday": {"close": "23:00", "open": "10:00"}, "Sunday": {"close": "20:00", "open": "10:00"}, "Saturday": {"close": "22:00", "open": "10:00"}}, "open": true, "categories": ["Beauty & Spas", "Saunas", "Swimming Pools", "Health & Medical", "Active Life", "Massage"], "city": "Karlsruhe", "review_count": 25, "name": "Therme Vierordtbad", "neighborhoods": [], "longitude": 8.40286361542425, "state": "BW", "stars": 4.5, "latitude": 49.0013688673535, "attributes": {"Price Range": 2, "Parking": {"garage": false, "street": false, "validated": false, "lot": false, "valet": false}, "By Appointment Only": false, "Accepts Credit Cards": true, "Good for Kids": false, "Wheelchair Accessible": true}, "type": "business"}
{"business_id": "bBBmsMx5uLVC82Si8FE_XA", "full_address": "Karlstr. 124\n76137 Karlsruhe", "hours": {"Monday": {"close": "23:00", "open": "16:00"}, "Tuesday": {"close": "23:00", "open": "16:00"}, "Friday": {"close": "23:00", "open": "16:00"}, "Wednesday": {"close": "23:00", "open": "16:00"}, "Thursday": {"close": "23:00", "open": "16:00"}, "Sunday": {"close": "23:00", "open": "16:00"}, "Saturday": {"close": "23:00", "open": "16:00"}}, "open": true, "categories": ["Health & Medical"], "city": "Karlsruhe", "review_count": 5, "name": "Ambulanter Pflegedienst Gerber Wojtek Gerber", "neighborhoods": [], "longitude": 8.3935327, "state": "BW", "stars": 5.0, "latitude": 48.9979501, "attributes": {"Parking": {"garage": false, "validated": false, "street": false, "lot": false, "valet": false}, "Accepts Credit Cards": false, "Wheelchair Accessible": false, "Price Range": 4}, "type": "business"}
{"business_id": "yszLaYWs06eEc2ZcsK02aQ", "full_address": "Rheinstra\u00dfe  43\n76185 Karlsruhe", "hours": {"Monday": {"close": "18:00", "open": "15:00"}, "Tuesday": {"close": "18:00", "open": "15:00"}, "Friday": {"close": "18:00", "open": "15:00"}, "Wednesday": {"close": "18:00", "open": "15:00"}, "Thursday": {"close": "18:00", "open": "14:00"}, "Saturday": {"close": "00:00", "open": "00:00"}}, "open": true, "categories": ["Doctors", "Health & Medical", "Podiatrists"], "city": "Karlsruhe", "review_count": 3, "name": "Praxis f\u00fcr Fachfu\u00dfpflege", "neighborhoods": [], "longitude": 8.3611818, "state": "BW", "stars": 5.0, "latitude": 49.011065, "attributes": {"Wheelchair Accessible": true, "Parking": {"garage": false, "validated": false, "street": false, "lot": false, "valet": false}}, "type": "business"}
{"business_id": "6XLGrli77rWeukOsOJsVqA", "full_address": "Osteopathie & Naturheilkunde Praxis\nMoltkestr. 90\n76133 Karlsruhe", "hours": {"Tuesday": {"close": "20:00", "open": "16:00"}, "Friday": {"close": "16:00", "open": "10:00"}, "Wednesday": {"close": "20:00", "open": "10:00"}, "Thursday": {"close": "20:00", "open": "10:00"}}, "open": true, "categories": ["Doctors", "Health & Medical", "Osteopathic Physicians"], "city": "Karlsruhe", "review_count": 3, "name": "Klaus Czepan", "neighborhoods": [], "longitude": 8.3717205, "state": "BW", "stars": 4.5, "latitude": 49.0174215, "attributes": {"Accepts Credit Cards": false, "Wheelchair Accessible": true, "Parking": {"garage": false, "validated": false, "street": false, "lot": false, "valet": false}}, "type": "business"}
{"business_id": "yT2lyh79mSDSQaKR7JCMfw", "full_address": "Diakonissenstr. 28\n76199 Karlsruhe", "hours": {}, "open": true, "categories": ["Health & Medical", "Hospitals"], "city": "Karlsruhe", "review_count": 3, "name": "Diakonissen-Krankenhaus Akademisches Lehrkrankenhaus", "neighborhoods": [], "longitude": 8.41187, "state": "BW", "stars": 5.0, "latitude": 48.9725, "attributes": {"Accepts Credit Cards": false, "Wheelchair Accessible": true, "Parking": {"garage": false, "validated": false, "street": false, "lot": false, "valet": false}}, "type": "business"}
{"business_id": "G0l7qwpaS_4l-D86ObrVaQ", "full_address": "Kaiserstr. 110\n76133 Karlsruhe", "hours": {}, "open": true, "categories": ["Dermatologists", "Doctors", "Health & Medical"], "city": "Karlsruhe", "review_count": 5, "name": "Haut\u00e4rzte/Allergologie Robert Adina Figl Figl", "neighborhoods": [], "longitude": 8.3987, "state": "BW", "stars": 3.0, "latitude": 49.0098, "attributes": {}, "type": "business"}
{"business_id": "qGYtcAOItY3ys7CdZ-Q4xA", "full_address": "Amalienstr. 14b\n76131 Karlsruhe", "hours": {}, "open": true, "categories": ["Doctors", "Health & Medical", "Obstetricians & Gynecologists"], "city": "Karlsruhe", "review_count": 3, "name": "Frauenarztpraxis Leokadia Seidler", "neighborhoods": [], "longitude": 8.39506, "state": "BW", "stars": 4.5, "latitude": 49.0078, "attributes": {}, "type": "business"}
{"business_id": "_sWP2LkDml6bE9nKB3MUPg", "full_address": "Kaiserstra\u00dfe 215\n76133 Karlsruhe", "hours": {"Friday": {"close": "00:00", "open": "00:00"}, "Tuesday": {"close": "17:30", "open": "14:30"}, "Thursday": {"close": "17:30", "open": "14:30"}, "Wednesday": {"close": "00:00", "open": "00:00"}, "Monday": {"close": "17:30", "open": "14:30"}}, "open": true, "categories": ["Dermatologists", "Doctors", "Allergists", "Health & Medical"], "city": "Karlsruhe", "review_count": 6, "name": "Drs. Fritz O\u00dfwald, Ina Reitenbach-Blindt, Franz Schwan, David", "neighborhoods": [], "longitude": 8.39524, "state": "BW", "stars": 5.0, "latitude": 49.00978, "attributes": {"By Appointment Only": false, "Wheelchair Accessible": true, "Parking": {"garage": false, "validated": false, "street": false, "lot": false, "valet": false}}, "type": "business"}
{"business_id": "JwTJcaBBc6Z2ckGCPFo0Zw", "full_address": "Turnerstr. 44\n76189 Karlsruhe", "hours": {}, "open": true, "categories": ["Pediatric Dentists", "Health & Medical", "Dentists"], "city": "Karlsruhe", "review_count": 3, "name": "Kinder\u00e4rzte Stephan Kathrin Pfisterer Prinz", "neighborhoods": [], "longitude": 8.33613, "state": "BW", "stars": 4.0, "latitude": 49.0029, "attributes": {"Accepts Credit Cards": false, "Wheelchair Accessible": true, "Parking": {"garage": false, "validated": false, "street": false, "lot": false, "valet": false}}, "type": "business"}
{"business_id": "S0wr9Gj5RFscgffwYiJ4Iw", "full_address": "Karlstr. 18\n76133 Karlsruhe", "hours": {}, "open": true, "categories": ["Health & Medical", "Pharmacy"], "city": "Karlsruhe", "review_count": 6, "name": "Karl-Apotheke", "neighborhoods": [], "longitude": 8.39467, "state": "BW", "stars": 4.0, "latitude": 49.0082, "attributes": {"Parking": {"garage": false, "street": false, "validated": false, "lot": false, "valet": false}, "Accepts Credit Cards": true, "Wheelchair Accessible": true, "Price Range": 2}, "type": "business"}
{"business_id": "zRBgEqzMrrlnya2_eeRHYA", "full_address": "Brettener Str. 1\n76131 Karlsruhe", "hours": {}, "open": true, "categories": ["Health & Medical", "Pharmacy"], "city": "Karlsruhe", "review_count": 3, "name": "Minerva Apotheke", "neighborhoods": [], "longitude": 8.44314, "state": "BW", "stars": 5.0, "latitude": 49.0173, "attributes": {}, "type": "business"}
{"business_id": "UJZKaJKEyYlBEa7byP-uQw", "full_address": "Karlstr. 115\n76137 Karlsruhe", "hours": {}, "open": true, "categories": ["Health & Medical", "Pharmacy"], "city": "Karlsruhe", "review_count": 5, "name": "OK  Apotheke", "neighborhoods": [], "longitude": 8.3938408, "state": "BW", "stars": 4.0, "latitude": 48.9969597, "attributes": {"Wheelchair Accessible": true, "Parking": {"garage": false, "validated": false, "street": false, "lot": false, "valet": false}}, "type": "business"}
{"business_id": "6dOjMBKFbK3bRju_n4Tmog", "full_address": "S\u00fcdendstr. 32\n76137 Karlsruhe", "hours": {}, "open": true, "categories": ["Hospitals", "Medical Centers", "Health & Medical"], "city": "Karlsruhe", "review_count": 3, "name": "St. Vincentius-Kliniken gAG Medizinische Klinik I", "neighborhoods": [], "longitude": 8.38875, "state": "BW", "stars": 2.5, "latitude": 48.9994, "attributes": {"By Appointment Only": false}, "type": "business"}
{"business_id": "qhu-hCLlRiqoJ5du775oig", "full_address": "Sophienstr. 53\n76133 Karlsruhe", "hours": {}, "open": true, "categories": ["Doctors", "Health & Medical", "Family Practice"], "city": "Karlsruhe", "review_count": 3, "name": "Dr. med. Beate Weinschenk", "neighborhoods": [], "longitude": 8.38963, "state": "BW", "stars": 5.0, "latitude": 49.0074, "attributes": {}, "type": "business"}
{"business_id": "KVwqBtoJM4Bzzv4r1mKJSA", "full_address": "Hirschstr. 105\n76137 Karlsruhe", "hours": {}, "open": true, "categories": ["Doctors", "Orthopedists", "Health & Medical"], "city": "Karlsruhe", "review_count": 5, "name": "Facharzt f\u00fcr Orthop\u00e4die und Sportmedizin Wolfgang Krentel", "neighborhoods": [], "longitude": 8.39065, "state": "BW", "stars": 3.5, "latitude": 48.9995, "attributes": {"Wheelchair Accessible": false, "Parking": {"garage": false, "validated": false, "street": false, "lot": false, "valet": false}}, "type": "business"}
{"business_id": "RdWxr1GAp-BrK25nNRMS6Q", "full_address": "Georg-Friedrich-Str. 24\n76131 Karlsruhe", "hours": {}, "open": true, "categories": ["Dermatologists", "Doctors", "Ear Nose & Throat", "Health & Medical"], "city": "Karlsruhe", "review_count": 3, "name": "Dr. med. Wilfried Pfitzer", "neighborhoods": [], "longitude": 8.42355, "state": "BW", "stars": 4.5, "latitude": 49.0094, "attributes": {}, "type": "business"}
{"business_id": "7KaHhijkGVTvCBZ1hlV9Bw", "full_address": "Kriegsstr. 140\n76133 Karlsruhe", "hours": {}, "open": true, "categories": ["Doctors", "Health & Medical", "Internal Medicine"], "city": "Karlsruhe", "review_count": 3, "name": "Internisten Endokrinologische Praxis Carlo Sebastian Varma Zink", "neighborhoods": [], "longitude": 8.39421, "state": "BW", "stars": 2.5, "latitude": 49.0057, "attributes": {"Parking": {"garage": false, "validated": false, "street": false, "lot": false, "valet": false}}, "type": "business"}
{"business_id": "_De17jwK6Frt8stTulbEeA", "full_address": "B\u00e4renweg\n76149 Karlsruhe", "hours": {}, "open": true, "categories": ["Doctors", "Health & Medical", "Obstetricians & Gynecologists"], "city": "Karlsruhe", "review_count": 3, "name": "Dr. Nelis", "neighborhoods": [], "longitude": 8.3787081, "state": "BW", "stars": 3.5, "latitude": 49.0469655, "attributes": {}, "type": "business"}
{"business_id": "EUoTIMnoHlN3pov3E2ICWw", "full_address": "Weinweg 16\n76131 Karlsruhe", "hours": {}, "open": true, "categories": ["Dentists", "Doctors", "Health & Medical"], "city": "Karlsruhe", "review_count": 3, "name": "Rudolf Pacner", "neighborhoods": [], "longitude": 8.44524, "state": "BW", "stars": 4.0, "latitude": 49.0098, "attributes": {}, "type": "business"}
{"business_id": "D5fZo7NO8JOAu5icizIf-A", "full_address": "Kriegsstr. 140\n76133 Karlsruhe", "hours": {}, "open": true, "categories": ["Doctors", "Ear Nose & Throat", "Health & Medical"], "city": "Karlsruhe", "review_count": 3, "name": "Dr. med. Martin Spreng", "neighborhoods": [], "longitude": 8.39429, "state": "BW", "stars": 5.0, "latitude": 49.0056, "attributes": {}, "type": "business"}
{"business_id": "Z6Sn4cSiFt5Fw4aznUjJsA", "full_address": "B\u00fcrgerstr. 16\nauch Karlsstr. 23\n76133 Karlsruhe", "hours": {}, "open": true, "categories": ["Doctors", "Ear Nose & Throat", "Health & Medical"], "city": "Karlsruhe", "review_count": 3, "name": "HNO-Praxis Andreas Scherer", "neighborhoods": [], "longitude": 8.393843, "state": "BW", "stars": 5.0, "latitude": 49.0067498, "attributes": {"Parking": {"garage": false, "validated": false, "street": false, "lot": false, "valet": false}}, "type": "business"}
{"business_id": "4jx3VMVyPW1gL_yoHcGSQw", "full_address": "Erzbergerstr. 131\n76149 Karlsruhe", "hours": {}, "open": true, "categories": ["Doctors", "Health & Medical", "Naturopathic/Holistic"], "city": "Karlsruhe", "review_count": 3, "name": "Stefan Mathias Fuchs", "neighborhoods": [], "longitude": 8.38622, "state": "BW", "stars": 4.5, "latitude": 49.028, "attributes": {}, "type": "business"}
{"business_id": "oDGCwoW6WLbt9_XcY0p-2A", "full_address": "Stephanienstr. 96\n76133 Karlsruhe", "hours": {}, "open": true, "categories": ["Shopping", "Doctors", "Health & Medical", "Eyewear & Opticians"], "city": "Karlsruhe", "review_count": 3, "name": "Dr. med. Thomas Kohm", "neighborhoods": [], "longitude": 8.38877, "state": "BW", "stars": 3.0, "latitude": 49.0107, "attributes": {}, "type": "business"}
{"business_id": "96DyV1HhsRRPkFIN4zfzPQ", "full_address": "Karlstr. 29\n76133 Karlsruhe", "hours": {"Friday": {"close": "12:30", "open": "08:00"}, "Tuesday": {"close": "17:30", "open": "14:00"}, "Thursday": {"close": "18:00", "open": "14:00"}, "Wednesday": {"close": "14:00", "open": "08:00"}, "Monday": {"close": "17:30", "open": "14:00"}}, "open": true, "categories": ["Doctors", "Ophthalmologists", "Health & Medical"], "city": "Karlsruhe", "review_count": 11, "name": "Dr. Stephan Kaut", "neighborhoods": [], "longitude": 8.39517480535322, "state": "BW", "stars": 4.0, "latitude": 49.0075256107311, "attributes": {"Accepts Credit Cards": true, "Wheelchair Accessible": true}, "type": "business"}
{"business_id": "FMozaZuEJ43v_aWue6hkSQ", "full_address": "Nowackanlage 15-17\n76137 Karlsruhe", "hours": {}, "open": true, "categories": ["Shopping", "Doctors", "Health & Medical", "Eyewear & Opticians"], "city": "Karlsruhe", "review_count": 3, "name": "Dr. med. Annegret Schumacher", "neighborhoods": [], "longitude": 8.40426, "state": "BW", "stars": 1.0, "latitude": 49.003, "attributes": {"Price Range": 4}, "type": "business"}
{"business_id": "xeZv-LeNe8gw8enVQL4zGQ", "full_address": "Haid-und-Neu-Str. 12\n76131 Karlsruhe", "hours": {"Monday": {"close": "00:00", "open": "00:00"}, "Tuesday": {"close": "20:00", "open": "15:00"}, "Friday": {"close": "00:00", "open": "00:00"}, "Wednesday": {"close": "20:00", "open": "15:00"}, "Thursday": {"close": "20:00", "open": "15:00"}, "Saturday": {"close": "00:00", "open": "00:00"}}, "open": true, "categories": ["Health & Medical", "Dentists"], "city": "Karlsruhe", "review_count": 4, "name": "Zahnarzt Tobias Ruder", "neighborhoods": [], "longitude": 8.42514, "state": "BW", "stars": 3.5, "latitude": 49.0121, "attributes": {"Parking": {"garage": false, "validated": false, "street": false, "lot": false, "valet": false}}, "type": "business"}
{"business_id": "PfjEZGICY_QNZAQolVDncw", "full_address": "Orthop\u00e4dische Gemeinschaft am Ludwigsplatz\nWaldstr. 67\n76133 Karlsruhe", "hours": {}, "open": true, "categories": ["Doctors", "Orthopedists", "Health & Medical", "Chiropractors"], "city": "Karlsruhe", "review_count": 5, "name": "Dr. med. Oliver Frerking", "neighborhoods": [], "longitude": 8.39616, "state": "BW", "stars": 3.0, "latitude": 49.0092, "attributes": {"By Appointment Only": false}, "type": "business"}
{"business_id": "-yS-eOYb9q88ffWwVVFzng", "full_address": "R\u00fcppurrer Str. 1\n76137 Karlsruhe", "hours": {"Monday": {"close": "22:00", "open": "08:00"}, "Tuesday": {"close": "22:00", "open": "08:00"}, "Friday": {"close": "22:00", "open": "08:00"}, "Wednesday": {"close": "22:00", "open": "08:00"}, "Thursday": {"close": "22:00", "open": "08:00"}, "Saturday": {"close": "22:00", "open": "08:00"}}, "open": true, "categories": ["Health & Medical", "Pharmacy"], "city": "Karlsruhe", "review_count": 3, "name": "Apotheke im Scheck in Center", "neighborhoods": [], "longitude": 8.41053, "state": "BW", "stars": 3.5, "latitude": 49.0052, "attributes": {}, "type": "business"}
{"business_id": "ah-Czxz576_ZTtbetYmwNw", "full_address": "Kriegsstr. 140\n76133 Karlsruhe", "hours": {"Friday": {"close": "12:30", "open": "08:00"}, "Tuesday": {"close": "18:00", "open": "08:00"}, "Thursday": {"close": "18:00", "open": "08:00"}, "Wednesday": {"close": "18:00", "open": "08:00"}, "Monday": {"close": "18:00", "open": "08:00"}}, "open": true, "categories": ["Oral Surgeons", "Health & Medical", "Dentists"], "city": "Karlsruhe", "review_count": 6, "name": "Werner Dr. Dr. dent. und Schierle Prof. Dr. Dr. dent.", "neighborhoods": [], "longitude": 8.39429, "state": "BW", "stars": 4.0, "latitude": 49.0056, "attributes": {"Accepts Credit Cards": false, "Wheelchair Accessible": true, "Parking": {"garage": false, "validated": false, "street": false, "lot": false, "valet": false}}, "type": "business"}
{"business_id": "7J75VLZKDJhCypKjUAcFXQ", "full_address": "Leopoldstr. 40\n76275 Ettlingen", "hours": {}, "open": true, "categories": ["Dermatologists", "Doctors", "Health & Medical", "Internal Medicine"], "city": "Ettlingen", "review_count": 3, "name": "Dr. med. Andreas Kist", "neighborhoods": [], "longitude": 8.40789, "state": "BW", "stars": 3.5, "latitude": 48.94011, "attributes": {"Wheelchair Accessible": true, "Parking": {"garage": false, "validated": false, "street": false, "lot": false, "valet": false}}, "type": "business"}
{"business_id": "_8DkBpvIb05yeT2bHsrBMQ", "full_address": "Moltkestr. 90\nMedizinisches Versorgungszentrum\n76133 Karlsruhe", "hours": {}, "open": true, "categories": ["Health & Medical", "Hospitals"], "city": "Karlsruhe", "review_count": 6, "name": "St\u00e4dtisches Klinikum Karlsruhe gGmbH", "neighborhoods": [], "longitude": 8.3746667, "state": "BW", "stars": 2.0, "latitude": 49.0156295, "attributes": {"By Appointment Only": false}, "type": "business"}
{"business_id": "TdFHwzPd5Ah_maA-kYktHw", "full_address": "Wilhelmstr. 1\n76275 Ettlingen", "hours": {}, "open": true, "categories": ["Neurologist", "Doctors", "Health & Medical", "Physical Therapy", "Psychiatrists"], "city": "Ettlingen", "review_count": 3, "name": "Dr. med. Bernhard Kopp", "neighborhoods": [], "longitude": 8.41062, "state": "BW", "stars": 4.5, "latitude": 48.939, "attributes": {}, "type": "business"}
{"business_id": "Jd8dJj7xYvDlQIBPh4OAjQ", "full_address": "Gerwigstr. 6\n76131 Karlsruhe", "hours": {}, "open": true, "categories": ["Doctors", "Health & Medical", "Family Practice"], "city": "Karlsruhe", "review_count": 4, "name": "Wolfgang Gabriele Calmbach Wiedenmann-Calmbach", "neighborhoods": [], "longitude": 8.42414, "state": "BW", "stars": 4.0, "latitude": 49.0094, "attributes": {"Wheelchair Accessible": false}, "type": "business"}
{"business_id": "18QdyaHkxw-DR-lLAzWpAA", "full_address": "Bergstr. 30\n76337 Waldbronn", "hours": {"Monday": {"close": "22:00", "open": "10:00"}, "Tuesday": {"close": "22:00", "open": "10:00"}, "Friday": {"close": "22:00", "open": "10:00"}, "Wednesday": {"close": "22:00", "open": "10:00"}, "Thursday": {"close": "22:00", "open": "10:00"}, "Sunday": {"close": "22:00", "open": "09:00"}, "Saturday": {"close": "22:00", "open": "09:00"}}, "open": true, "categories": ["Beauty & Spas", "Saunas", "Swimming Pools", "Health & Medical", "Active Life", "Day Spas"], "city": "Waldbronn", "review_count": 9, "name": "Albtherme", "neighborhoods": [], "longitude": 8.47079, "state": "BW", "stars": 4.0, "latitude": 48.9276, "attributes": {"Parking": {"garage": false, "validated": false, "street": false, "lot": false, "valet": false}, "Accepts Credit Cards": false, "Good for Kids": false, "Price Range": 3}, "type": "business"}
{"business_id": "VXdS6bj2V-Bh3V7WLpbSgg", "full_address": "Ettlingerstr. 4\n76137 Karlsruhe", "hours": {"Monday": {"close": "23:00", "open": "14:00"}, "Tuesday": {"close": "23:00", "open": "10:00"}, "Friday": {"close": "23:00", "open": "10:00"}, "Wednesday": {"close": "23:00", "open": "10:00"}, "Thursday": {"close": "23:00", "open": "10:00"}, "Sunday": {"close": "20:00", "open": "10:00"}, "Saturday": {"close": "22:00", "open": "10:00"}}, "open": true, "categories": ["Beauty & Spas", "Saunas", "Swimming Pools", "Health & Medical", "Active Life", "Massage"], "city": "Karlsruhe", "review_count": 25, "name": "Therme Vierordtbad", "neighborhoods": [], "longitude": 8.40286361542425, "state": "BW", "stars": 4.5, "latitude": 49.0013688673535, "attributes": {"Price Range": 2, "Parking": {"garage": false, "street": false, "validated": false, "lot": false, "valet": false}, "By Appointment Only": false, "Accepts Credit Cards": true, "Good for Kids": false, "Wheelchair Accessible": true}, "type": "business"}
{"business_id": "bBBmsMx5uLVC82Si8FE_XA", "full_address": "Karlstr. 124\n76137 Karlsruhe", "hours": {"Monday": {"close": "23:00", "open": "16:00"}, "Tuesday": {"close": "23:00", "open": "16:00"}, "Friday": {"close": "23:00", "open": "16:00"}, "Wednesday": {"close": "23:00", "open": "16:00"}, "Thursday": {"close": "23:00", "open": "16:00"}, "Sunday": {"close": "23:00", "open": "16:00"}, "Saturday": {"close": "23:00", "open": "16:00"}}, "open": true, "categories": ["Health & Medical"], "city": "Karlsruhe", "review_count": 5, "name": "Ambulanter Pflegedienst Gerber Wojtek Gerber", "neighborhoods": [], "longitude": 8.3935327, "state": "BW", "stars": 5.0, "latitude": 48.9979501, "attributes": {"Parking": {"garage": false, "validated": false, "street": false, "lot": false, "valet": false}, "Accepts Credit Cards": false, "Wheelchair Accessible": false, "Price Range": 4}, "type": "business"}
{"business_id": "yszLaYWs06eEc2ZcsK02aQ", "full_address": "Rheinstra\u00dfe  43\n76185 Karlsruhe", "hours": {"Monday": {"close": "18:00", "open": "15:00"}, "Tuesday": {"close": "18:00", "open": "15:00"}, "Friday": {"close": "18:00", "open": "15:00"}, "Wednesday": {"close": "18:00", "open": "15:00"}, "Thursday": {"close": "18:00", "open": "14:00"}, "Saturday": {"close": "00:00", "open": "00:00"}}, "open": true, "categories": ["Doctors", "Health & Medical", "Podiatrists"], "city": "Karlsruhe", "review_count": 3, "name": "Praxis f\u00fcr Fachfu\u00dfpflege", "neighborhoods": [], "longitude": 8.3611818, "state": "BW", "stars": 5.0, "latitude": 49.011065, "attributes": {"Wheelchair Accessible": true, "Parking": {"garage": false, "validated": false, "street": false, "lot": false, "valet": false}}, "type": "business"}
{"business_id": "6XLGrli77rWeukOsOJsVqA", "full_address": "Osteopathie & Naturheilkunde Praxis\nMoltkestr. 90\n76133 Karlsruhe", "hours": {"Tuesday": {"close": "20:00", "open": "16:00"}, "Friday": {"close": "16:00", "open": "10:00"}, "Wednesday": {"close": "20:00", "open": "10:00"}, "Thursday": {"close": "20:00", "open": "10:00"}}, "open": true, "categories": ["Doctors", "Health & Medical", "Osteopathic Physicians"], "city": "Karlsruhe", "review_count": 3, "name": "Klaus Czepan", "neighborhoods": [], "longitude": 8.3717205, "state": "BW", "stars": 4.5, "latitude": 49.0174215, "attributes": {"Accepts Credit Cards": false, "Wheelchair Accessible": true, "Parking": {"garage": false, "validated": false, "street": false, "lot": false, "valet": false}}, "type": "business"}
{"business_id": "yT2lyh79mSDSQaKR7JCMfw", "full_address": "Diakonissenstr. 28\n76199 Karlsruhe", "hours": {}, "open": true, "categories": ["Health & Medical", "Hospitals"], "city": "Karlsruhe", "review_count": 3, "name": "Diakonissen-Krankenhaus Akademisches Lehrkrankenhaus", "neighborhoods": [], "longitude": 8.41187, "state": "BW", "stars": 5.0, "latitude": 48.9725, "attributes": {"Accepts Credit Cards": false, "Wheelchair Accessible": true, "Parking": {"garage": false, "validated": false, "street": false, "lot": false, "valet": false}}, "type": "business"}
{"business_id": "G0l7qwpaS_4l-D86ObrVaQ", "full_address": "Kaiserstr. 110\n76133 Karlsruhe", "hours": {}, "open": true, "categories": ["Dermatologists", "Doctors", "Health & Medical"], "city": "Karlsruhe", "review_count": 5, "name": "Haut\u00e4rzte/Allergologie Robert Adina Figl Figl", "neighborhoods": [], "longitude": 8.3987, "state": "BW", "stars": 3.0, "latitude": 49.0098, "attributes": {}, "type": "business"}
{"business_id": "qGYtcAOItY3ys7CdZ-Q4xA", "full_address": "Amalienstr. 14b\n76131 Karlsruhe", "hours": {}, "open": true, "categories": ["Doctors", "Health & Medical", "Obstetricians & Gynecologists"], "city": "Karlsruhe", "review_count": 3, "name": "Frauenarztpraxis Leokadia Seidler", "neighborhoods": [], "longitude": 8.39506, "state": "BW", "stars": 4.5, "latitude": 49.0078, "attributes": {}, "type": "business"}
{"business_id": "_sWP2LkDml6bE9nKB3MUPg", "full_address": "Kaiserstra\u00dfe 215\n76133 Karlsruhe", "hours": {"Friday": {"close": "00:00", "open": "00:00"}, "Tuesday": {"close": "17:30", "open": "14:30"}, "Thursday": {"close": "17:30", "open": "14:30"}, "Wednesday": {"close": "00:00", "open": "00:00"}, "Monday": {"close": "17:30", "open": "14:30"}}, "open": true, "categories": ["Dermatologists", "Doctors", "Allergists", "Health & Medical"], "city": "Karlsruhe", "review_count": 6, "name": "Drs. Fritz O\u00dfwald, Ina Reitenbach-Blindt, Franz Schwan, David", "neighborhoods": [], "longitude": 8.39524, "state": "BW", "stars": 5.0, "latitude": 49.00978, "attributes": {"By Appointment Only": false, "Wheelchair Accessible": true, "Parking": {"garage": false, "validated": false, "street": false, "lot": false, "valet": false}}, "type": "business"}
{"business_id": "JwTJcaBBc6Z2ckGCPFo0Zw", "full_address": "Turnerstr. 44\n76189 Karlsruhe", "hours": {}, "open": true, "categories": ["Pediatric Dentists", "Health & Medical", "Dentists"], "city": "Karlsruhe", "review_count": 3, "name": "Kinder\u00e4rzte Stephan Kathrin Pfisterer Prinz", "neighborhoods": [], "longitude": 8.33613, "state": "BW", "stars": 4.0, "latitude": 49.0029, "attributes": {"Accepts Credit Cards": false, "Wheelchair Accessible": true, "Parking": {"garage": false, "validated": false, "street": false, "lot": false, "valet": false}}, "type": "business"}
{"business_id": "S0wr9Gj5RFscgffwYiJ4Iw", "full_address": "Karlstr. 18\n76133 Karlsruhe", "hours": {}, "open": true, "categories": ["Health & Medical", "Pharmacy"], "city": "Karlsruhe", "review_count": 6, "name": "Karl-Apotheke", "neighborhoods": [], "longitude": 8.39467, "state": "BW", "stars": 4.0, "latitude": 49.0082, "attributes": {"Parking": {"garage": false, "street": false, "validated": false, "lot": false, "valet": false}, "Accepts Credit Cards": true, "Wheelchair Accessible": true, "Price Range": 2}, "type": "business"}
{"business_id": "zRBgEqzMrrlnya2_eeRHYA", "full_address": "Brettener Str. 1\n76131 Karlsruhe", "hours": {}, "open": true, "categories": ["Health & Medical", "Pharmacy"], "city": "Karlsruhe", "review_count": 3, "name": "Minerva Apotheke", "neighborhoods": [], "longitude": 8.44314, "state": "BW", "stars": 5.0, "latitude": 49.0173, "attributes": {}, "type": "business"}
{"business_id": "UJZKaJKEyYlBEa7byP-uQw", "full_address": "Karlstr. 115\n76137 Karlsruhe", "hours": {}, "open": true, "categories": ["Health & Medical", "Pharmacy"], "city": "Karlsruhe", "review_count": 5, "name": "OK  Apotheke", "neighborhoods": [], "longitude": 8.3938408, "state": "BW", "stars": 4.0, "latitude": 48.9969597, "attributes": {"Wheelchair Accessible": true, "Parking": {"garage": false, "validated": false, "street": false, "lot": false, "valet": false}}, "type": "business"}
{"business_id": "6dOjMBKFbK3bRju_n4Tmog", "full_address": "S\u00fcdendstr. 32\n76137 Karlsruhe", "hours": {}, "open": true, "categories": ["Hospitals", "Medical Centers", "Health & Medical"], "city": "Karlsruhe", "review_count": 3, "name": "St. Vincentius-Kliniken gAG Medizinische Klinik I", "neighborhoods": [], "longitude": 8.38875, "state": "BW", "stars": 2.5, "latitude": 48.9994, "attributes": {"By Appointment Only": false}, "type": "business"}
{"business_id": "qhu-hCLlRiqoJ5du775oig", "full_address": "Sophienstr. 53\n76133 Karlsruhe", "hours": {}, "open": true, "categories": ["Doctors", "Health & Medical", "Family Practice"], "city": "Karlsruhe", "review_count": 3, "name": "Dr. med. Beate Weinschenk", "neighborhoods": [], "longitude": 8.38963, "state": "BW", "stars": 5.0, "latitude": 49.0074, "attributes": {}, "type": "business"}
{"business_id": "KVwqBtoJM4Bzzv4r1mKJSA", "full_address": "Hirschstr. 105\n76137 Karlsruhe", "hours": {}, "open": true, "categories": ["Doctors", "Orthopedists", "Health & Medical"], "city": "Karlsruhe", "review_count": 5, "name": "Facharzt f\u00fcr Orthop\u00e4die und Sportmedizin Wolfgang Krentel", "neighborhoods": [], "longitude": 8.39065, "state": "BW", "stars": 3.5, "latitude": 48.9995, "attributes": {"Wheelchair Accessible": false, "Parking": {"garage": false, "validated": false, "street": false, "lot": false, "valet": false}}, "type": "business"}
{"business_id": "RdWxr1GAp-BrK25nNRMS6Q", "full_address": "Georg-Friedrich-Str. 24\n76131 Karlsruhe", "hours": {}, "open": true, "categories": ["Dermatologists", "Doctors", "Ear Nose & Throat", "Health & Medical"], "city": "Karlsruhe", "review_count": 3, "name": "Dr. med. Wilfried Pfitzer", "neighborhoods": [], "longitude": 8.42355, "state": "BW", "stars": 4.5, "latitude": 49.0094, "attributes": {}, "type": "business"}
{"business_id": "7KaHhijkGVTvCBZ1hlV9Bw", "full_address": "Kriegsstr. 140\n76133 Karlsruhe", "hours": {}, "open": true, "categories": ["Doctors", "Health & Medical", "Internal Medicine"], "city": "Karlsruhe", "review_count": 3, "name": "Internisten Endokrinologische Praxis Carlo Sebastian Varma Zink", "neighborhoods": [], "longitude": 8.39421, "state": "BW", "stars": 2.5, "latitude": 49.0057, "attributes": {"Parking": {"garage": false, "validated": false, "street": false, "lot": false, "valet": false}}, "type": "business"}
{"business_id": "_De17jwK6Frt8stTulbEeA", "full_address": "B\u00e4renweg\n76149 Karlsruhe", "hours": {}, "open": true, "categories": ["Doctors", "Health & Medical", "Obstetricians & Gynecologists"], "city": "Karlsruhe", "review_count": 3, "name": "Dr. Nelis", "neighborhoods": [], "longitude": 8.3787081, "state": "BW", "stars": 3.5, "latitude": 49.0469655, "attributes": {}, "type": "business"}
{"business_id": "EUoTIMnoHlN3pov3E2ICWw", "full_address": "Weinweg 16\n76131 Karlsruhe", "hours": {}, "open": true, "categories": ["Dentists", "Doctors", "Health & Medical"], "city": "Karlsruhe", "review_count": 3, "name": "Rudolf Pacner", "neighborhoods": [], "longitude": 8.44524, "state": "BW", "stars": 4.0, "latitude": 49.0098, "attributes": {}, "type": "business"}
{"business_id": "D5fZo7NO8JOAu5icizIf-A", "full_address": "Kriegsstr. 140\n76133 Karlsruhe", "hours": {}, "open": true, "categories": ["Doctors", "Ear Nose & Throat", "Health & Medical"], "city": "Karlsruhe", "review_count": 3, "name": "Dr. med. Martin Spreng", "neighborhoods": [], "longitude": 8.39429, "state": "BW", "stars": 5.0, "latitude": 49.0056, "attributes": {}, "type": "business"}
{"business_id": "Z6Sn4cSiFt5Fw4aznUjJsA", "full_address": "B\u00fcrgerstr. 16\nauch Karlsstr. 23\n76133 Karlsruhe", "hours": {}, "open": true, "categories": ["Doctors", "Ear Nose & Throat", "Health & Medical"], "city": "Karlsruhe", "review_count": 3, "name": "HNO-Praxis Andreas Scherer", "neighborhoods": [], "longitude": 8.393843, "state": "BW", "stars": 5.0, "latitude": 49.0067498, "attributes": {"Parking": {"garage": false, "validated": false, "street": false, "lot": false, "valet": false}}, "type": "business"}
{"business_id": "4jx3VMVyPW1gL_yoHcGSQw", "full_address": "Erzbergerstr. 131\n76149 Karlsruhe", "hours": {}, "open": true, "categories": ["Doctors", "Health & Medical", "Naturopathic/Holistic"], "city": "Karlsruhe", "review_count": 3, "name": "Stefan Mathias Fuchs", "neighborhoods": [], "longitude": 8.38622, "state": "BW", "stars": 4.5, "latitude": 49.028, "attributes": {}, "type": "business"}
{"business_id": "oDGCwoW6WLbt9_XcY0p-2A", "full_address": "Stephanienstr. 96\n76133 Karlsruhe", "hours": {}, "open": true, "categories": ["Shopping", "Doctors", "Health & Medical", "Eyewear & Opticians"], "city": "Karlsruhe", "review_count": 3, "name": "Dr. med. Thomas Kohm", "neighborhoods": [], "longitude": 8.38877, "state": "BW", "stars": 3.0, "latitude": 49.0107, "attributes": {}, "type": "business"}
{"business_id": "96DyV1HhsRRPkFIN4zfzPQ", "full_address": "Karlstr. 29\n76133 Karlsruhe", "hours": {"Friday": {"close": "12:30", "open": "08:00"}, "Tuesday": {"close": "17:30", "open": "14:00"}, "Thursday": {"close": "18:00", "open": "14:00"}, "Wednesday": {"close": "14:00", "open": "08:00"}, "Monday": {"close": "17:30", "open": "14:00"}}, "open": true, "categories": ["Doctors", "Ophthalmologists", "Health & Medical"], "city": "Karlsruhe", "review_count": 11, "name": "Dr. Stephan Kaut", "neighborhoods": [], "longitude": 8.39517480535322, "state": "BW", "stars": 4.0, "latitude": 49.0075256107311, "attributes": {"Accepts Credit Cards": true, "Wheelchair Accessible": true}, "type": "business"}
{"business_id": "FMozaZuEJ43v_aWue6hkSQ", "full_address": "Nowackanlage 15-17\n76137 Karlsruhe", "hours": {}, "open": true, "categories": ["Shopping", "Doctors", "Health & Medical", "Eyewear & Opticians"], "city": "Karlsruhe", "review_count": 3, "name": "Dr. med. Annegret Schumacher", "neighborhoods": [], "longitude": 8.40426, "state": "BW", "stars": 1.0, "latitude": 49.003, "attributes": {"Price Range": 4}, "type": "business"}
{"business_id": "xeZv-LeNe8gw8enVQL4zGQ", "full_address": "Haid-und-Neu-Str. 12\n76131 Karlsruhe", "hours": {"Monday": {"close": "00:00", "open": "00:00"}, "Tuesday": {"close": "20:00", "open": "15:00"}, "Friday": {"close": "00:00", "open": "00:00"}, "Wednesday": {"close": "20:00", "open": "15:00"}, "Thursday": {"close": "20:00", "open": "15:00"}, "Saturday": {"close": "00:00", "open": "00:00"}}, "open": true, "categories": ["Health & Medical", "Dentists"], "city": "Karlsruhe", "review_count": 4, "name": "Zahnarzt Tobias Ruder", "neighborhoods": [], "longitude": 8.42514, "state": "BW", "stars": 3.5, "latitude": 49.0121, "attributes": {"Parking": {"garage": false, "validated": false, "street": false, "lot": false, "valet": false}}, "type": "business"}
{"business_id": "PfjEZGICY_QNZAQolVDncw", "full_address": "Orthop\u00e4dische Gemeinschaft am Ludwigsplatz\nWaldstr. 67\n76133 Karlsruhe", "hours": {}, "open": true, "categories": ["Doctors", "Orthopedists", "Health & Medical", "Chiropractors"], "city": "Karlsruhe", "review_count": 5, "name": "Dr. med. Oliver Frerking", "neighborhoods": [], "longitude": 8.39616, "state": "BW", "stars": 3.0, "latitude": 49.0092, "attributes": {"By Appointment Only": false}, "type": "business"}
{"business_id": "-yS-eOYb9q88ffWwVVFzng", "full_address": "R\u00fcppurrer Str. 1\n76137 Karlsruhe", "hours": {"Monday": {"close": "22:00", "open": "08:00"}, "Tuesday": {"close": "22:00", "open": "08:00"}, "Friday": {"close": "22:00", "open": "08:00"}, "Wednesday": {"close": "22:00", "open": "08:00"}, "Thursday": {"close": "22:00", "open": "08:00"}, "Saturday": {"close": "22:00", "open": "08:00"}}, "open": true, "categories": ["Health & Medical", "Pharmacy"], "city": "Karlsruhe", "review_count": 3, "name": "Apotheke im Scheck in Center", "neighborhoods": [], "longitude": 8.41053, "state": "BW", "stars": 3.5, "latitude": 49.0052, "attributes": {}, "type": "business"}
{"business_id": "ah-Czxz576_ZTtbetYmwNw", "full_address": "Kriegsstr. 140\n76133 Karlsruhe", "hours": {"Friday": {"close": "12:30", "open": "08:00"}, "Tuesday": {"close": "18:00", "open": "08:00"}, "Thursday": {"close": "18:00", "open": "08:00"}, "Wednesday": {"close": "18:00", "open": "08:00"}, "Monday": {"close": "18:00", "open": "08:00"}}, "open": true, "categories": ["Oral Surgeons", "Health & Medical", "Dentists"], "city": "Karlsruhe", "review_count": 6, "name": "Werner Dr. Dr. dent. und Schierle Prof. Dr. Dr. dent.", "neighborhoods": [], "longitude": 8.39429, "state": "BW", "stars": 4.0, "latitude": 49.0056, "attributes": {"Accepts Credit Cards": false, "Wheelchair Accessible": true, "Parking": {"garage": false, "validated": false, "street": false, "lot": false, "valet": false}}, "type": "business"}
{"business_id": "7J75VLZKDJhCypKjUAcFXQ", "full_address": "Leopoldstr. 40\n76275 Ettlingen", "hours": {}, "open": true, "categories": ["Dermatologists", "Doctors", "Health & Medical", "Internal Medicine"], "city": "Ettlingen", "review_count": 3, "name": "Dr. med. Andreas Kist", "neighborhoods": [], "longitude": 8.40789, "state": "BW", "stars": 3.5, "latitude": 48.94011, "attributes": {"Wheelchair Accessible": true, "Parking": {"garage": false, "validated": false, "street": false, "lot": false, "valet": false}}, "type": "business"}
{"business_id": "_8DkBpvIb05yeT2bHsrBMQ", "full_address": "Moltkestr. 90\nMedizinisches Versorgungszentrum\n76133 Karlsruhe", "hours": {}, "open": true, "categories": ["Health & Medical", "Hospitals"], "city": "Karlsruhe", "review_count": 6, "name": "St\u00e4dtisches Klinikum Karlsruhe gGmbH", "neighborhoods": [], "longitude": 8.3746667, "state": "BW", "stars": 2.0, "latitude": 49.0156295, "attributes": {"By Appointment Only": false}, "type": "business"}
{"business_id": "TdFHwzPd5Ah_maA-kYktHw", "full_address": "Wilhelmstr. 1\n76275 Ettlingen", "hours": {}, "open": true, "categories": ["Neurologist", "Doctors", "Health & Medical", "Physical Therapy", "Psychiatrists"], "city": "Ettlingen", "review_count": 3, "name": "Dr. med. Bernhard Kopp", "neighborhoods": [], "longitude": 8.41062, "state": "BW", "stars": 4.5, "latitude": 48.939, "attributes": {}, "type": "business"}
{"business_id": "Jd8dJj7xYvDlQIBPh4OAjQ", "full_address": "Gerwigstr. 6\n76131 Karlsruhe", "hours": {}, "open": true, "categories": ["Doctors", "Health & Medical", "Family Practice"], "city": "Karlsruhe", "review_count": 4, "name": "Wolfgang Gabriele Calmbach Wiedenmann-Calmbach", "neighborhoods": [], "longitude": 8.42414, "state": "BW", "stars": 4.0, "latitude": 49.0094, "attributes": {"Wheelchair Accessible": false}, "type": "business"}
{"business_id": "18QdyaHkxw-DR-lLAzWpAA", "full_address": "Bergstr. 30\n76337 Waldbronn", "hours": {"Monday": {"close": "22:00", "open": "10:00"}, "Tuesday": {"close": "22:00", "open": "10:00"}, "Friday": {"close": "22:00", "open": "10:00"}, "Wednesday": {"close": "22:00", "open": "10:00"}, "Thursday": {"close": "22:00", "open": "10:00"}, "Sunday": {"close": "22:00", "open": "09:00"}, "Saturday": {"close": "22:00", "open": "09:00"}}, "open": true, "categories": ["Beauty & Spas", "Saunas", "Swimming Pools", "Health & Medical", "Active Life", "Day Spas"], "city": "Waldbronn", "review_count": 9, "name": "Albtherme", "neighborhoods": [], "longitude": 8.47079, "state": "BW", "stars": 4.0, "latitude": 48.9276, "attributes": {"Parking": {"garage": false, "validated": false, "street": false, "lot": false, "valet": false}, "Accepts Credit Cards": false, "Good for Kids": false, "Price Range": 3}, "type": "business"}
{"business_id": "VXdS6bj2V-Bh3V7WLpbSgg", "full_address": "Ettlingerstr. 4\n76137 Karlsruhe", "hours": {"Monday": {"close": "23:00", "open": "14:00"}, "Tuesday": {"close": "23:00", "open": "10:00"}, "Friday": {"close": "23:00", "open": "10:00"}, "Wednesday": {"close": "23:00", "open": "10:00"}, "Thursday": {"close": "23:00", "open": "10:00"}, "Sunday": {"close": "20:00", "open": "10:00"}, "Saturday": {"close": "22:00", "open": "10:00"}}, "open": true, "categories": ["Beauty & Spas", "Saunas", "Swimming Pools", "Health & Medical", "Active Life", "Massage"], "city": "Karlsruhe", "review_count": 25, "name": "Therme Vierordtbad", "neighborhoods": [], "longitude": 8.40286361542425, "state": "BW", "stars": 4.5, "latitude": 49.0013688673535, "attributes": {"Price Range": 2, "Parking": {"garage": false, "street": false, "validated": false, "lot": false, "valet": false}, "By Appointment Only": false, "Accepts Credit Cards": true, "Good for Kids": false, "Wheelchair Accessible": true}, "type": "business"}
{"business_id": "bBBmsMx5uLVC82Si8FE_XA", "full_address": "Karlstr. 124\n76137 Karlsruhe", "hours": {"Monday": {"close": "23:00", "open": "16:00"}, "Tuesday": {"close": "23:00", "open": "16:00"}, "Friday": {"close": "23:00", "open": "16:00"}, "Wednesday": {"close": "23:00", "open": "16:00"}, "Thursday": {"close": "23:00", "open": "16:00"}, "Sunday": {"close": "23:00", "open": "16:00"}, "Saturday": {"close": "23:00", "open": "16:00"}}, "open": true, "categories": ["Health & Medical"], "city": "Karlsruhe", "review_count": 5, "name": "Ambulanter Pflegedienst Gerber Wojtek Gerber", "neighborhoods": [], "longitude": 8.3935327, "state": "BW", "stars": 5.0, "latitude": 48.9979501, "attributes": {"Parking": {"garage": false, "validated": false, "street": false, "lot": false, "valet": false}, "Accepts Credit Cards": false, "Wheelchair Accessible": false, "Price Range": 4}, "type": "business"}
{"business_id": "yszLaYWs06eEc2ZcsK02aQ", "full_address": "Rheinstra\u00dfe  43\n76185 Karlsruhe", "hours": {"Monday": {"close": "18:00", "open": "15:00"}, "Tuesday": {"close": "18:00", "open": "15:00"}, "Friday": {"close": "18:00", "open": "15:00"}, "Wednesday": {"close": "18:00", "open": "15:00"}, "Thursday": {"close": "18:00", "open": "14:00"}, "Saturday": {"close": "00:00", "open": "00:00"}}, "open": true, "categories": ["Doctors", "Health & Medical", "Podiatrists"], "city": "Karlsruhe", "review_count": 3, "name": "Praxis f\u00fcr Fachfu\u00dfpflege", "neighborhoods": [], "longitude": 8.3611818, "state": "BW", "stars": 5.0, "latitude": 49.011065, "attributes": {"Wheelchair Accessible": true, "Parking": {"garage": false, "validated": false, "street": false, "lot": false, "valet": false}}, "type": "business"}
{"business_id": "6XLGrli77rWeukOsOJsVqA", "full_address": "Osteopathie & Naturheilkunde Praxis\nMoltkestr. 90\n76133 Karlsruhe", "hours": {"Tuesday": {"close": "20:00", "open": "16:00"}, "Friday": {"close": "16:00", "open": "10:00"}, "Wednesday": {"close": "20:00", "open": "10:00"}, "Thursday": {"close": "20:00", "open": "10:00"}}, "open": true, "categories": ["Doctors", "Health & Medical", "Osteopathic Physicians"], "city": "Karlsruhe", "review_count": 3, "name": "Klaus Czepan", "neighborhoods": [], "longitude": 8.3717205, "state": "BW", "stars": 4.5, "latitude": 49.0174215, "attributes": {"Accepts Credit Cards": false, "Wheelchair Accessible": true, "Parking": {"garage": false, "validated": false, "street": false, "lot": false, "valet": false}}, "type": "business"}
{"business_id": "yT2lyh79mSDSQaKR7JCMfw", "full_address": "Diakonissenstr. 28\n76199 Karlsruhe", "hours": {}, "open": true, "categories": ["Health & Medical", "Hospitals"], "city": "Karlsruhe", "review_count": 3, "name": "Diakonissen-Krankenhaus Akademisches Lehrkrankenhaus", "neighborhoods": [], "longitude": 8.41187, "state": "BW", "stars": 5.0, "latitude": 48.9725, "attributes": {"Accepts Credit Cards": false, "Wheelchair Accessible": true, "Parking": {"garage": false, "validated": false, "street": false, "lot": false, "valet": false}}, "type": "business"}
{"business_id": "G0l7qwpaS_4l-D86ObrVaQ", "full_address": "Kaiserstr. 110\n76133 Karlsruhe", "hours": {}, "open": true, "categories": ["Dermatologists", "Doctors", "Health & Medical"], "city": "Karlsruhe", "review_count": 5, "name": "Haut\u00e4rzte/Allergologie Robert Adina Figl Figl", "neighborhoods": [], "longitude": 8.3987, "state": "BW", "stars": 3.0, "latitude": 49.0098, "attributes": {}, "type": "business"}
{"business_id": "qGYtcAOItY3ys7CdZ-Q4xA", "full_address": "Amalienstr. 14b\n76131 Karlsruhe", "hours": {}, "open": true, "categories": ["Doctors", "Health & Medical", "Obstetricians & Gynecologists"], "city": "Karlsruhe", "review_count": 3, "name": "Frauenarztpraxis Leokadia Seidler", "neighborhoods": [], "longitude": 8.39506, "state": "BW", "stars": 4.5, "latitude": 49.0078, "attributes": {}, "type": "business"}
