{"business_id": "Zca_8faK0kYwPrchOchK7g", "full_address": "Karl-Wilhelm-Str. 26\n76131 Karlsruhe", "hours": {"Monday": {"close": "18:30", "open": "14:00"}, "Tuesday": {"close": "18:30", "open": "14:00"}, "Friday": {"close": "18:30", "open": "09:00"}, "Wednesday": {"close": "18:30", "open": "14:00"}, "Thursday": {"close": "18:30", "open": "14:00"}, "Saturday": {"close": "13:30", "open": "09:00"}}, "open": true, "categories": ["Food", "Beer, Wine & Spirits"], "city": "Karlsruhe", "review_count": 3, "name": "Weinhaus D\u00f6rflinger", "neighborhoods": [], "longitude": 8.42262, "state": "BW", "stars": 4.5, "latitude": 49.0111, "attributes": {"Parking": {"garage": false, "street": false, "validated": false, "lot": false, "valet": false}, "Accepts Credit Cards": true, "Price Range": 2}, "type": "business"}
{"business_id": "kQOsnOqEV1Uu9P9US6v9DA", "full_address": "Hebelstr. 19\n76133 Karlsruhe", "hours": {"Monday": {"close": "19:00", "open": "10:00"}, "Tuesday": {"close": "19:00", "open": "10:00"}, "Friday": {"close": "19:00", "open": "10:00"}, "Wednesday": {"close": "19:00", "open": "10:00"}, "Thursday": {"close": "19:00", "open": "10:00"}, "Saturday": {"close": "16:00", "open": "09:30"}}, "open": true, "categories": ["Food", "Beer, Wine & Spirits"], "city": "Karlsruhe", "review_count": 3, "name": "Ehrlichs Wein-Contor", "neighborhoods": [], "longitude": 8.40281, "state": "BW", "stars": 4.5, "latitude": 49.0082, "attributes": {}, "type": "business"}
{"business_id": "DuY7M08QMrZL9D4raZDGTg", "full_address": "Wilhelmstr. 17\n76137 Karlsruhe", "hours": {"Tuesday": {"close": "01:00", "open": "17:00"}, "Friday": {"close": "01:00", "open": "17:00"}, "Wednesday": {"close": "01:00", "open": "17:00"}, "Thursday": {"close": "01:00", "open": "17:00"}, "Saturday": {"close": "01:00", "open": "17:00"}}, "open": true, "categories": ["Food", "Beer, Wine & Spirits"], "city": "Karlsruhe", "review_count": 4, "name": "Pf\u00e4lzer Weinh\u00e4usel", "neighborhoods": [], "longitude": 8.40571, "state": "BW", "stars": 5.0, "latitude": 49.0028, "attributes": {"Take-out": false, "Delivery": false, "Dogs Allowed": false, "Outdoor Seating": false, "Parking": {"garage": false, "street": false, "validated": false, "lot": false, "valet": false}, "Smoking": "no", "Accepts Credit Cards": false, "Price Range": 3}, "type": "business"}
{"business_id": "FEmI_9SAfFfDQlAlS213Pw", "full_address": "Reinhold-Frank-Str. 12\n76133 Karlsruhe", "hours": {}, "open": true, "categories": ["Food", "Beer, Wine & Spirits"], "city": "Karlsruhe", "review_count": 3, "name": "Weinblume", "neighborhoods": [], "longitude": 8.38706, "state": "BW", "stars": 2.5, "latitude": 49.0066, "attributes": {"Parking": {"garage": false, "validated": false, "street": false, "lot": false, "valet": false}, "Accepts Credit Cards": true, "Price Range": 3}, "type": "business"}
{"business_id": "BOfs0NbVsCSiBAo1jb1Tvw", "full_address": "Luisenstr. 6\n76137 Karlsruhe", "hours": {"Monday": {"close": "18:30", "open": "15:00"}, "Tuesday": {"close": "18:30", "open": "15:00"}, "Friday": {"close": "18:30", "open": "15:00"}, "Wednesday": {"close": "18:30", "open": "15:00"}, "Thursday": {"close": "20:00", "open": "15:00"}, "Saturday": {"close": "16:00", "open": "09:00"}}, "open": true, "categories": ["Shopping", "Beauty & Spas", "Food", "Beer, Wine & Spirits", "Delicatessen", "Cosmetics & Beauty Supply"], "city": "Karlsruhe", "review_count": 3, "name": "Comestibles Espana", "neighborhoods": [], "longitude": 8.40439, "state": "BW", "stars": 4.5, "latitude": 49.0007, "attributes": {"Parking": {"garage": false, "validated": false, "street": false, "lot": false, "valet": false}, "Wheelchair Accessible": true, "Price Range": 2}, "type": "business"}
{"business_id": "TrCimnSt42AbJMLVQiiJJQ", "full_address": "Amalienstr. 81\n76133 Karlsruhe", "hours": {}, "open": true, "categories": ["Food", "Beer, Wine & Spirits"], "city": "Karlsruhe", "review_count": 4, "name": "Jacques' Wein-Depot", "neighborhoods": [], "longitude": 8.3886321, "state": "BW", "stars": 3.5, "latitude": 49.0098351, "attributes": {"Parking": {"garage": false, "validated": false, "street": false, "lot": false, "valet": false}, "Price Range": 2}, "type": "business"}
{"business_id": "zEgusBF95RMBH2NP6X-3NQ", "full_address": "Nelkenstr. 33\n76135 Karlsruhe", "hours": {"Monday": {"close": "19:00", "open": "10:00"}, "Tuesday": {"close": "19:00", "open": "10:00"}, "Friday": {"close": "19:00", "open": "10:00"}, "Wednesday": {"close": "19:00", "open": "10:00"}, "Thursday": {"close": "19:00", "open": "10:00"}, "Saturday": {"close": "16:00", "open": "09:30"}}, "open": true, "categories": ["Food", "Beer, Wine & Spirits"], "city": "Karlsruhe", "review_count": 5, "name": "Weinlade Am Gutenbergplatz", "neighborhoods": [], "longitude": 8.3761187, "state": "BW", "stars": 5.0, "latitude": 49.0084614, "attributes": {}, "type": "business"}
{"business_id": "Zca_8faK0kYwPrchOchK7g", "full_address": "Karl-Wilhelm-Str. 26\n76131 Karlsruhe", "hours": {"Monday": {"close": "18:30", "open": "14:00"}, "Tuesday": {"close": "18:30", "open": "14:00"}, "Friday": {"close": "18:30", "open": "09:00"}, "Wednesday": {"close": "18:30", "open": "14:00"}, "Thursday": {"close": "18:30", "open": "14:00"}, "Saturday": {"close": "13:30", "open": "09:00"}}, "open": true, "categories": ["Food", "Beer, Wine & Spirits"], "city": "Karlsruhe", "review_count": 3, "name": "Weinhaus D\u00f6rflinger", "neighborhoods": [], "longitude": 8.42262, "state": "BW", "stars": 4.5, "latitude": 49.0111, "attributes": {"Parking": {"garage": false, "street": false, "validated": false, "lot": false, "valet": false}, "Accepts Credit Cards": true, "Price Range": 2}, "type": "business"}
{"business_id": "kQOsnOqEV1Uu9P9US6v9DA", "full_address": "Hebelstr. 19\n76133 Karlsruhe", "hours": {"Monday": {"close": "19:00", "open": "10:00"}, "Tuesday": {"close": "19:00", "open": "10:00"}, "Friday": {"close": "19:00", "open": "10:00"}, "Wednesday": {"close": "19:00", "open": "10:00"}, "Thursday": {"close": "19:00", "open": "10:00"}, "Saturday": {"close": "16:00", "open": "09:30"}}, "open": true, "categories": ["Food", "Beer, Wine & Spirits"], "city": "Karlsruhe", "review_count": 3, "name": "Ehrlichs Wein-Contor", "neighborhoods": [], "longitude": 8.40281, "state": "BW", "stars": 4.5, "latitude": 49.0082, "attributes": {}, "type": "business"}
{"business_id": "DuY7M08QMrZL9D4raZDGTg", "full_address": "Wilhelmstr. 17\n76137 Karlsruhe", "hours": {"Tuesday": {"close": "01:00", "open": "17:00"}, "Friday": {"close": "01:00", "open": "17:00"}, "Wednesday": {"close": "01:00", "open": "17:00"}, "Thursday": {"close": "01:00", "open": "17:00"}, "Saturday": {"close": "01:00", "open": "17:00"}}, "open": true, "categories": ["Food", "Beer, Wine & Spirits"], "city": "Karlsruhe", "review_count": 4, "name": "Pf\u00e4lzer Weinh\u00e4usel", "neighborhoods": [], "longitude": 8.40571, "state": "BW", "stars": 5.0, "latitude": 49.0028, "attributes": {"Take-out": false, "Delivery": false, "Dogs Allowed": false, "Outdoor Seating": false, "Parking": {"garage": false, "street": false, "validated": false, "lot": false, "valet": false}, "Smoking": "no", "Accepts Credit Cards": false, "Price Range": 3}, "type": "business"}
{"business_id": "FEmI_9SAfFfDQlAlS213Pw", "full_address": "Reinhold-Frank-Str. 12\n76133 Karlsruhe", "hours": {}, "open": true, "categories": ["Food", "Beer, Wine & Spirits"], "city": "Karlsruhe", "review_count": 3, "name": "Weinblume", "neighborhoods": [], "longitude": 8.38706, "state": "BW", "stars": 2.5, "latitude": 49.0066, "attributes": {"Parking": {"garage": false, "validated": false, "street": false, "lot": false, "valet": false}, "Accepts Credit Cards": true, "Price Range": 3}, "type": "business"}
{"business_id": "BOfs0NbVsCSiBAo1jb1Tvw", "full_address": "Luisenstr. 6\n76137 Karlsruhe", "hours": {"Monday": {"close": "18:30", "open": "15:00"}, "Tuesday": {"close": "18:30", "open": "15:00"}, "Friday": {"close": "18:30", "open": "15:00"}, "Wednesday": {"close": "18:30", "open": "15:00"}, "Thursday": {"close": "20:00", "open": "15:00"}, "Saturday": {"close": "16:00", "open": "09:00"}}, "open": true, "categories": ["Shopping", "Beauty & Spas", "Food", "Beer, Wine & Spirits", "Delicatessen", "Cosmetics & Beauty Supply"], "city": "Karlsruhe", "review_count": 3, "name": "Comestibles Espana", "neighborhoods": [], "longitude": 8.40439, "state": "BW", "stars": 4.5, "latitude": 49.0007, "attributes": {"Parking": {"garage": false, "validated": false, "street": false, "lot": false, "valet": false}, "Wheelchair Accessible": true, "Price Range": 2}, "type": "business"}
{"business_id": "TrCimnSt42AbJMLVQiiJJQ", "full_address": "Amalienstr. 81\n76133 Karlsruhe", "hours": {}, "open": true, "categories": ["Food", "Beer, Wine & Spirits"], "city": "Karlsruhe", "review_count": 4, "name": "Jacques' Wein-Depot", "neighborhoods": [], "longitude": 8.3886321, "state": "BW", "stars": 3.5, "latitude": 49.0098351, "attributes": {"Parking": {"garage": false, "validated": false, "street": false, "lot": false, "valet": false}, "Price Range": 2}, "type": "business"}
{"business_id": "zEgusBF95RMBH2NP6X-3NQ", "full_address": "Nelkenstr. 33\n76135 Karlsruhe", "hours": {"Monday": {"close": "19:00", "open": "10:00"}, "Tuesday": {"close": "19:00", "open": "10:00"}, "Friday": {"close": "19:00", "open": "10:00"}, "Wednesday": {"close": "19:00", "open": "10:00"}, "Thursday": {"close": "19:00", "open": "10:00"}, "Saturday": {"close": "16:00", "open": "09:30"}}, "open": true, "categories": ["Food", "Beer, Wine & Spirits"], "city": "Karlsruhe", "review_count": 5, "name": "Weinlade Am Gutenbergplatz", "neighborhoods": [], "longitude": 8.3761187, "state": "BW", "stars": 5.0, "latitude": 49.0084614, "attributes": {}, "type": "business"}
{"business_id": "Zca_8faK0kYwPrchOchK7g", "full_address": "Karl-Wilhelm-Str. 26\n76131 Karlsruhe", "hours": {"Monday": {"close": "18:30", "open": "14:00"}, "Tuesday": {"close": "18:30", "open": "14:00"}, "Friday": {"close": "18:30", "open": "09:00"}, "Wednesday": {"close": "18:30", "open": "14:00"}, "Thursday": {"close": "18:30", "open": "14:00"}, "Saturday": {"close": "13:30", "open": "09:00"}}, "open": true, "categories": ["Food", "Beer, Wine & Spirits"], "city": "Karlsruhe", "review_count": 3, "name": "Weinhaus D\u00f6rflinger", "neighborhoods": [], "longitude": 8.42262, "state": "BW", "stars": 4.5, "latitude": 49.0111, "attributes": {"Parking": {"garage": false, "street": false, "validated": false, "lot": false, "valet": false}, "Accepts Credit Cards": true, "Price Range": 2}, "type": "business"}
{"business_id": "kQOsnOqEV1Uu9P9US6v9DA", "full_address": "Hebelstr. 19\n76133 Karlsruhe", "hours": {"Monday": {"close": "19:00", "open": "10:00"}, "Tuesday": {"close": "19:00", "open": "10:00"}, "Friday": {"close": "19:00", "open": "10:00"}, "Wednesday": {"close": "19:00", "open": "10:00"}, "Thursday": {"close": "19:00", "open": "10:00"}, "Saturday": {"close": "16:00", "open": "09:30"}}, "open": true, "categories": ["Food", "Beer, Wine & Spirits"], "city": "Karlsruhe", "review_count": 3, "name": "Ehrlichs Wein-Contor", "neighborhoods": [], "longitude": 8.40281, "state": "BW", "stars": 4.5, "latitude": 49.0082, "attributes": {}, "type": "business"}
{"business_id": "DuY7M08QMrZL9D4raZDGTg", "full_address": "Wilhelmstr. 17\n76137 Karlsruhe", "hours": {"Tuesday": {"close": "01:00", "open": "17:00"}, "Friday": {"close": "01:00", "open": "17:00"}, "Wednesday": {"close": "01:00", "open": "17:00"}, "Thursday": {"close": "01:00", "open": "17:00"}, "Saturday": {"close": "01:00", "open": "17:00"}}, "open": true, "categories": ["Food", "Beer, Wine & Spirits"], "city": "Karlsruhe", "review_count": 4, "name": "Pf\u00e4lzer Weinh\u00e4usel", "neighborhoods": [], "longitude": 8.40571, "state": "BW", "stars": 5.0, "latitude": 49.0028, "attributes": {"Take-out": false, "Delivery": false, "Dogs Allowed": false, "Outdoor Seating": false, "Parking": {"garage": false, "street": false, "validated": false, "lot": false, "valet": false}, "Smoking": "no", "Accepts Credit Cards": false, "Price Range": 3}, "type": "business"}
{"business_id": "FEmI_9SAfFfDQlAlS213Pw", "full_address": "Reinhold-Frank-Str. 12\n76133 Karlsruhe", "hours": {}, "open": true, "categories": ["Food", "Beer, Wine & Spirits"], "city": "Karlsruhe", "review_count": 3, "name": "Weinblume", "neighborhoods": [], "longitude": 8.38706, "state": "BW", "stars": 2.5, "latitude": 49.0066, "attributes": {"Parking": {"garage": false, "validated": false, "street": false, "lot": false, "valet": false}, "Accepts Credit Cards": true, "Price Range": 3}, "type": "business"}
{"business_id": "BOfs0NbVsCSiBAo1jb1Tvw", "full_address": "Luisenstr. 6\n76137 Karlsruhe", "hours": {"Monday": {"close": "18:30", "open": "15:00"}, "Tuesday": {"close": "18:30", "open": "15:00"}, "Friday": {"close": "18:30", "open": "15:00"}, "Wednesday": {"close": "18:30", "open": "15:00"}, "Thursday": {"close": "20:00", "open": "15:00"}, "Saturday": {"close": "16:00", "open": "09:00"}}, "open": true, "categories": ["Shopping", "Beauty & Spas", "Food", "Beer, Wine & Spirits", "Delicatessen", "Cosmetics & Beauty Supply"], "city": "Karlsruhe", "review_count": 3, "name": "Comestibles Espana", "neighborhoods": [], "longitude": 8.40439, "state": "BW", "stars": 4.5, "latitude": 49.0007, "attributes": {"Parking": {"garage": false, "validated": false, "street": false, "lot": false, "valet": false}, "Wheelchair Accessible": true, "Price Range": 2}, "type": "business"}
{"business_id": "TrCimnSt42AbJMLVQiiJJQ", "full_address": "Amalienstr. 81\n76133 Karlsruhe", "hours": {}, "open": true, "categories": ["Food", "Beer, Wine & Spirits"], "city": "Karlsruhe", "review_count": 4, "name": "Jacques' Wein-Depot", "neighborhoods": [], "longitude": 8.3886321, "state": "BW", "stars": 3.5, "latitude": 49.0098351, "attributes": {"Parking": {"garage": false, "validated": false, "street": false, "lot": false, "valet": false}, "Price Range": 2}, "type": "business"}
{"business_id": "zEgusBF95RMBH2NP6X-3NQ", "full_address": "Nelkenstr. 33\n76135 Karlsruhe", "hours": {"Monday": {"close": "19:00", "open": "10:00"}, "Tuesday": {"close": "19:00", "open": "10:00"}, "Friday": {"close": "19:00", "open": "10:00"}, "Wednesday": {"close": "19:00", "open": "10:00"}, "Thursday": {"close": "19:00", "open": "10:00"}, "Saturday": {"close": "16:00", "open": "09:30"}}, "open": true, "categories": ["Food", "Beer, Wine & Spirits"], "city": "Karlsruhe", "review_count": 5, "name": "Weinlade Am Gutenbergplatz", "neighborhoods": [], "longitude": 8.3761187, "state": "BW", "stars": 5.0, "latitude": 49.0084614, "attributes": {}, "type": "business"}
{"business_id": "Zca_8faK0kYwPrchOchK7g", "full_address": "Karl-Wilhelm-Str. 26\n76131 Karlsruhe", "hours": {"Monday": {"close": "18:30", "open": "14:00"}, "Tuesday": {"close": "18:30", "open": "14:00"}, "Friday": {"close": "18:30", "open": "09:00"}, "Wednesday": {"close": "18:30", "open": "14:00"}, "Thursday": {"close": "18:30", "open": "14:00"}, "Saturday": {"close": "13:30", "open": "09:00"}}, "open": true, "categories": ["Food", "Beer, Wine & Spirits"], "city": "Karlsruhe", "review_count": 3, "name": "Weinhaus D\u00f6rflinger", "neighborhoods": [], "longitude": 8.42262, "state": "BW", "stars": 4.5, "latitude": 49.0111, "attributes": {"Parking": {"garage": false, "street": false, "validated": false, "lot": false, "valet": false}, "Accepts Credit Cards": true, "Price Range": 2}, "type": "business"}
{"business_id": "kQOsnOqEV1Uu9P9US6v9DA", "full_address": "Hebelstr. 19\n76133 Karlsruhe", "hours": {"Monday": {"close": "19:00", "open": "10:00"}, "Tuesday": {"close": "19:00", "open": "10:00"}, "Friday": {"close": "19:00", "open": "10:00"}, "Wednesday": {"close": "19:00", "open": "10:00"}, "Thursday": {"close": "19:00", "open": "10:00"}, "Saturday": {"close": "16:00", "open": "09:30"}}, "open": true, "categories": ["Food", "Beer, Wine & Spirits"], "city": "Karlsruhe", "review_count": 3, "name": "Ehrlichs Wein-Contor", "neighborhoods": [], "longitude": 8.40281, "state": "BW", "stars": 4.5, "latitude": 49.0082, "attributes": {}, "type": "business"}
{"business_id": "DuY7M08QMrZL9D4raZDGTg", "full_address": "Wilhelmstr. 17\n76137 Karlsruhe", "hours": {"Tuesday": {"close": "01:00", "open": "17:00"}, "Friday": {"close": "01:00", "open": "17:00"}, "Wednesday": {"close": "01:00", "open": "17:00"}, "Thursday": {"close": "01:00", "open": "17:00"}, "Saturday": {"close": "01:00", "open": "17:00"}}, "open": true, "categories": ["Food", "Beer, Wine & Spirits"], "city": "Karlsruhe", "review_count": 4, "name": "Pf\u00e4lzer Weinh\u00e4usel", "neighborhoods": [], "longitude": 8.40571, "state": "BW", "stars": 5.0, "latitude": 49.0028, "attributes": {"Take-out": false, "Delivery": false, "Dogs Allowed": false, "Outdoor Seating": false, "Parking": {"garage": false, "street": false, "validated": false, "lot": false, "valet": false}, "Smoking": "no", "Accepts Credit Cards": false, "Price Range": 3}, "type": "business"}
{"business_id": "FEmI_9SAfFfDQlAlS213Pw", "full_address": "Reinhold-Frank-Str. 12\n76133 Karlsruhe", "hours": {}, "open": true, "categories": ["Food", "Beer, Wine & Spirits"], "city": "Karlsruhe", "review_count": 3, "name": "Weinblume", "neighborhoods": [], "longitude": 8.38706, "state": "BW", "stars": 2.5, "latitude": 49.0066, "attributes": {"Parking": {"garage": false, "validated": false, "street": false, "lot": false, "valet": false}, "Accepts Credit Cards": true, "Price Range": 3}, "type": "business"}
{"business_id": "BOfs0NbVsCSiBAo1jb1Tvw", "full_address": "Luisenstr. 6\n76137 Karlsruhe", "hours": {"Monday": {"close": "18:30", "open": "15:00"}, "Tuesday": {"close": "18:30", "open": "15:00"}, "Friday": {"close": "18:30", "open": "15:00"}, "Wednesday": {"close": "18:30", "open": "15:00"}, "Thursday": {"close": "20:00", "open": "15:00"}, "Saturday": {"close": "16:00", "open": "09:00"}}, "open": true, "categories": ["Shopping", "Beauty & Spas", "Food", "Beer, Wine & Spirits", "Delicatessen", "Cosmetics & Beauty Supply"], "city": "Karlsruhe", "review_count": 3, "name": "Comestibles Espana", "neighborhoods": [], "longitude": 8.40439, "state": "BW", "stars": 4.5, "latitude": 49.0007, "attributes": {"Parking": {"garage": false, "validated": false, "street": false, "lot": false, "valet": false}, "Wheelchair Accessible": true, "Price Range": 2}, "type": "business"}
{"business_id": "TrCimnSt42AbJMLVQiiJJQ", "full_address": "Amalienstr. 81\n76133 Karlsruhe", "hours": {}, "open": true, "categories": ["Food", "Beer, Wine & Spirits"], "city": "Karlsruhe", "review_count": 4, "name": "Jacques' Wein-Depot", "neighborhoods": [], "longitude": 8.3886321, "state": "BW", "stars": 3.5, "latitude": 49.0098351, "attributes": {"Parking": {"garage": false, "validated": false, "street": false, "lot": false, "valet": false}, "Price Range": 2}, "type": "business"}
{"business_id": "zEgusBF95RMBH2NP6X-3NQ", "full_address": "Nelkenstr. 33\n76135 Karlsruhe", "hours": {"Monday": {"close": "19:00", "open": "10:00"}, "Tuesday": {"close": "19:00", "open": "10:00"}, "Friday": {"close": "19:00", "open": "10:00"}, "Wednesday": {"close": "19:00", "open": "10:00"}, "Thursday": {"close": "19:00", "open": "10:00"}, "Saturday": {"close": "16:00", "open": "09:30"}}, "open": true, "categories": ["Food", "Beer, Wine & Spirits"], "city": "Karlsruhe", "review_count": 5, "name": "Weinlade Am Gutenbergplatz", "neighborhoods": [], "longitude": 8.3761187, "state": "BW", "stars": 5.0, "latitude": 49.0084614, "attributes": {}, "type": "business"}
{"business_id": "Zca_8faK0kYwPrchOchK7g", "full_address": "Karl-Wilhelm-Str. 26\n76131 Karlsruhe", "hours": {"Monday": {"close": "18:30", "open": "14:00"}, "Tuesday": {"close": "18:30", "open": "14:00"}, "Friday": {"close": "18:30", "open": "09:00"}, "Wednesday": {"close": "18:30", "open": "14:00"}, "Thursday": {"close": "18:30", "open": "14:00"}, "Saturday": {"close": "13:30", "open": "09:00"}}, "open": true, "categories": ["Food", "Beer, Wine & Spirits"], "city": "Karlsruhe", "review_count": 3, "name": "Weinhaus D\u00f6rflinger", "neighborhoods": [], "longitude": 8.42262, "state": "BW", "stars": 4.5, "latitude": 49.0111, "attributes": {"Parking": {"garage": false, "street": false, "validated": false, "lot": false, "valet": false}, "Accepts Credit Cards": true, "Price Range": 2}, "type": "business"}
{"business_id": "kQOsnOqEV1Uu9P9US6v9DA", "full_address": "Hebelstr. 19\n76133 Karlsruhe", "hours": {"Monday": {"close": "19:00", "open": "10:00"}, "Tuesday": {"close": "19:00", "open": "10:00"}, "Friday": {"close": "19:00", "open": "10:00"}, "Wednesday": {"close": "19:00", "open": "10:00"}, "Thursday": {"close": "19:00", "open": "10:00"}, "Saturday": {"close": "16:00", "open": "09:30"}}, "open": true, "categories": ["Food", "Beer, Wine & Spirits"], "city": "Karlsruhe", "review_count": 3, "name": "Ehrlichs Wein-Contor", "neighborhoods": [], "longitude": 8.40281, "state": "BW", "stars": 4.5, "latitude": 49.0082, "attributes": {}, "type": "business"}
{"business_id": "DuY7M08QMrZL9D4raZDGTg", "full_address": "Wilhelmstr. 17\n76137 Karlsruhe", "hours": {"Tuesday": {"close": "01:00", "open": "17:00"}, "Friday": {"close": "01:00", "open": "17:00"}, "Wednesday": {"close": "01:00", "open": "17:00"}, "Thursday": {"close": "01:00", "open": "17:00"}, "Saturday": {"close": "01:00", "open": "17:00"}}, "open": true, "categories": ["Food", "Beer, Wine & Spirits"], "city": "Karlsruhe", "review_count": 4, "name": "Pf\u00e4lzer Weinh\u00e4usel", "neighborhoods": [], "longitude": 8.40571, "state": "BW", "stars": 5.0, "latitude": 49.0028, "attributes": {"Take-out": false, "Delivery": false, "Dogs Allowed": false, "Outdoor Seating": false, "Parking": {"garage": false, "street": false, "validated": false, "lot": false, "valet": false}, "Smoking": "no", "Accepts Credit Cards": false, "Price Range": 3}, "type": "business"}
{"business_id": "FEmI_9SAfFfDQlAlS213Pw", "full_address": "Reinhold-Frank-Str. 12\n76133 Karlsruhe", "hours": {}, "open": true, "categories": ["Food", "Beer, Wine & Spirits"], "city": "Karlsruhe", "review_count": 3, "name": "Weinblume", "neighborhoods": [], "longitude": 8.38706, "state": "BW", "stars": 2.5, "latitude": 49.0066, "attributes": {"Parking": {"garage": false, "validated": false, "street": false, "lot": false, "valet": false}, "Accepts Credit Cards": true, "Price Range": 3}, "type": "business"}
{"business_id": "BOfs0NbVsCSiBAo1jb1Tvw", "full_address": "Luisenstr. 6\n76137 Karlsruhe", "hours": {"Monday": {"close": "18:30", "open": "15:00"}, "Tuesday": {"close": "18:30", "open": "15:00"}, "Friday": {"close": "18:30", "open": "15:00"}, "Wednesday": {"close": "18:30", "open": "15:00"}, "Thursday": {"close": "20:00", "open": "15:00"}, "Saturday": {"close": "16:00", "open": "09:00"}}, "open": true, "categories": ["Shopping", "Beauty & Spas", "Food", "Beer, Wine & Spirits", "Delicatessen", "Cosmetics & Beauty Supply"], "city": "Karlsruhe", "review_count": 3, "name": "Comestibles Espana", "neighborhoods": [], "longitude": 8.40439, "state": "BW", "stars": 4.5, "latitude": 49.0007, "attributes": {"Parking": {"garage": false, "validated": false, "street": false, "lot": false, "valet": false}, "Wheelchair Accessible": true, "Price Range": 2}, "type": "business"}
{"business_id": "TrCimnSt42AbJMLVQiiJJQ", "full_address": "Amalienstr. 81\n76133 Karlsruhe", "hours": {}, "open": true, "categories": ["Food", "Beer, Wine & Spirits"], "city": "Karlsruhe", "review_count": 4, "name": "Jacques' Wein-Depot", "neighborhoods": [], "longitude": 8.3886321, "state": "BW", "stars": 3.5, "latitude": 49.0098351, "attributes": {"Parking": {"garage": false, "validated": false, "street": false, "lot": false, "valet": false}, "Price Range": 2}, "type": "business"}
{"business_id": "zEgusBF95RMBH2NP6X-3NQ", "full_address": "Nelkenstr. 33\n76135 Karlsruhe", "hours": {"Monday": {"close": "19:00", "open": "10:00"}, "Tuesday": {"close": "19:00", "open": "10:00"}, "Friday": {"close": "19:00", "open": "10:00"}, "Wednesday": {"close": "19:00", "open": "10:00"}, "Thursday": {"close": "19:00", "open": "10:00"}, "Saturday": {"close": "16:00", "open": "09:30"}}, "open": true, "categories": ["Food", "Beer, Wine & Spirits"], "city": "Karlsruhe", "review_count": 5, "name": "Weinlade Am Gutenbergplatz", "neighborhoods": [], "longitude": 8.3761187, "state": "BW", "stars": 5.0, "latitude": 49.0084614, "attributes": {}, "type": "business"}
{"business_id": "Zca_8faK0kYwPrchOchK7g", "full_address": "Karl-Wilhelm-Str. 26\n76131 Karlsruhe", "hours": {"Monday": {"close": "18:30", "open": "14:00"}, "Tuesday": {"close": "18:30", "open": "14:00"}, "Friday": {"close": "18:30", "open": "09:00"}, "Wednesday": {"close": "18:30", "open": "14:00"}, "Thursday": {"close": "18:30", "open": "14:00"}, "Saturday": {"close": "13:30", "open": "09:00"}}, "open": true, "categories": ["Food", "Beer, Wine & Spirits"], "city": "Karlsruhe", "review_count": 3, "name": "Weinhaus D\u00f6rflinger", "neighborhoods": [], "longitude": 8.42262, "state": "BW", "stars": 4.5, "latitude": 49.0111, "attributes": {"Parking": {"garage": false, "street": false, "validated": false, "lot": false, "valet": false}, "Accepts Credit Cards": true, "Price Range": 2}, "type": "business"}
{"business_id": "kQOsnOqEV1Uu9P9US6v9DA", "full_address": "Hebelstr. 19\n76133 Karlsruhe", "hours": {"Monday": {"close": "19:00", "open": "10:00"}, "Tuesday": {"close": "19:00", "open": "10:00"}, "Friday": {"close": "19:00", "open": "10:00"}, "Wednesday": {"close": "19:00", "open": "10:00"}, "Thursday": {"close": "19:00", "open": "10:00"}, "Saturday": {"close": "16:00", "open": "09:30"}}, "open": true, "categories": ["Food", "Beer, Wine & Spirits"], "city": "Karlsruhe", "review_count": 3, "name": "Ehrlichs Wein-Contor", "neighborhoods": [], "longitude": 8.40281, "state": "BW", "stars": 4.5, "latitude": 49.0082, "attributes": {}, "type": "business"}
{"business_id": "DuY7M08QMrZL9D4raZDGTg", "full_address": "Wilhelmstr. 17\n76137 Karlsruhe", "hours": {"Tuesday": {"close": "01:00", "open": "17:00"}, "Friday": {"close": "01:00", "open": "17:00"}, "Wednesday": {"close": "01:00", "open": "17:00"}, "Thursday": {"close": "01:00", "open": "17:00"}, "Saturday": {"close": "01:00", "open": "17:00"}}, "open": true, "categories": ["Food", "Beer, Wine & Spirits"], "city": "Karlsruhe", "review_count": 4, "name": "Pf\u00e4lzer Weinh\u00e4usel", "neighborhoods": [], "longitude": 8.40571, "state": "BW", "stars": 5.0, "latitude": 49.0028, "attributes": {"Take-out": false, "Delivery": false, "Dogs Allowed": false, "Outdoor Seating": false, "Parking": {"garage": false, "street": false, "validated": false, "lot": false, "valet": false}, "Smoking": "no", "Accepts Credit Cards": false, "Price Range": 3}, "type": "business"}
{"business_id": "FEmI_9SAfFfDQlAlS213Pw", "full_address": "Reinhold-Frank-Str. 12\n76133 Karlsruhe", "hours": {}, "open": true, "categories": ["Food", "Beer, Wine & Spirits"], "city": "Karlsruhe", "review_count": 3, "name": "Weinblume", "neighborhoods": [], "longitude": 8.38706, "state": "BW", "stars": 2.5, "latitude": 49.0066, "attributes": {"Parking": {"garage": false, "validated": false, "street": false, "lot": false, "valet": false}, "Accepts Credit Cards": true, "Price Range": 3}, "type": "business"}
{"business_id": "BOfs0NbVsCSiBAo1jb1Tvw", "full_address": "Luisenstr. 6\n76137 Karlsruhe", "hours": {"Monday": {"close": "18:30", "open": "15:00"}, "Tuesday": {"close": "18:30", "open": "15:00"}, "Friday": {"close": "18:30", "open": "15:00"}, "Wednesday": {"close": "18:30", "open": "15:00"}, "Thursday": {"close": "20:00", "open": "15:00"}, "Saturday": {"close": "16:00", "open": "09:00"}}, "open": true, "categories": ["Shopping", "Beauty & Spas", "Food", "Beer, Wine & Spirits", "Delicatessen", "Cosmetics & Beauty Supply"], "city": "Karlsruhe", "review_count": 3, "name": "Comestibles Espana", "neighborhoods": [], "longitude": 8.40439, "state": "BW", "stars": 4.5, "latitude": 49.0007, "attributes": {"Parking": {"garage": false, "validated": false, "street": false, "lot": false, "valet": false}, "Wheelchair Accessible": true, "Price Range": 2}, "type": "business"}
{"business_id": "TrCimnSt42AbJMLVQiiJJQ", "full_address": "Amalienstr. 81\n76133 Karlsruhe", "hours": {}, "open": true, "categories": ["Food", "Beer, Wine & Spirits"], "city": "Karlsruhe", "review_count": 4, "name": "Jacques' Wein-Depot", "neighborhoods": [], "longitude": 8.3886321, "state": "BW", "stars": 3.5, "latitude": 49.0098351, "attributes": {"Parking": {"garage": false, "validated": false, "street": false, "lot": false, "valet": false}, "Price Range": 2}, "type": "business"}
{"business_id": "zEgusBF95RMBH2NP6X-3NQ", "full_address": "Nelkenstr. 33\n76135 Karlsruhe", "hours": {"Monday": {"close": "19:00", "open": "10:00"}, "Tuesday": {"close": "19:00", "open": "10:00"}, "Friday": {"close": "19:00", "open": "10:00"}, "Wednesday": {"close": "19:00", "open": "10:00"}, "Thursday": {"close": "19:00", "open": "10:00"}, "Saturday": {"close": "16:00", "open": "09:30"}}, "open": true, "categories": ["Food", "Beer, Wine & Spirits"], "city": "Karlsruhe", "review_count": 5, "name": "Weinlade Am Gutenbergplatz", "neighborhoods": [], "longitude": 8.3761187, "state": "BW", "stars": 5.0, "latitude": 49.0084614, "attributes": {}, "type": "business"}
