{"business_id": "l2yVOnZtaULa5PSx85JkjA", "full_address": "Kaiserstr. 18\n76133 Karlsruhe", "hours": {"Monday": {"close": "19:00", "open": "09:00"}, "Tuesday": {"close": "19:00", "open": "09:00"}, "Friday": {"close": "19:00", "open": "09:00"}, "Wednesday": {"close": "19:00", "open": "09:00"}, "Thursday": {"close": "19:00", "open": "09:00"}, "Saturday": {"close": "16:00", "open": "09:30"}}, "open": true, "categories": ["Accountants", "Professional Services", "Bookstores", "Shopping", "Books, Mags, Music & Video"], "city": "Karlsruhe", "review_count": 4, "name": "Buchhandlung am Kronenplatz", "neighborhoods": [], "longitude": 8.4102955, "state": "BW", "stars": 5.0, "latitude": 49.0090582, "attributes": {"Price Range": 2}, "type": "business"}
{"business_id": "30JWFF7VjyHnMpNGIp-fnQ", "full_address": "W\u00f6schbacher Str. 31\n76327 Pfinztal", "hours": {}, "open": true, "categories": ["Accountants", "Professional Services"], "city": "Pfinztal", "review_count": 3, "name": "Martina Zimmermann-Brase", "neighborhoods": [], "longitude": 8.53493, "state": "BW", "stars": 4.5, "latitude": 49.0041, "attributes": {}, "type": "business"}
{"business_id": "l2yVOnZtaULa5PSx85JkjA", "full_address": "Kaiserstr. 18\n76133 Karlsruhe", "hours": {"Monday": {"close": "19:00", "open": "09:00"}, "Tuesday": {"close": "19:00", "open": "09:00"}, "Friday": {"close": "19:00", "open": "09:00"}, "Wednesday": {"close": "19:00", "open": "09:00"}, "Thursday": {"close": "19:00", "open": "09:00"}, "Saturday": {"close": "16:00", "open": "09:30"}}, "open": true, "categories": ["Accountants", "Professional Services", "Bookstores", "Shopping", "Books, Mags, Music & Video"], "city": "Karlsruhe", "review_count": 4, "name": "Buchhandlung am Kronenplatz", "neighborhoods": [], "longitude": 8.4102955, "state": "BW", "stars": 5.0, "latitude": 49.0090582, "attributes": {"Price Range": 2}, "type": "business"}
{"business_id": "30JWFF7VjyHnMpNGIp-fnQ", "full_address": "W\u00f6schbacher Str. 31\n76327 Pfinztal", "hours": {}, "open": true, "categories": ["Accountants", "Professional Services"], "city": "Pfinztal", "review_count": 3, "name": "Martina Zimmermann-Brase", "neighborhoods": [], "longitude": 8.53493, "state": "BW", "stars": 4.5, "latitude": 49.0041, "attributes": {}, "type": "business"}
{"business_id": "l2yVOnZtaULa5PSx85JkjA", "full_address": "Kaiserstr. 18\n76133 Karlsruhe", "hours": {"Monday": {"close": "19:00", "open": "09:00"}, "Tuesday": {"close": "19:00", "open": "09:00"}, "Friday": {"close": "19:00", "open": "09:00"}, "Wednesday": {"close": "19:00", "open": "09:00"}, "Thursday": {"close": "19:00", "open": "09:00"}, "Saturday": {"close": "16:00", "open": "09:30"}}, "open": true, "categories": ["Accountants", "Professional Services", "Bookstores", "Shopping", "Books, Mags, Music & Video"], "city": "Karlsruhe", "review_count": 4, "name": "Buchhandlung am Kronenplatz", "neighborhoods": [], "longitude": 8.4102955, "state": "BW", "stars": 5.0, "latitude": 49.0090582, "attributes": {"Price Range": 2}, "type": "business"}
{"business_id": "30JWFF7VjyHnMpNGIp-fnQ", "full_address": "W\u00f6schbacher Str. 31\n76327 Pfinztal", "hours": {}, "open": true, "categories": ["Accountants", "Professional Services"], "city": "Pfinztal", "review_count": 3, "name": "Martina Zimmermann-Brase", "neighborhoods": [], "longitude": 8.53493, "state": "BW", "stars": 4.5, "latitude": 49.0041, "attributes": {}, "type": "business"}
{"business_id": "l2yVOnZtaULa5PSx85JkjA", "full_address": "Kaiserstr. 18\n76133 Karlsruhe", "hours": {"Monday": {"close": "19:00", "open": "09:00"}, "Tuesday": {"close": "19:00", "open": "09:00"}, "Friday": {"close": "19:00", "open": "09:00"}, "Wednesday": {"close": "19:00", "open": "09:00"}, "Thursday": {"close": "19:00", "open": "09:00"}, "Saturday": {"close": "16:00", "open": "09:30"}}, "open": true, "categories": ["Accountants", "Professional Services", "Bookstores", "Shopping", "Books, Mags, Music & Video"], "city": "Karlsruhe", "review_count": 4, "name": "Buchhandlung am Kronenplatz", "neighborhoods": [], "longitude": 8.4102955, "state": "BW", "stars": 5.0, "latitude": 49.0090582, "attributes": {"Price Range": 2}, "type": "business"}
{"business_id": "30JWFF7VjyHnMpNGIp-fnQ", "full_address": "W\u00f6schbacher Str. 31\n76327 Pfinztal", "hours": {}, "open": true, "categories": ["Accountants", "Professional Services"], "city": "Pfinztal", "review_count": 3, "name": "Martina Zimmermann-Brase", "neighborhoods": [], "longitude": 8.53493, "state": "BW", "stars": 4.5, "latitude": 49.0041, "attributes": {}, "type": "business"}
{"business_id": "l2yVOnZtaULa5PSx85JkjA", "full_address": "Kaiserstr. 18\n76133 Karlsruhe", "hours": {"Monday": {"close": "19:00", "open": "09:00"}, "Tuesday": {"close": "19:00", "open": "09:00"}, "Friday": {"close": "19:00", "open": "09:00"}, "Wednesday": {"close": "19:00", "open": "09:00"}, "Thursday": {"close": "19:00", "open": "09:00"}, "Saturday": {"close": "16:00", "open": "09:30"}}, "open": true, "categories": ["Accountants", "Professional Services", "Bookstores", "Shopping", "Books, Mags, Music & Video"], "city": "Karlsruhe", "review_count": 4, "name": "Buchhandlung am Kronenplatz", "neighborhoods": [], "longitude": 8.4102955, "state": "BW", "stars": 5.0, "latitude": 49.0090582, "attributes": {"Price Range": 2}, "type": "business"}
{"business_id": "30JWFF7VjyHnMpNGIp-fnQ", "full_address": "W\u00f6schbacher Str. 31\n76327 Pfinztal", "hours": {}, "open": true, "categories": ["Accountants", "Professional Services"], "city": "Pfinztal", "review_count": 3, "name": "Martina Zimmermann-Brase", "neighborhoods": [], "longitude": 8.53493, "state": "BW", "stars": 4.5, "latitude": 49.0041, "attributes": {}, "type": "business"}
{"business_id": "l2yVOnZtaULa5PSx85JkjA", "full_address": "Kaiserstr. 18\n76133 Karlsruhe", "hours": {"Monday": {"close": "19:00", "open": "09:00"}, "Tuesday": {"close": "19:00", "open": "09:00"}, "Friday": {"close": "19:00", "open": "09:00"}, "Wednesday": {"close": "19:00", "open": "09:00"}, "Thursday": {"close": "19:00", "open": "09:00"}, "Saturday": {"close": "16:00", "open": "09:30"}}, "open": true, "categories": ["Accountants", "Professional Services", "Bookstores", "Shopping", "Books, Mags, Music & Video"], "city": "Karlsruhe", "review_count": 4, "name": "Buchhandlung am Kronenplatz", "neighborhoods": [], "longitude": 8.4102955, "state": "BW", "stars": 5.0, "latitude": 49.0090582, "attributes": {"Price Range": 2}, "type": "business"}
{"business_id": "30JWFF7VjyHnMpNGIp-fnQ", "full_address": "W\u00f6schbacher Str. 31\n76327 Pfinztal", "hours": {}, "open": true, "categories": ["Accountants", "Professional Services"], "city": "Pfinztal", "review_count": 3, "name": "Martina Zimmermann-Brase", "neighborhoods": [], "longitude": 8.53493, "state": "BW", "stars": 4.5, "latitude": 49.0041, "attributes": {}, "type": "business"}
