{"business_id": "ZH7cL8waFurNpZ3B9yFnog", "full_address": "Gutenbergplatz\n76135 Karlsruhe", "hours": {}, "open": true, "categories": ["Active Life", "Public Plazas"], "city": "Karlsruhe", "review_count": 3, "name": "Gutenbergplatz", "neighborhoods": [], "longitude": 8.37539, "state": "BW", "stars": 4.5, "latitude": 49.0089, "attributes": {"Parking": {"garage": false, "validated": false, "street": false, "lot": false, "valet": false}, "Accepts Credit Cards": true, "Wheelchair Accessible": false, "Price Range": 2}, "type": "business"}
{"business_id": "KrxtCW45J_5zfxbrrQK_VQ", "full_address": "Marktplatz\n76133 Karlsruhe", "hours": {}, "open": true, "categories": ["Active Life", "Landmarks & Historical Buildings", "Public Services & Government", "Public Plazas"], "city": "Karlsruhe", "review_count": 5, "name": "Marktplatz Karlsruhe", "neighborhoods": [], "longitude": 8.4040367603302, "state": "BW", "stars": 3.5, "latitude": 49.0094308313443, "attributes": {"Good for Kids": false}, "type": "business"}
{"business_id": "ZH7cL8waFurNpZ3B9yFnog", "full_address": "Gutenbergplatz\n76135 Karlsruhe", "hours": {}, "open": true, "categories": ["Active Life", "Public Plazas"], "city": "Karlsruhe", "review_count": 3, "name": "Gutenbergplatz", "neighborhoods": [], "longitude": 8.37539, "state": "BW", "stars": 4.5, "latitude": 49.0089, "attributes": {"Parking": {"garage": false, "validated": false, "street": false, "lot": false, "valet": false}, "Accepts Credit Cards": true, "Wheelchair Accessible": false, "Price Range": 2}, "type": "business"}
{"business_id": "KrxtCW45J_5zfxbrrQK_VQ", "full_address": "Marktplatz\n76133 Karlsruhe", "hours": {}, "open": true, "categories": ["Active Life", "Landmarks & Historical Buildings", "Public Services & Government", "Public Plazas"], "city": "Karlsruhe", "review_count": 5, "name": "Marktplatz Karlsruhe", "neighborhoods": [], "longitude": 8.4040367603302, "state": "BW", "stars": 3.5, "latitude": 49.0094308313443, "attributes": {"Good for Kids": false}, "type": "business"}
{"business_id": "ZH7cL8waFurNpZ3B9yFnog", "full_address": "Gutenbergplatz\n76135 Karlsruhe", "hours": {}, "open": true, "categories": ["Active Life", "Public Plazas"], "city": "Karlsruhe", "review_count": 3, "name": "Gutenbergplatz", "neighborhoods": [], "longitude": 8.37539, "state": "BW", "stars": 4.5, "latitude": 49.0089, "attributes": {"Parking": {"garage": false, "validated": false, "street": false, "lot": false, "valet": false}, "Accepts Credit Cards": true, "Wheelchair Accessible": false, "Price Range": 2}, "type": "business"}
{"business_id": "KrxtCW45J_5zfxbrrQK_VQ", "full_address": "Marktplatz\n76133 Karlsruhe", "hours": {}, "open": true, "categories": ["Active Life", "Landmarks & Historical Buildings", "Public Services & Government", "Public Plazas"], "city": "Karlsruhe", "review_count": 5, "name": "Marktplatz Karlsruhe", "neighborhoods": [], "longitude": 8.4040367603302, "state": "BW", "stars": 3.5, "latitude": 49.0094308313443, "attributes": {"Good for Kids": false}, "type": "business"}
{"business_id": "ZH7cL8waFurNpZ3B9yFnog", "full_address": "Gutenbergplatz\n76135 Karlsruhe", "hours": {}, "open": true, "categories": ["Active Life", "Public Plazas"], "city": "Karlsruhe", "review_count": 3, "name": "Gutenbergplatz", "neighborhoods": [], "longitude": 8.37539, "state": "BW", "stars": 4.5, "latitude": 49.0089, "attributes": {"Parking": {"garage": false, "validated": false, "street": false, "lot": false, "valet": false}, "Accepts Credit Cards": true, "Wheelchair Accessible": false, "Price Range": 2}, "type": "business"}
{"business_id": "KrxtCW45J_5zfxbrrQK_VQ", "full_address": "Marktplatz\n76133 Karlsruhe", "hours": {}, "open": true, "categories": ["Active Life", "Landmarks & Historical Buildings", "Public Services & Government", "Public Plazas"], "city": "Karlsruhe", "review_count": 5, "name": "Marktplatz Karlsruhe", "neighborhoods": [], "longitude": 8.4040367603302, "state": "BW", "stars": 3.5, "latitude": 49.0094308313443, "attributes": {"Good for Kids": false}, "type": "business"}
{"business_id": "ZH7cL8waFurNpZ3B9yFnog", "full_address": "Gutenbergplatz\n76135 Karlsruhe", "hours": {}, "open": true, "categories": ["Active Life", "Public Plazas"], "city": "Karlsruhe", "review_count": 3, "name": "Gutenbergplatz", "neighborhoods": [], "longitude": 8.37539, "state": "BW", "stars": 4.5, "latitude": 49.0089, "attributes": {"Parking": {"garage": false, "validated": false, "street": false, "lot": false, "valet": false}, "Accepts Credit Cards": true, "Wheelchair Accessible": false, "Price Range": 2}, "type": "business"}
{"business_id": "KrxtCW45J_5zfxbrrQK_VQ", "full_address": "Marktplatz\n76133 Karlsruhe", "hours": {}, "open": true, "categories": ["Active Life", "Landmarks & Historical Buildings", "Public Services & Government", "Public Plazas"], "city": "Karlsruhe", "review_count": 5, "name": "Marktplatz Karlsruhe", "neighborhoods": [], "longitude": 8.4040367603302, "state": "BW", "stars": 3.5, "latitude": 49.0094308313443, "attributes": {"Good for Kids": false}, "type": "business"}
{"business_id": "ZH7cL8waFurNpZ3B9yFnog", "full_address": "Gutenbergplatz\n76135 Karlsruhe", "hours": {}, "open": true, "categories": ["Active Life", "Public Plazas"], "city": "Karlsruhe", "review_count": 3, "name": "Gutenbergplatz", "neighborhoods": [], "longitude": 8.37539, "state": "BW", "stars": 4.5, "latitude": 49.0089, "attributes": {"Parking": {"garage": false, "validated": false, "street": false, "lot": false, "valet": false}, "Accepts Credit Cards": true, "Wheelchair Accessible": false, "Price Range": 2}, "type": "business"}
{"business_id": "KrxtCW45J_5zfxbrrQK_VQ", "full_address": "Marktplatz\n76133 Karlsruhe", "hours": {}, "open": true, "categories": ["Active Life", "Landmarks & Historical Buildings", "Public Services & Government", "Public Plazas"], "city": "Karlsruhe", "review_count": 5, "name": "Marktplatz Karlsruhe", "neighborhoods": [], "longitude": 8.4040367603302, "state": "BW", "stars": 3.5, "latitude": 49.0094308313443, "attributes": {"Good for Kids": false}, "type": "business"}
