{"business_id": "l2yVOnZtaULa5PSx85JkjA", "full_address": "Kaiserstr. 18\n76133 Karlsruhe", "hours": {"Monday": {"close": "19:00", "open": "09:00"}, "Tuesday": {"close": "19:00", "open": "09:00"}, "Friday": {"close": "19:00", "open": "09:00"}, "Wednesday": {"close": "19:00", "open": "09:00"}, "Thursday": {"close": "19:00", "open": "09:00"}, "Saturday": {"close": "16:00", "open": "09:30"}}, "open": true, "categories": ["Accountants", "Professional Services", "Bookstores", "Shopping", "Books, Mags, Music & Video"], "city": "Karlsruhe", "review_count": 4, "name": "Buchhandlung am Kronenplatz", "neighborhoods": [], "longitude": 8.4102955, "state": "BW", "stars": 5.0, "latitude": 49.0090582, "attributes": {"Price Range": 2}, "type": "business"}
{"business_id": "30JWFF7VjyHnMpNGIp-fnQ", "full_address": "W\u00f6schbacher Str. 31\n76327 Pfinztal", "hours": {}, "open": true, "categories": ["Accountants", "Professional Services"], "city": "Pfinztal", "review_count": 3, "name": "Martina Zimmermann-Brase", "neighborhoods": [], "longitude": 8.53493, "state": "BW", "stars": 4.5, "latitude": 49.0041, "attributes": {}, "type": "business"}
{"business_id": "lZdaEd0x4nCPtOgkBeKDFA", "full_address": "Ferdinand-Porsche-Stra\u00dfe 7\n76275 Ettlingen", "hours": {}, "open": true, "categories": ["Professional Services", "Matchmakers", "Home Services", "Internet Service Providers"], "city": "Ettlingen", "review_count": 3, "name": "Knuddels - knuddels.de", "neighborhoods": [], "longitude": 8.38447, "state": "BW", "stars": 1.5, "latitude": 48.93762, "attributes": {}, "type": "business"}
{"business_id": "Rk6LiMxPpMhbERugYspYwQ", "full_address": "Schneidem\u00fchlerstr. 14 E\n76139 Karlsruhe", "hours": {"Monday": {"close": "18:00", "open": "09:00"}, "Tuesday": {"close": "18:00", "open": "09:00"}, "Friday": {"close": "18:00", "open": "09:00"}, "Wednesday": {"close": "18:00", "open": "09:00"}, "Thursday": {"close": "18:00", "open": "09:00"}, "Saturday": {"close": "18:00", "open": "09:00"}}, "open": true, "categories": ["Professional Services", "Window Washing", "Office Cleaning", "Home Services"], "city": "Karlsruhe", "review_count": 3, "name": "Geb\u00e4udereinigung S&O - Karlsruhe Reinigungsfirma", "neighborhoods": [], "longitude": 8.43593, "state": "BW", "stars": 5.0, "latitude": 49.03553, "attributes": {"Parking": {"garage": false, "validated": false, "street": false, "lot": false, "valet": false}, "Wheelchair Accessible": true, "Price Range": 2}, "type": "business"}
{"business_id": "rKLqywVES-dgjQ08mnqIGA", "full_address": "Kaiserstr. 88\n76133 Karlsruhe", "hours": {"Monday": {"close": "18:00", "open": "10:00"}, "Tuesday": {"close": "18:00", "open": "10:00"}, "Friday": {"close": "18:00", "open": "10:00"}, "Wednesday": {"close": "18:00", "open": "10:00"}, "Thursday": {"close": "18:00", "open": "10:00"}, "Saturday": {"close": "18:00", "open": "10:00"}}, "open": true, "categories": ["Professional Services", "Home Services", "Shopping", "Mobile Phones", "Internet Service Providers"], "city": "Karlsruhe", "review_count": 4, "name": "Telekom Shop", "neighborhoods": [], "longitude": 8.40201, "state": "BW", "stars": 2.5, "latitude": 49.0098, "attributes": {"Price Range": 2}, "type": "business"}
{"business_id": "l2yVOnZtaULa5PSx85JkjA", "full_address": "Kaiserstr. 18\n76133 Karlsruhe", "hours": {"Monday": {"close": "19:00", "open": "09:00"}, "Tuesday": {"close": "19:00", "open": "09:00"}, "Friday": {"close": "19:00", "open": "09:00"}, "Wednesday": {"close": "19:00", "open": "09:00"}, "Thursday": {"close": "19:00", "open": "09:00"}, "Saturday": {"close": "16:00", "open": "09:30"}}, "open": true, "categories": ["Accountants", "Professional Services", "Bookstores", "Shopping", "Books, Mags, Music & Video"], "city": "Karlsruhe", "review_count": 4, "name": "Buchhandlung am Kronenplatz", "neighborhoods": [], "longitude": 8.4102955, "state": "BW", "stars": 5.0, "latitude": 49.0090582, "attributes": {"Price Range": 2}, "type": "business"}
{"business_id": "30JWFF7VjyHnMpNGIp-fnQ", "full_address": "W\u00f6schbacher Str. 31\n76327 Pfinztal", "hours": {}, "open": true, "categories": ["Accountants", "Professional Services"], "city": "Pfinztal", "review_count": 3, "name": "Martina Zimmermann-Brase", "neighborhoods": [], "longitude": 8.53493, "state": "BW", "stars": 4.5, "latitude": 49.0041, "attributes": {}, "type": "business"}
{"business_id": "lZdaEd0x4nCPtOgkBeKDFA", "full_address": "Ferdinand-Porsche-Stra\u00dfe 7\n76275 Ettlingen", "hours": {}, "open": true, "categories": ["Professional Services", "Matchmakers", "Home Services", "Internet Service Providers"], "city": "Ettlingen", "review_count": 3, "name": "Knuddels - knuddels.de", "neighborhoods": [], "longitude": 8.38447, "state": "BW", "stars": 1.5, "latitude": 48.93762, "attributes": {}, "type": "business"}
{"business_id": "Rk6LiMxPpMhbERugYspYwQ", "full_address": "Schneidem\u00fchlerstr. 14 E\n76139 Karlsruhe", "hours": {"Monday": {"close": "18:00", "open": "09:00"}, "Tuesday": {"close": "18:00", "open": "09:00"}, "Friday": {"close": "18:00", "open": "09:00"}, "Wednesday": {"close": "18:00", "open": "09:00"}, "Thursday": {"close": "18:00", "open": "09:00"}, "Saturday": {"close": "18:00", "open": "09:00"}}, "open": true, "categories": ["Professional Services", "Window Washing", "Office Cleaning", "Home Services"], "city": "Karlsruhe", "review_count": 3, "name": "Geb\u00e4udereinigung S&O - Karlsruhe Reinigungsfirma", "neighborhoods": [], "longitude": 8.43593, "state": "BW", "stars": 5.0, "latitude": 49.03553, "attributes": {"Parking": {"garage": false, "validated": false, "street": false, "lot": false, "valet": false}, "Wheelchair Accessible": true, "Price Range": 2}, "type": "business"}
{"business_id": "rKLqywVES-dgjQ08mnqIGA", "full_address": "Kaiserstr. 88\n76133 Karlsruhe", "hours": {"Monday": {"close": "18:00", "open": "10:00"}, "Tuesday": {"close": "18:00", "open": "10:00"}, "Friday": {"close": "18:00", "open": "10:00"}, "Wednesday": {"close": "18:00", "open": "10:00"}, "Thursday": {"close": "18:00", "open": "10:00"}, "Saturday": {"close": "18:00", "open": "10:00"}}, "open": true, "categories": ["Professional Services", "Home Services", "Shopping", "Mobile Phones", "Internet Service Providers"], "city": "Karlsruhe", "review_count": 4, "name": "Telekom Shop", "neighborhoods": [], "longitude": 8.40201, "state": "BW", "stars": 2.5, "latitude": 49.0098, "attributes": {"Price Range": 2}, "type": "business"}
{"business_id": "l2yVOnZtaULa5PSx85JkjA", "full_address": "Kaiserstr. 18\n76133 Karlsruhe", "hours": {"Monday": {"close": "19:00", "open": "09:00"}, "Tuesday": {"close": "19:00", "open": "09:00"}, "Friday": {"close": "19:00", "open": "09:00"}, "Wednesday": {"close": "19:00", "open": "09:00"}, "Thursday": {"close": "19:00", "open": "09:00"}, "Saturday": {"close": "16:00", "open": "09:30"}}, "open": true, "categories": ["Accountants", "Professional Services", "Bookstores", "Shopping", "Books, Mags, Music & Video"], "city": "Karlsruhe", "review_count": 4, "name": "Buchhandlung am Kronenplatz", "neighborhoods": [], "longitude": 8.4102955, "state": "BW", "stars": 5.0, "latitude": 49.0090582, "attributes": {"Price Range": 2}, "type": "business"}
{"business_id": "30JWFF7VjyHnMpNGIp-fnQ", "full_address": "W\u00f6schbacher Str. 31\n76327 Pfinztal", "hours": {}, "open": true, "categories": ["Accountants", "Professional Services"], "city": "Pfinztal", "review_count": 3, "name": "Martina Zimmermann-Brase", "neighborhoods": [], "longitude": 8.53493, "state": "BW", "stars": 4.5, "latitude": 49.0041, "attributes": {}, "type": "business"}
{"business_id": "lZdaEd0x4nCPtOgkBeKDFA", "full_address": "Ferdinand-Porsche-Stra\u00dfe 7\n76275 Ettlingen", "hours": {}, "open": true, "categories": ["Professional Services", "Matchmakers", "Home Services", "Internet Service Providers"], "city": "Ettlingen", "review_count": 3, "name": "Knuddels - knuddels.de", "neighborhoods": [], "longitude": 8.38447, "state": "BW", "stars": 1.5, "latitude": 48.93762, "attributes": {}, "type": "business"}
{"business_id": "Rk6LiMxPpMhbERugYspYwQ", "full_address": "Schneidem\u00fchlerstr. 14 E\n76139 Karlsruhe", "hours": {"Monday": {"close": "18:00", "open": "09:00"}, "Tuesday": {"close": "18:00", "open": "09:00"}, "Friday": {"close": "18:00", "open": "09:00"}, "Wednesday": {"close": "18:00", "open": "09:00"}, "Thursday": {"close": "18:00", "open": "09:00"}, "Saturday": {"close": "18:00", "open": "09:00"}}, "open": true, "categories": ["Professional Services", "Window Washing", "Office Cleaning", "Home Services"], "city": "Karlsruhe", "review_count": 3, "name": "Geb\u00e4udereinigung S&O - Karlsruhe Reinigungsfirma", "neighborhoods": [], "longitude": 8.43593, "state": "BW", "stars": 5.0, "latitude": 49.03553, "attributes": {"Parking": {"garage": false, "validated": false, "street": false, "lot": false, "valet": false}, "Wheelchair Accessible": true, "Price Range": 2}, "type": "business"}
{"business_id": "rKLqywVES-dgjQ08mnqIGA", "full_address": "Kaiserstr. 88\n76133 Karlsruhe", "hours": {"Monday": {"close": "18:00", "open": "10:00"}, "Tuesday": {"close": "18:00", "open": "10:00"}, "Friday": {"close": "18:00", "open": "10:00"}, "Wednesday": {"close": "18:00", "open": "10:00"}, "Thursday": {"close": "18:00", "open": "10:00"}, "Saturday": {"close": "18:00", "open": "10:00"}}, "open": true, "categories": ["Professional Services", "Home Services", "Shopping", "Mobile Phones", "Internet Service Providers"], "city": "Karlsruhe", "review_count": 4, "name": "Telekom Shop", "neighborhoods": [], "longitude": 8.40201, "state": "BW", "stars": 2.5, "latitude": 49.0098, "attributes": {"Price Range": 2}, "type": "business"}
{"business_id": "l2yVOnZtaULa5PSx85JkjA", "full_address": "Kaiserstr. 18\n76133 Karlsruhe", "hours": {"Monday": {"close": "19:00", "open": "09:00"}, "Tuesday": {"close": "19:00", "open": "09:00"}, "Friday": {"close": "19:00", "open": "09:00"}, "Wednesday": {"close": "19:00", "open": "09:00"}, "Thursday": {"close": "19:00", "open": "09:00"}, "Saturday": {"close": "16:00", "open": "09:30"}}, "open": true, "categories": ["Accountants", "Professional Services", "Bookstores", "Shopping", "Books, Mags, Music & Video"], "city": "Karlsruhe", "review_count": 4, "name": "Buchhandlung am Kronenplatz", "neighborhoods": [], "longitude": 8.4102955, "state": "BW", "stars": 5.0, "latitude": 49.0090582, "attributes": {"Price Range": 2}, "type": "business"}
{"business_id": "30JWFF7VjyHnMpNGIp-fnQ", "full_address": "W\u00f6schbacher Str. 31\n76327 Pfinztal", "hours": {}, "open": true, "categories": ["Accountants", "Professional Services"], "city": "Pfinztal", "review_count": 3, "name": "Martina Zimmermann-Brase", "neighborhoods": [], "longitude": 8.53493, "state": "BW", "stars": 4.5, "latitude": 49.0041, "attributes": {}, "type": "business"}
{"business_id": "lZdaEd0x4nCPtOgkBeKDFA", "full_address": "Ferdinand-Porsche-Stra\u00dfe 7\n76275 Ettlingen", "hours": {}, "open": true, "categories": ["Professional Services", "Matchmakers", "Home Services", "Internet Service Providers"], "city": "Ettlingen", "review_count": 3, "name": "Knuddels - knuddels.de", "neighborhoods": [], "longitude": 8.38447, "state": "BW", "stars": 1.5, "latitude": 48.93762, "attributes": {}, "type": "business"}
{"business_id": "Rk6LiMxPpMhbERugYspYwQ", "full_address": "Schneidem\u00fchlerstr. 14 E\n76139 Karlsruhe", "hours": {"Monday": {"close": "18:00", "open": "09:00"}, "Tuesday": {"close": "18:00", "open": "09:00"}, "Friday": {"close": "18:00", "open": "09:00"}, "Wednesday": {"close": "18:00", "open": "09:00"}, "Thursday": {"close": "18:00", "open": "09:00"}, "Saturday": {"close": "18:00", "open": "09:00"}}, "open": true, "categories": ["Professional Services", "Window Washing", "Office Cleaning", "Home Services"], "city": "Karlsruhe", "review_count": 3, "name": "Geb\u00e4udereinigung S&O - Karlsruhe Reinigungsfirma", "neighborhoods": [], "longitude": 8.43593, "state": "BW", "stars": 5.0, "latitude": 49.03553, "attributes": {"Parking": {"garage": false, "validated": false, "street": false, "lot": false, "valet": false}, "Wheelchair Accessible": true, "Price Range": 2}, "type": "business"}
{"business_id": "rKLqywVES-dgjQ08mnqIGA", "full_address": "Kaiserstr. 88\n76133 Karlsruhe", "hours": {"Monday": {"close": "18:00", "open": "10:00"}, "Tuesday": {"close": "18:00", "open": "10:00"}, "Friday": {"close": "18:00", "open": "10:00"}, "Wednesday": {"close": "18:00", "open": "10:00"}, "Thursday": {"close": "18:00", "open": "10:00"}, "Saturday": {"close": "18:00", "open": "10:00"}}, "open": true, "categories": ["Professional Services", "Home Services", "Shopping", "Mobile Phones", "Internet Service Providers"], "city": "Karlsruhe", "review_count": 4, "name": "Telekom Shop", "neighborhoods": [], "longitude": 8.40201, "state": "BW", "stars": 2.5, "latitude": 49.0098, "attributes": {"Price Range": 2}, "type": "business"}
{"business_id": "l2yVOnZtaULa5PSx85JkjA", "full_address": "Kaiserstr. 18\n76133 Karlsruhe", "hours": {"Monday": {"close": "19:00", "open": "09:00"}, "Tuesday": {"close": "19:00", "open": "09:00"}, "Friday": {"close": "19:00", "open": "09:00"}, "Wednesday": {"close": "19:00", "open": "09:00"}, "Thursday": {"close": "19:00", "open": "09:00"}, "Saturday": {"close": "16:00", "open": "09:30"}}, "open": true, "categories": ["Accountants", "Professional Services", "Bookstores", "Shopping", "Books, Mags, Music & Video"], "city": "Karlsruhe", "review_count": 4, "name": "Buchhandlung am Kronenplatz", "neighborhoods": [], "longitude": 8.4102955, "state": "BW", "stars": 5.0, "latitude": 49.0090582, "attributes": {"Price Range": 2}, "type": "business"}
{"business_id": "30JWFF7VjyHnMpNGIp-fnQ", "full_address": "W\u00f6schbacher Str. 31\n76327 Pfinztal", "hours": {}, "open": true, "categories": ["Accountants", "Professional Services"], "city": "Pfinztal", "review_count": 3, "name": "Martina Zimmermann-Brase", "neighborhoods": [], "longitude": 8.53493, "state": "BW", "stars": 4.5, "latitude": 49.0041, "attributes": {}, "type": "business"}
{"business_id": "lZdaEd0x4nCPtOgkBeKDFA", "full_address": "Ferdinand-Porsche-Stra\u00dfe 7\n76275 Ettlingen", "hours": {}, "open": true, "categories": ["Professional Services", "Matchmakers", "Home Services", "Internet Service Providers"], "city": "Ettlingen", "review_count": 3, "name": "Knuddels - knuddels.de", "neighborhoods": [], "longitude": 8.38447, "state": "BW", "stars": 1.5, "latitude": 48.93762, "attributes": {}, "type": "business"}
{"business_id": "Rk6LiMxPpMhbERugYspYwQ", "full_address": "Schneidem\u00fchlerstr. 14 E\n76139 Karlsruhe", "hours": {"Monday": {"close": "18:00", "open": "09:00"}, "Tuesday": {"close": "18:00", "open": "09:00"}, "Friday": {"close": "18:00", "open": "09:00"}, "Wednesday": {"close": "18:00", "open": "09:00"}, "Thursday": {"close": "18:00", "open": "09:00"}, "Saturday": {"close": "18:00", "open": "09:00"}}, "open": true, "categories": ["Professional Services", "Window Washing", "Office Cleaning", "Home Services"], "city": "Karlsruhe", "review_count": 3, "name": "Geb\u00e4udereinigung S&O - Karlsruhe Reinigungsfirma", "neighborhoods": [], "longitude": 8.43593, "state": "BW", "stars": 5.0, "latitude": 49.03553, "attributes": {"Parking": {"garage": false, "validated": false, "street": false, "lot": false, "valet": false}, "Wheelchair Accessible": true, "Price Range": 2}, "type": "business"}
{"business_id": "rKLqywVES-dgjQ08mnqIGA", "full_address": "Kaiserstr. 88\n76133 Karlsruhe", "hours": {"Monday": {"close": "18:00", "open": "10:00"}, "Tuesday": {"close": "18:00", "open": "10:00"}, "Friday": {"close": "18:00", "open": "10:00"}, "Wednesday": {"close": "18:00", "open": "10:00"}, "Thursday": {"close": "18:00", "open": "10:00"}, "Saturday": {"close": "18:00", "open": "10:00"}}, "open": true, "categories": ["Professional Services", "Home Services", "Shopping", "Mobile Phones", "Internet Service Providers"], "city": "Karlsruhe", "review_count": 4, "name": "Telekom Shop", "neighborhoods": [], "longitude": 8.40201, "state": "BW", "stars": 2.5, "latitude": 49.0098, "attributes": {"Price Range": 2}, "type": "business"}
{"business_id": "l2yVOnZtaULa5PSx85JkjA", "full_address": "Kaiserstr. 18\n76133 Karlsruhe", "hours": {"Monday": {"close": "19:00", "open": "09:00"}, "Tuesday": {"close": "19:00", "open": "09:00"}, "Friday": {"close": "19:00", "open": "09:00"}, "Wednesday": {"close": "19:00", "open": "09:00"}, "Thursday": {"close": "19:00", "open": "09:00"}, "Saturday": {"close": "16:00", "open": "09:30"}}, "open": true, "categories": ["Accountants", "Professional Services", "Bookstores", "Shopping", "Books, Mags, Music & Video"], "city": "Karlsruhe", "review_count": 4, "name": "Buchhandlung am Kronenplatz", "neighborhoods": [], "longitude": 8.4102955, "state": "BW", "stars": 5.0, "latitude": 49.0090582, "attributes": {"Price Range": 2}, "type": "business"}
{"business_id": "30JWFF7VjyHnMpNGIp-fnQ", "full_address": "W\u00f6schbacher Str. 31\n76327 Pfinztal", "hours": {}, "open": true, "categories": ["Accountants", "Professional Services"], "city": "Pfinztal", "review_count": 3, "name": "Martina Zimmermann-Brase", "neighborhoods": [], "longitude": 8.53493, "state": "BW", "stars": 4.5, "latitude": 49.0041, "attributes": {}, "type": "business"}
{"business_id": "lZdaEd0x4nCPtOgkBeKDFA", "full_address": "Ferdinand-Porsche-Stra\u00dfe 7\n76275 Ettlingen", "hours": {}, "open": true, "categories": ["Professional Services", "Matchmakers", "Home Services", "Internet Service Providers"], "city": "Ettlingen", "review_count": 3, "name": "Knuddels - knuddels.de", "neighborhoods": [], "longitude": 8.38447, "state": "BW", "stars": 1.5, "latitude": 48.93762, "attributes": {}, "type": "business"}
{"business_id": "Rk6LiMxPpMhbERugYspYwQ", "full_address": "Schneidem\u00fchlerstr. 14 E\n76139 Karlsruhe", "hours": {"Monday": {"close": "18:00", "open": "09:00"}, "Tuesday": {"close": "18:00", "open": "09:00"}, "Friday": {"close": "18:00", "open": "09:00"}, "Wednesday": {"close": "18:00", "open": "09:00"}, "Thursday": {"close": "18:00", "open": "09:00"}, "Saturday": {"close": "18:00", "open": "09:00"}}, "open": true, "categories": ["Professional Services", "Window Washing", "Office Cleaning", "Home Services"], "city": "Karlsruhe", "review_count": 3, "name": "Geb\u00e4udereinigung S&O - Karlsruhe Reinigungsfirma", "neighborhoods": [], "longitude": 8.43593, "state": "BW", "stars": 5.0, "latitude": 49.03553, "attributes": {"Parking": {"garage": false, "validated": false, "street": false, "lot": false, "valet": false}, "Wheelchair Accessible": true, "Price Range": 2}, "type": "business"}
{"business_id": "rKLqywVES-dgjQ08mnqIGA", "full_address": "Kaiserstr. 88\n76133 Karlsruhe", "hours": {"Monday": {"close": "18:00", "open": "10:00"}, "Tuesday": {"close": "18:00", "open": "10:00"}, "Friday": {"close": "18:00", "open": "10:00"}, "Wednesday": {"close": "18:00", "open": "10:00"}, "Thursday": {"close": "18:00", "open": "10:00"}, "Saturday": {"close": "18:00", "open": "10:00"}}, "open": true, "categories": ["Professional Services", "Home Services", "Shopping", "Mobile Phones", "Internet Service Providers"], "city": "Karlsruhe", "review_count": 4, "name": "Telekom Shop", "neighborhoods": [], "longitude": 8.40201, "state": "BW", "stars": 2.5, "latitude": 49.0098, "attributes": {"Price Range": 2}, "type": "business"}
