{"business_id": "_sWP2LkDml6bE9nKB3MUPg", "full_address": "Kaiserstra\u00dfe 215\n76133 Karlsruhe", "hours": {"Friday": {"close": "00:00", "open": "00:00"}, "Tuesday": {"close": "17:30", "open": "14:30"}, "Thursday": {"close": "17:30", "open": "14:30"}, "Wednesday": {"close": "00:00", "open": "00:00"}, "Monday": {"close": "17:30", "open": "14:30"}}, "open": true, "categories": ["Dermatologists", "Doctors", "Allergists", "Health & Medical"], "city": "Karlsruhe", "review_count": 6, "name": "Drs. Fritz O\u00dfwald, Ina Reitenbach-Blindt, Franz Schwan, David", "neighborhoods": [], "longitude": 8.39524, "state": "BW", "stars": 5.0, "latitude": 49.00978, "attributes": {"By Appointment Only": false, "Wheelchair Accessible": true, "Parking": {"garage": false, "validated": false, "street": false, "lot": false, "valet": false}}, "type": "business"}
{"business_id": "qhu-hCLlRiqoJ5du775oig", "full_address": "Sophienstr. 53\n76133 Karlsruhe", "hours": {}, "open": true, "categories": ["Doctors", "Health & Medical", "Family Practice"], "city": "Karlsruhe", "review_count": 3, "name": "Dr. med. Beate Weinschenk", "neighborhoods": [], "longitude": 8.38963, "state": "BW", "stars": 5.0, "latitude": 49.0074, "attributes": {}, "type": "business"}
{"business_id": "KVwqBtoJM4Bzzv4r1mKJSA", "full_address": "Hirschstr. 105\n76137 Karlsruhe", "hours": {}, "open": true, "categories": ["Doctors", "Orthopedists", "Health & Medical"], "city": "Karlsruhe", "review_count": 5, "name": "Facharzt f\u00fcr Orthop\u00e4die und Sportmedizin Wolfgang Krentel", "neighborhoods": [], "longitude": 8.39065, "state": "BW", "stars": 3.5, "latitude": 48.9995, "attributes": {"Wheelchair Accessible": false, "Parking": {"garage": false, "validated": false, "street": false, "lot": false, "valet": false}}, "type": "business"}
{"business_id": "RdWxr1GAp-BrK25nNRMS6Q", "full_address": "Georg-Friedrich-Str. 24\n76131 Karlsruhe", "hours": {}, "open": true, "categories": ["Dermatologists", "Doctors", "Ear Nose & Throat", "Health & Medical"], "city": "Karlsruhe", "review_count": 3, "name": "Dr. med. Wilfried Pfitzer", "neighborhoods": [], "longitude": 8.42355, "state": "BW", "stars": 4.5, "latitude": 49.0094, "attributes": {}, "type": "business"}
{"business_id": "7KaHhijkGVTvCBZ1hlV9Bw", "full_address": "Kriegsstr. 140\n76133 Karlsruhe", "hours": {}, "open": true, "categories": ["Doctors", "Health & Medical", "Internal Medicine"], "city": "Karlsruhe", "review_count": 3, "name": "Internisten Endokrinologische Praxis Carlo Sebastian Varma Zink", "neighborhoods": [], "longitude": 8.39421, "state": "BW", "stars": 2.5, "latitude": 49.0057, "attributes": {"Parking": {"garage": false, "validated": false, "street": false, "lot": false, "valet": false}}, "type": "business"}
{"business_id": "_De17jwK6Frt8stTulbEeA", "full_address": "B\u00e4renweg\n76149 Karlsruhe", "hours": {}, "open": true, "categories": ["Doctors", "Health & Medical", "Obstetricians & Gynecologists"], "city": "Karlsruhe", "review_count": 3, "name": "Dr. Nelis", "neighborhoods": [], "longitude": 8.3787081, "state": "BW", "stars": 3.5, "latitude": 49.0469655, "attributes": {}, "type": "business"}
{"business_id": "EUoTIMnoHlN3pov3E2ICWw", "full_address": "Weinweg 16\n76131 Karlsruhe", "hours": {}, "open": true, "categories": ["Dentists", "Doctors", "Health & Medical"], "city": "Karlsruhe", "review_count": 3, "name": "Rudolf Pacner", "neighborhoods": [], "longitude": 8.44524, "state": "BW", "stars": 4.0, "latitude": 49.0098, "attributes": {}, "type": "business"}
{"business_id": "D5fZo7NO8JOAu5icizIf-A", "full_address": "Kriegsstr. 140\n76133 Karlsruhe", "hours": {}, "open": true, "categories": ["Doctors", "Ear Nose & Throat", "Health & Medical"], "city": "Karlsruhe", "review_count": 3, "name": "Dr. med. Martin Spreng", "neighborhoods": [], "longitude": 8.39429, "state": "BW", "stars": 5.0, "latitude": 49.0056, "attributes": {}, "type": "business"}
{"business_id": "Z6Sn4cSiFt5Fw4aznUjJsA", "full_address": "B\u00fcrgerstr. 16\nauch Karlsstr. 23\n76133 Karlsruhe", "hours": {}, "open": true, "categories": ["Doctors", "Ear Nose & Throat", "Health & Medical"], "city": "Karlsruhe", "review_count": 3, "name": "HNO-Praxis Andreas Scherer", "neighborhoods": [], "longitude": 8.393843, "state": "BW", "stars": 5.0, "latitude": 49.0067498, "attributes": {"Parking": {"garage": false, "validated": false, "street": false, "lot": false, "valet": false}}, "type": "business"}
{"business_id": "4jx3VMVyPW1gL_yoHcGSQw", "full_address": "Erzbergerstr. 131\n76149 Karlsruhe", "hours": {}, "open": true, "categories": ["Doctors", "Health & Medical", "Naturopathic/Holistic"], "city": "Karlsruhe", "review_count": 3, "name": "Stefan Mathias Fuchs", "neighborhoods": [], "longitude": 8.38622, "state": "BW", "stars": 4.5, "latitude": 49.028, "attributes": {}, "type": "business"}
{"business_id": "oDGCwoW6WLbt9_XcY0p-2A", "full_address": "Stephanienstr. 96\n76133 Karlsruhe", "hours": {}, "open": true, "categories": ["Shopping", "Doctors", "Health & Medical", "Eyewear & Opticians"], "city": "Karlsruhe", "review_count": 3, "name": "Dr. med. Thomas Kohm", "neighborhoods": [], "longitude": 8.38877, "state": "BW", "stars": 3.0, "latitude": 49.0107, "attributes": {}, "type": "business"}
{"business_id": "96DyV1HhsRRPkFIN4zfzPQ", "full_address": "Karlstr. 29\n76133 Karlsruhe", "hours": {"Friday": {"close": "12:30", "open": "08:00"}, "Tuesday": {"close": "17:30", "open": "14:00"}, "Thursday": {"close": "18:00", "open": "14:00"}, "Wednesday": {"close": "14:00", "open": "08:00"}, "Monday": {"close": "17:30", "open": "14:00"}}, "open": true, "categories": ["Doctors", "Ophthalmologists", "Health & Medical"], "city": "Karlsruhe", "review_count": 11, "name": "Dr. Stephan Kaut", "neighborhoods": [], "longitude": 8.39517480535322, "state": "BW", "stars": 4.0, "latitude": 49.0075256107311, "attributes": {"Accepts Credit Cards": true, "Wheelchair Accessible": true}, "type": "business"}
{"business_id": "FMozaZuEJ43v_aWue6hkSQ", "full_address": "Nowackanlage 15-17\n76137 Karlsruhe", "hours": {}, "open": true, "categories": ["Shopping", "Doctors", "Health & Medical", "Eyewear & Opticians"], "city": "Karlsruhe", "review_count": 3, "name": "Dr. med. Annegret Schumacher", "neighborhoods": [], "longitude": 8.40426, "state": "BW", "stars": 1.0, "latitude": 49.003, "attributes": {"Price Range": 4}, "type": "business"}
{"business_id": "PfjEZGICY_QNZAQolVDncw", "full_address": "Orthop\u00e4dische Gemeinschaft am Ludwigsplatz\nWaldstr. 67\n76133 Karlsruhe", "hours": {}, "open": true, "categories": ["Doctors", "Orthopedists", "Health & Medical", "Chiropractors"], "city": "Karlsruhe", "review_count": 5, "name": "Dr. med. Oliver Frerking", "neighborhoods": [], "longitude": 8.39616, "state": "BW", "stars": 3.0, "latitude": 49.0092, "attributes": {"By Appointment Only": false}, "type": "business"}
{"business_id": "7J75VLZKDJhCypKjUAcFXQ", "full_address": "Leopoldstr. 40\n76275 Ettlingen", "hours": {}, "open": true, "categories": ["Dermatologists", "Doctors", "Health & Medical", "Internal Medicine"], "city": "Ettlingen", "review_count": 3, "name": "Dr. med. Andreas Kist", "neighborhoods": [], "longitude": 8.40789, "state": "BW", "stars": 3.5, "latitude": 48.94011, "attributes": {"Wheelchair Accessible": true, "Parking": {"garage": false, "validated": false, "street": false, "lot": false, "valet": false}}, "type": "business"}
{"business_id": "TdFHwzPd5Ah_maA-kYktHw", "full_address": "Wilhelmstr. 1\n76275 Ettlingen", "hours": {}, "open": true, "categories": ["Neurologist", "Doctors", "Health & Medical", "Physical Therapy", "Psychiatrists"], "city": "Ettlingen", "review_count": 3, "name": "Dr. med. Bernhard Kopp", "neighborhoods": [], "longitude": 8.41062, "state": "BW", "stars": 4.5, "latitude": 48.939, "attributes": {}, "type": "business"}
{"business_id": "Jd8dJj7xYvDlQIBPh4OAjQ", "full_address": "Gerwigstr. 6\n76131 Karlsruhe", "hours": {}, "open": true, "categories": ["Doctors", "Health & Medical", "Family Practice"], "city": "Karlsruhe", "review_count": 4, "name": "Wolfgang Gabriele Calmbach Wiedenmann-Calmbach", "neighborhoods": [], "longitude": 8.42414, "state": "BW", "stars": 4.0, "latitude": 49.0094, "attributes": {"Wheelchair Accessible": false}, "type": "business"}
{"business_id": "yszLaYWs06eEc2ZcsK02aQ", "full_address": "Rheinstra\u00dfe  43\n76185 Karlsruhe", "hours": {"Monday": {"close": "18:00", "open": "15:00"}, "Tuesday": {"close": "18:00", "open": "15:00"}, "Friday": {"close": "18:00", "open": "15:00"}, "Wednesday": {"close": "18:00", "open": "15:00"}, "Thursday": {"close": "18:00", "open": "14:00"}, "Saturday": {"close": "00:00", "open": "00:00"}}, "open": true, "categories": ["Doctors", "Health & Medical", "Podiatrists"], "city": "Karlsruhe", "review_count": 3, "name": "Praxis f\u00fcr Fachfu\u00dfpflege", "neighborhoods": [], "longitude": 8.3611818, "state": "BW", "stars": 5.0, "latitude": 49.011065, "attributes": {"Wheelchair Accessible": true, "Parking": {"garage": false, "validated": false, "street": false, "lot": false, "valet": false}}, "type": "business"}
{"business_id": "6XLGrli77rWeukOsOJsVqA", "full_address": "Osteopathie & Naturheilkunde Praxis\nMoltkestr. 90\n76133 Karlsruhe", "hours": {"Tuesday": {"close": "20:00", "open": "16:00"}, "Friday": {"close": "16:00", "open": "10:00"}, "Wednesday": {"close": "20:00", "open": "10:00"}, "Thursday": {"close": "20:00", "open": "10:00"}}, "open": true, "categories": ["Doctors", "Health & Medical", "Osteopathic Physicians"], "city": "Karlsruhe", "review_count": 3, "name": "Klaus Czepan", "neighborhoods": [], "longitude": 8.3717205, "state": "BW", "stars": 4.5, "latitude": 49.0174215, "attributes": {"Accepts Credit Cards": false, "Wheelchair Accessible": true, "Parking": {"garage": false, "validated": false, "street": false, "lot": false, "valet": false}}, "type": "business"}
{"business_id": "G0l7qwpaS_4l-D86ObrVaQ", "full_address": "Kaiserstr. 110\n76133 Karlsruhe", "hours": {}, "open": true, "categories": ["Dermatologists", "Doctors", "Health & Medical"], "city": "Karlsruhe", "review_count": 5, "name": "Haut\u00e4rzte/Allergologie Robert Adina Figl Figl", "neighborhoods": [], "longitude": 8.3987, "state": "BW", "stars": 3.0, "latitude": 49.0098, "attributes": {}, "type": "business"}
{"business_id": "qGYtcAOItY3ys7CdZ-Q4xA", "full_address": "Amalienstr. 14b\n76131 Karlsruhe", "hours": {}, "open": true, "categories": ["Doctors", "Health & Medical", "Obstetricians & Gynecologists"], "city": "Karlsruhe", "review_count": 3, "name": "Frauenarztpraxis Leokadia Seidler", "neighborhoods": [], "longitude": 8.39506, "state": "BW", "stars": 4.5, "latitude": 49.0078, "attributes": {}, "type": "business"}
{"business_id": "_sWP2LkDml6bE9nKB3MUPg", "full_address": "Kaiserstra\u00dfe 215\n76133 Karlsruhe", "hours": {"Friday": {"close": "00:00", "open": "00:00"}, "Tuesday": {"close": "17:30", "open": "14:30"}, "Thursday": {"close": "17:30", "open": "14:30"}, "Wednesday": {"close": "00:00", "open": "00:00"}, "Monday": {"close": "17:30", "open": "14:30"}}, "open": true, "categories": ["Dermatologists", "Doctors", "Allergists", "Health & Medical"], "city": "Karlsruhe", "review_count": 6, "name": "Drs. Fritz O\u00dfwald, Ina Reitenbach-Blindt, Franz Schwan, David", "neighborhoods": [], "longitude": 8.39524, "state": "BW", "stars": 5.0, "latitude": 49.00978, "attributes": {"By Appointment Only": false, "Wheelchair Accessible": true, "Parking": {"garage": false, "validated": false, "street": false, "lot": false, "valet": false}}, "type": "business"}
{"business_id": "qhu-hCLlRiqoJ5du775oig", "full_address": "Sophienstr. 53\n76133 Karlsruhe", "hours": {}, "open": true, "categories": ["Doctors", "Health & Medical", "Family Practice"], "city": "Karlsruhe", "review_count": 3, "name": "Dr. med. Beate Weinschenk", "neighborhoods": [], "longitude": 8.38963, "state": "BW", "stars": 5.0, "latitude": 49.0074, "attributes": {}, "type": "business"}
{"business_id": "KVwqBtoJM4Bzzv4r1mKJSA", "full_address": "Hirschstr. 105\n76137 Karlsruhe", "hours": {}, "open": true, "categories": ["Doctors", "Orthopedists", "Health & Medical"], "city": "Karlsruhe", "review_count": 5, "name": "Facharzt f\u00fcr Orthop\u00e4die und Sportmedizin Wolfgang Krentel", "neighborhoods": [], "longitude": 8.39065, "state": "BW", "stars": 3.5, "latitude": 48.9995, "attributes": {"Wheelchair Accessible": false, "Parking": {"garage": false, "validated": false, "street": false, "lot": false, "valet": false}}, "type": "business"}
{"business_id": "RdWxr1GAp-BrK25nNRMS6Q", "full_address": "Georg-Friedrich-Str. 24\n76131 Karlsruhe", "hours": {}, "open": true, "categories": ["Dermatologists", "Doctors", "Ear Nose & Throat", "Health & Medical"], "city": "Karlsruhe", "review_count": 3, "name": "Dr. med. Wilfried Pfitzer", "neighborhoods": [], "longitude": 8.42355, "state": "BW", "stars": 4.5, "latitude": 49.0094, "attributes": {}, "type": "business"}
{"business_id": "7KaHhijkGVTvCBZ1hlV9Bw", "full_address": "Kriegsstr. 140\n76133 Karlsruhe", "hours": {}, "open": true, "categories": ["Doctors", "Health & Medical", "Internal Medicine"], "city": "Karlsruhe", "review_count": 3, "name": "Internisten Endokrinologische Praxis Carlo Sebastian Varma Zink", "neighborhoods": [], "longitude": 8.39421, "state": "BW", "stars": 2.5, "latitude": 49.0057, "attributes": {"Parking": {"garage": false, "validated": false, "street": false, "lot": false, "valet": false}}, "type": "business"}
{"business_id": "_De17jwK6Frt8stTulbEeA", "full_address": "B\u00e4renweg\n76149 Karlsruhe", "hours": {}, "open": true, "categories": ["Doctors", "Health & Medical", "Obstetricians & Gynecologists"], "city": "Karlsruhe", "review_count": 3, "name": "Dr. Nelis", "neighborhoods": [], "longitude": 8.3787081, "state": "BW", "stars": 3.5, "latitude": 49.0469655, "attributes": {}, "type": "business"}
{"business_id": "EUoTIMnoHlN3pov3E2ICWw", "full_address": "Weinweg 16\n76131 Karlsruhe", "hours": {}, "open": true, "categories": ["Dentists", "Doctors", "Health & Medical"], "city": "Karlsruhe", "review_count": 3, "name": "Rudolf Pacner", "neighborhoods": [], "longitude": 8.44524, "state": "BW", "stars": 4.0, "latitude": 49.0098, "attributes": {}, "type": "business"}
{"business_id": "D5fZo7NO8JOAu5icizIf-A", "full_address": "Kriegsstr. 140\n76133 Karlsruhe", "hours": {}, "open": true, "categories": ["Doctors", "Ear Nose & Throat", "Health & Medical"], "city": "Karlsruhe", "review_count": 3, "name": "Dr. med. Martin Spreng", "neighborhoods": [], "longitude": 8.39429, "state": "BW", "stars": 5.0, "latitude": 49.0056, "attributes": {}, "type": "business"}
{"business_id": "Z6Sn4cSiFt5Fw4aznUjJsA", "full_address": "B\u00fcrgerstr. 16\nauch Karlsstr. 23\n76133 Karlsruhe", "hours": {}, "open": true, "categories": ["Doctors", "Ear Nose & Throat", "Health & Medical"], "city": "Karlsruhe", "review_count": 3, "name": "HNO-Praxis Andreas Scherer", "neighborhoods": [], "longitude": 8.393843, "state": "BW", "stars": 5.0, "latitude": 49.0067498, "attributes": {"Parking": {"garage": false, "validated": false, "street": false, "lot": false, "valet": false}}, "type": "business"}
{"business_id": "4jx3VMVyPW1gL_yoHcGSQw", "full_address": "Erzbergerstr. 131\n76149 Karlsruhe", "hours": {}, "open": true, "categories": ["Doctors", "Health & Medical", "Naturopathic/Holistic"], "city": "Karlsruhe", "review_count": 3, "name": "Stefan Mathias Fuchs", "neighborhoods": [], "longitude": 8.38622, "state": "BW", "stars": 4.5, "latitude": 49.028, "attributes": {}, "type": "business"}
{"business_id": "oDGCwoW6WLbt9_XcY0p-2A", "full_address": "Stephanienstr. 96\n76133 Karlsruhe", "hours": {}, "open": true, "categories": ["Shopping", "Doctors", "Health & Medical", "Eyewear & Opticians"], "city": "Karlsruhe", "review_count": 3, "name": "Dr. med. Thomas Kohm", "neighborhoods": [], "longitude": 8.38877, "state": "BW", "stars": 3.0, "latitude": 49.0107, "attributes": {}, "type": "business"}
{"business_id": "96DyV1HhsRRPkFIN4zfzPQ", "full_address": "Karlstr. 29\n76133 Karlsruhe", "hours": {"Friday": {"close": "12:30", "open": "08:00"}, "Tuesday": {"close": "17:30", "open": "14:00"}, "Thursday": {"close": "18:00", "open": "14:00"}, "Wednesday": {"close": "14:00", "open": "08:00"}, "Monday": {"close": "17:30", "open": "14:00"}}, "open": true, "categories": ["Doctors", "Ophthalmologists", "Health & Medical"], "city": "Karlsruhe", "review_count": 11, "name": "Dr. Stephan Kaut", "neighborhoods": [], "longitude": 8.39517480535322, "state": "BW", "stars": 4.0, "latitude": 49.0075256107311, "attributes": {"Accepts Credit Cards": true, "Wheelchair Accessible": true}, "type": "business"}
{"business_id": "FMozaZuEJ43v_aWue6hkSQ", "full_address": "Nowackanlage 15-17\n76137 Karlsruhe", "hours": {}, "open": true, "categories": ["Shopping", "Doctors", "Health & Medical", "Eyewear & Opticians"], "city": "Karlsruhe", "review_count": 3, "name": "Dr. med. Annegret Schumacher", "neighborhoods": [], "longitude": 8.40426, "state": "BW", "stars": 1.0, "latitude": 49.003, "attributes": {"Price Range": 4}, "type": "business"}
{"business_id": "PfjEZGICY_QNZAQolVDncw", "full_address": "Orthop\u00e4dische Gemeinschaft am Ludwigsplatz\nWaldstr. 67\n76133 Karlsruhe", "hours": {}, "open": true, "categories": ["Doctors", "Orthopedists", "Health & Medical", "Chiropractors"], "city": "Karlsruhe", "review_count": 5, "name": "Dr. med. Oliver Frerking", "neighborhoods": [], "longitude": 8.39616, "state": "BW", "stars": 3.0, "latitude": 49.0092, "attributes": {"By Appointment Only": false}, "type": "business"}
{"business_id": "7J75VLZKDJhCypKjUAcFXQ", "full_address": "Leopoldstr. 40\n76275 Ettlingen", "hours": {}, "open": true, "categories": ["Dermatologists", "Doctors", "Health & Medical", "Internal Medicine"], "city": "Ettlingen", "review_count": 3, "name": "Dr. med. Andreas Kist", "neighborhoods": [], "longitude": 8.40789, "state": "BW", "stars": 3.5, "latitude": 48.94011, "attributes": {"Wheelchair Accessible": true, "Parking": {"garage": false, "validated": false, "street": false, "lot": false, "valet": false}}, "type": "business"}
{"business_id": "TdFHwzPd5Ah_maA-kYktHw", "full_address": "Wilhelmstr. 1\n76275 Ettlingen", "hours": {}, "open": true, "categories": ["Neurologist", "Doctors", "Health & Medical", "Physical Therapy", "Psychiatrists"], "city": "Ettlingen", "review_count": 3, "name": "Dr. med. Bernhard Kopp", "neighborhoods": [], "longitude": 8.41062, "state": "BW", "stars": 4.5, "latitude": 48.939, "attributes": {}, "type": "business"}
{"business_id": "Jd8dJj7xYvDlQIBPh4OAjQ", "full_address": "Gerwigstr. 6\n76131 Karlsruhe", "hours": {}, "open": true, "categories": ["Doctors", "Health & Medical", "Family Practice"], "city": "Karlsruhe", "review_count": 4, "name": "Wolfgang Gabriele Calmbach Wiedenmann-Calmbach", "neighborhoods": [], "longitude": 8.42414, "state": "BW", "stars": 4.0, "latitude": 49.0094, "attributes": {"Wheelchair Accessible": false}, "type": "business"}
{"business_id": "yszLaYWs06eEc2ZcsK02aQ", "full_address": "Rheinstra\u00dfe  43\n76185 Karlsruhe", "hours": {"Monday": {"close": "18:00", "open": "15:00"}, "Tuesday": {"close": "18:00", "open": "15:00"}, "Friday": {"close": "18:00", "open": "15:00"}, "Wednesday": {"close": "18:00", "open": "15:00"}, "Thursday": {"close": "18:00", "open": "14:00"}, "Saturday": {"close": "00:00", "open": "00:00"}}, "open": true, "categories": ["Doctors", "Health & Medical", "Podiatrists"], "city": "Karlsruhe", "review_count": 3, "name": "Praxis f\u00fcr Fachfu\u00dfpflege", "neighborhoods": [], "longitude": 8.3611818, "state": "BW", "stars": 5.0, "latitude": 49.011065, "attributes": {"Wheelchair Accessible": true, "Parking": {"garage": false, "validated": false, "street": false, "lot": false, "valet": false}}, "type": "business"}
{"business_id": "6XLGrli77rWeukOsOJsVqA", "full_address": "Osteopathie & Naturheilkunde Praxis\nMoltkestr. 90\n76133 Karlsruhe", "hours": {"Tuesday": {"close": "20:00", "open": "16:00"}, "Friday": {"close": "16:00", "open": "10:00"}, "Wednesday": {"close": "20:00", "open": "10:00"}, "Thursday": {"close": "20:00", "open": "10:00"}}, "open": true, "categories": ["Doctors", "Health & Medical", "Osteopathic Physicians"], "city": "Karlsruhe", "review_count": 3, "name": "Klaus Czepan", "neighborhoods": [], "longitude": 8.3717205, "state": "BW", "stars": 4.5, "latitude": 49.0174215, "attributes": {"Accepts Credit Cards": false, "Wheelchair Accessible": true, "Parking": {"garage": false, "validated": false, "street": false, "lot": false, "valet": false}}, "type": "business"}
{"business_id": "G0l7qwpaS_4l-D86ObrVaQ", "full_address": "Kaiserstr. 110\n76133 Karlsruhe", "hours": {}, "open": true, "categories": ["Dermatologists", "Doctors", "Health & Medical"], "city": "Karlsruhe", "review_count": 5, "name": "Haut\u00e4rzte/Allergologie Robert Adina Figl Figl", "neighborhoods": [], "longitude": 8.3987, "state": "BW", "stars": 3.0, "latitude": 49.0098, "attributes": {}, "type": "business"}
{"business_id": "qGYtcAOItY3ys7CdZ-Q4xA", "full_address": "Amalienstr. 14b\n76131 Karlsruhe", "hours": {}, "open": true, "categories": ["Doctors", "Health & Medical", "Obstetricians & Gynecologists"], "city": "Karlsruhe", "review_count": 3, "name": "Frauenarztpraxis Leokadia Seidler", "neighborhoods": [], "longitude": 8.39506, "state": "BW", "stars": 4.5, "latitude": 49.0078, "attributes": {}, "type": "business"}
{"business_id": "_sWP2LkDml6bE9nKB3MUPg", "full_address": "Kaiserstra\u00dfe 215\n76133 Karlsruhe", "hours": {"Friday": {"close": "00:00", "open": "00:00"}, "Tuesday": {"close": "17:30", "open": "14:30"}, "Thursday": {"close": "17:30", "open": "14:30"}, "Wednesday": {"close": "00:00", "open": "00:00"}, "Monday": {"close": "17:30", "open": "14:30"}}, "open": true, "categories": ["Dermatologists", "Doctors", "Allergists", "Health & Medical"], "city": "Karlsruhe", "review_count": 6, "name": "Drs. Fritz O\u00dfwald, Ina Reitenbach-Blindt, Franz Schwan, David", "neighborhoods": [], "longitude": 8.39524, "state": "BW", "stars": 5.0, "latitude": 49.00978, "attributes": {"By Appointment Only": false, "Wheelchair Accessible": true, "Parking": {"garage": false, "validated": false, "street": false, "lot": false, "valet": false}}, "type": "business"}
{"business_id": "qhu-hCLlRiqoJ5du775oig", "full_address": "Sophienstr. 53\n76133 Karlsruhe", "hours": {}, "open": true, "categories": ["Doctors", "Health & Medical", "Family Practice"], "city": "Karlsruhe", "review_count": 3, "name": "Dr. med. Beate Weinschenk", "neighborhoods": [], "longitude": 8.38963, "state": "BW", "stars": 5.0, "latitude": 49.0074, "attributes": {}, "type": "business"}
{"business_id": "KVwqBtoJM4Bzzv4r1mKJSA", "full_address": "Hirschstr. 105\n76137 Karlsruhe", "hours": {}, "open": true, "categories": ["Doctors", "Orthopedists", "Health & Medical"], "city": "Karlsruhe", "review_count": 5, "name": "Facharzt f\u00fcr Orthop\u00e4die und Sportmedizin Wolfgang Krentel", "neighborhoods": [], "longitude": 8.39065, "state": "BW", "stars": 3.5, "latitude": 48.9995, "attributes": {"Wheelchair Accessible": false, "Parking": {"garage": false, "validated": false, "street": false, "lot": false, "valet": false}}, "type": "business"}
{"business_id": "RdWxr1GAp-BrK25nNRMS6Q", "full_address": "Georg-Friedrich-Str. 24\n76131 Karlsruhe", "hours": {}, "open": true, "categories": ["Dermatologists", "Doctors", "Ear Nose & Throat", "Health & Medical"], "city": "Karlsruhe", "review_count": 3, "name": "Dr. med. Wilfried Pfitzer", "neighborhoods": [], "longitude": 8.42355, "state": "BW", "stars": 4.5, "latitude": 49.0094, "attributes": {}, "type": "business"}
{"business_id": "7KaHhijkGVTvCBZ1hlV9Bw", "full_address": "Kriegsstr. 140\n76133 Karlsruhe", "hours": {}, "open": true, "categories": ["Doctors", "Health & Medical", "Internal Medicine"], "city": "Karlsruhe", "review_count": 3, "name": "Internisten Endokrinologische Praxis Carlo Sebastian Varma Zink", "neighborhoods": [], "longitude": 8.39421, "state": "BW", "stars": 2.5, "latitude": 49.0057, "attributes": {"Parking": {"garage": false, "validated": false, "street": false, "lot": false, "valet": false}}, "type": "business"}
{"business_id": "_De17jwK6Frt8stTulbEeA", "full_address": "B\u00e4renweg\n76149 Karlsruhe", "hours": {}, "open": true, "categories": ["Doctors", "Health & Medical", "Obstetricians & Gynecologists"], "city": "Karlsruhe", "review_count": 3, "name": "Dr. Nelis", "neighborhoods": [], "longitude": 8.3787081, "state": "BW", "stars": 3.5, "latitude": 49.0469655, "attributes": {}, "type": "business"}
{"business_id": "EUoTIMnoHlN3pov3E2ICWw", "full_address": "Weinweg 16\n76131 Karlsruhe", "hours": {}, "open": true, "categories": ["Dentists", "Doctors", "Health & Medical"], "city": "Karlsruhe", "review_count": 3, "name": "Rudolf Pacner", "neighborhoods": [], "longitude": 8.44524, "state": "BW", "stars": 4.0, "latitude": 49.0098, "attributes": {}, "type": "business"}
{"business_id": "D5fZo7NO8JOAu5icizIf-A", "full_address": "Kriegsstr. 140\n76133 Karlsruhe", "hours": {}, "open": true, "categories": ["Doctors", "Ear Nose & Throat", "Health & Medical"], "city": "Karlsruhe", "review_count": 3, "name": "Dr. med. Martin Spreng", "neighborhoods": [], "longitude": 8.39429, "state": "BW", "stars": 5.0, "latitude": 49.0056, "attributes": {}, "type": "business"}
{"business_id": "Z6Sn4cSiFt5Fw4aznUjJsA", "full_address": "B\u00fcrgerstr. 16\nauch Karlsstr. 23\n76133 Karlsruhe", "hours": {}, "open": true, "categories": ["Doctors", "Ear Nose & Throat", "Health & Medical"], "city": "Karlsruhe", "review_count": 3, "name": "HNO-Praxis Andreas Scherer", "neighborhoods": [], "longitude": 8.393843, "state": "BW", "stars": 5.0, "latitude": 49.0067498, "attributes": {"Parking": {"garage": false, "validated": false, "street": false, "lot": false, "valet": false}}, "type": "business"}
{"business_id": "4jx3VMVyPW1gL_yoHcGSQw", "full_address": "Erzbergerstr. 131\n76149 Karlsruhe", "hours": {}, "open": true, "categories": ["Doctors", "Health & Medical", "Naturopathic/Holistic"], "city": "Karlsruhe", "review_count": 3, "name": "Stefan Mathias Fuchs", "neighborhoods": [], "longitude": 8.38622, "state": "BW", "stars": 4.5, "latitude": 49.028, "attributes": {}, "type": "business"}
{"business_id": "oDGCwoW6WLbt9_XcY0p-2A", "full_address": "Stephanienstr. 96\n76133 Karlsruhe", "hours": {}, "open": true, "categories": ["Shopping", "Doctors", "Health & Medical", "Eyewear & Opticians"], "city": "Karlsruhe", "review_count": 3, "name": "Dr. med. Thomas Kohm", "neighborhoods": [], "longitude": 8.38877, "state": "BW", "stars": 3.0, "latitude": 49.0107, "attributes": {}, "type": "business"}
{"business_id": "96DyV1HhsRRPkFIN4zfzPQ", "full_address": "Karlstr. 29\n76133 Karlsruhe", "hours": {"Friday": {"close": "12:30", "open": "08:00"}, "Tuesday": {"close": "17:30", "open": "14:00"}, "Thursday": {"close": "18:00", "open": "14:00"}, "Wednesday": {"close": "14:00", "open": "08:00"}, "Monday": {"close": "17:30", "open": "14:00"}}, "open": true, "categories": ["Doctors", "Ophthalmologists", "Health & Medical"], "city": "Karlsruhe", "review_count": 11, "name": "Dr. Stephan Kaut", "neighborhoods": [], "longitude": 8.39517480535322, "state": "BW", "stars": 4.0, "latitude": 49.0075256107311, "attributes": {"Accepts Credit Cards": true, "Wheelchair Accessible": true}, "type": "business"}
{"business_id": "FMozaZuEJ43v_aWue6hkSQ", "full_address": "Nowackanlage 15-17\n76137 Karlsruhe", "hours": {}, "open": true, "categories": ["Shopping", "Doctors", "Health & Medical", "Eyewear & Opticians"], "city": "Karlsruhe", "review_count": 3, "name": "Dr. med. Annegret Schumacher", "neighborhoods": [], "longitude": 8.40426, "state": "BW", "stars": 1.0, "latitude": 49.003, "attributes": {"Price Range": 4}, "type": "business"}
{"business_id": "PfjEZGICY_QNZAQolVDncw", "full_address": "Orthop\u00e4dische Gemeinschaft am Ludwigsplatz\nWaldstr. 67\n76133 Karlsruhe", "hours": {}, "open": true, "categories": ["Doctors", "Orthopedists", "Health & Medical", "Chiropractors"], "city": "Karlsruhe", "review_count": 5, "name": "Dr. med. Oliver Frerking", "neighborhoods": [], "longitude": 8.39616, "state": "BW", "stars": 3.0, "latitude": 49.0092, "attributes": {"By Appointment Only": false}, "type": "business"}
{"business_id": "7J75VLZKDJhCypKjUAcFXQ", "full_address": "Leopoldstr. 40\n76275 Ettlingen", "hours": {}, "open": true, "categories": ["Dermatologists", "Doctors", "Health & Medical", "Internal Medicine"], "city": "Ettlingen", "review_count": 3, "name": "Dr. med. Andreas Kist", "neighborhoods": [], "longitude": 8.40789, "state": "BW", "stars": 3.5, "latitude": 48.94011, "attributes": {"Wheelchair Accessible": true, "Parking": {"garage": false, "validated": false, "street": false, "lot": false, "valet": false}}, "type": "business"}
{"business_id": "TdFHwzPd5Ah_maA-kYktHw", "full_address": "Wilhelmstr. 1\n76275 Ettlingen", "hours": {}, "open": true, "categories": ["Neurologist", "Doctors", "Health & Medical", "Physical Therapy", "Psychiatrists"], "city": "Ettlingen", "review_count": 3, "name": "Dr. med. Bernhard Kopp", "neighborhoods": [], "longitude": 8.41062, "state": "BW", "stars": 4.5, "latitude": 48.939, "attributes": {}, "type": "business"}
{"business_id": "Jd8dJj7xYvDlQIBPh4OAjQ", "full_address": "Gerwigstr. 6\n76131 Karlsruhe", "hours": {}, "open": true, "categories": ["Doctors", "Health & Medical", "Family Practice"], "city": "Karlsruhe", "review_count": 4, "name": "Wolfgang Gabriele Calmbach Wiedenmann-Calmbach", "neighborhoods": [], "longitude": 8.42414, "state": "BW", "stars": 4.0, "latitude": 49.0094, "attributes": {"Wheelchair Accessible": false}, "type": "business"}
{"business_id": "yszLaYWs06eEc2ZcsK02aQ", "full_address": "Rheinstra\u00dfe  43\n76185 Karlsruhe", "hours": {"Monday": {"close": "18:00", "open": "15:00"}, "Tuesday": {"close": "18:00", "open": "15:00"}, "Friday": {"close": "18:00", "open": "15:00"}, "Wednesday": {"close": "18:00", "open": "15:00"}, "Thursday": {"close": "18:00", "open": "14:00"}, "Saturday": {"close": "00:00", "open": "00:00"}}, "open": true, "categories": ["Doctors", "Health & Medical", "Podiatrists"], "city": "Karlsruhe", "review_count": 3, "name": "Praxis f\u00fcr Fachfu\u00dfpflege", "neighborhoods": [], "longitude": 8.3611818, "state": "BW", "stars": 5.0, "latitude": 49.011065, "attributes": {"Wheelchair Accessible": true, "Parking": {"garage": false, "validated": false, "street": false, "lot": false, "valet": false}}, "type": "business"}
{"business_id": "6XLGrli77rWeukOsOJsVqA", "full_address": "Osteopathie & Naturheilkunde Praxis\nMoltkestr. 90\n76133 Karlsruhe", "hours": {"Tuesday": {"close": "20:00", "open": "16:00"}, "Friday": {"close": "16:00", "open": "10:00"}, "Wednesday": {"close": "20:00", "open": "10:00"}, "Thursday": {"close": "20:00", "open": "10:00"}}, "open": true, "categories": ["Doctors", "Health & Medical", "Osteopathic Physicians"], "city": "Karlsruhe", "review_count": 3, "name": "Klaus Czepan", "neighborhoods": [], "longitude": 8.3717205, "state": "BW", "stars": 4.5, "latitude": 49.0174215, "attributes": {"Accepts Credit Cards": false, "Wheelchair Accessible": true, "Parking": {"garage": false, "validated": false, "street": false, "lot": false, "valet": false}}, "type": "business"}
{"business_id": "G0l7qwpaS_4l-D86ObrVaQ", "full_address": "Kaiserstr. 110\n76133 Karlsruhe", "hours": {}, "open": true, "categories": ["Dermatologists", "Doctors", "Health & Medical"], "city": "Karlsruhe", "review_count": 5, "name": "Haut\u00e4rzte/Allergologie Robert Adina Figl Figl", "neighborhoods": [], "longitude": 8.3987, "state": "BW", "stars": 3.0, "latitude": 49.0098, "attributes": {}, "type": "business"}
{"business_id": "qGYtcAOItY3ys7CdZ-Q4xA", "full_address": "Amalienstr. 14b\n76131 Karlsruhe", "hours": {}, "open": true, "categories": ["Doctors", "Health & Medical", "Obstetricians & Gynecologists"], "city": "Karlsruhe", "review_count": 3, "name": "Frauenarztpraxis Leokadia Seidler", "neighborhoods": [], "longitude": 8.39506, "state": "BW", "stars": 4.5, "latitude": 49.0078, "attributes": {}, "type": "business"}
{"business_id": "_sWP2LkDml6bE9nKB3MUPg", "full_address": "Kaiserstra\u00dfe 215\n76133 Karlsruhe", "hours": {"Friday": {"close": "00:00", "open": "00:00"}, "Tuesday": {"close": "17:30", "open": "14:30"}, "Thursday": {"close": "17:30", "open": "14:30"}, "Wednesday": {"close": "00:00", "open": "00:00"}, "Monday": {"close": "17:30", "open": "14:30"}}, "open": true, "categories": ["Dermatologists", "Doctors", "Allergists", "Health & Medical"], "city": "Karlsruhe", "review_count": 6, "name": "Drs. Fritz O\u00dfwald, Ina Reitenbach-Blindt, Franz Schwan, David", "neighborhoods": [], "longitude": 8.39524, "state": "BW", "stars": 5.0, "latitude": 49.00978, "attributes": {"By Appointment Only": false, "Wheelchair Accessible": true, "Parking": {"garage": false, "validated": false, "street": false, "lot": false, "valet": false}}, "type": "business"}
{"business_id": "qhu-hCLlRiqoJ5du775oig", "full_address": "Sophienstr. 53\n76133 Karlsruhe", "hours": {}, "open": true, "categories": ["Doctors", "Health & Medical", "Family Practice"], "city": "Karlsruhe", "review_count": 3, "name": "Dr. med. Beate Weinschenk", "neighborhoods": [], "longitude": 8.38963, "state": "BW", "stars": 5.0, "latitude": 49.0074, "attributes": {}, "type": "business"}
{"business_id": "KVwqBtoJM4Bzzv4r1mKJSA", "full_address": "Hirschstr. 105\n76137 Karlsruhe", "hours": {}, "open": true, "categories": ["Doctors", "Orthopedists", "Health & Medical"], "city": "Karlsruhe", "review_count": 5, "name": "Facharzt f\u00fcr Orthop\u00e4die und Sportmedizin Wolfgang Krentel", "neighborhoods": [], "longitude": 8.39065, "state": "BW", "stars": 3.5, "latitude": 48.9995, "attributes": {"Wheelchair Accessible": false, "Parking": {"garage": false, "validated": false, "street": false, "lot": false, "valet": false}}, "type": "business"}
{"business_id": "RdWxr1GAp-BrK25nNRMS6Q", "full_address": "Georg-Friedrich-Str. 24\n76131 Karlsruhe", "hours": {}, "open": true, "categories": ["Dermatologists", "Doctors", "Ear Nose & Throat", "Health & Medical"], "city": "Karlsruhe", "review_count": 3, "name": "Dr. med. Wilfried Pfitzer", "neighborhoods": [], "longitude": 8.42355, "state": "BW", "stars": 4.5, "latitude": 49.0094, "attributes": {}, "type": "business"}
{"business_id": "7KaHhijkGVTvCBZ1hlV9Bw", "full_address": "Kriegsstr. 140\n76133 Karlsruhe", "hours": {}, "open": true, "categories": ["Doctors", "Health & Medical", "Internal Medicine"], "city": "Karlsruhe", "review_count": 3, "name": "Internisten Endokrinologische Praxis Carlo Sebastian Varma Zink", "neighborhoods": [], "longitude": 8.39421, "state": "BW", "stars": 2.5, "latitude": 49.0057, "attributes": {"Parking": {"garage": false, "validated": false, "street": false, "lot": false, "valet": false}}, "type": "business"}
{"business_id": "_De17jwK6Frt8stTulbEeA", "full_address": "B\u00e4renweg\n76149 Karlsruhe", "hours": {}, "open": true, "categories": ["Doctors", "Health & Medical", "Obstetricians & Gynecologists"], "city": "Karlsruhe", "review_count": 3, "name": "Dr. Nelis", "neighborhoods": [], "longitude": 8.3787081, "state": "BW", "stars": 3.5, "latitude": 49.0469655, "attributes": {}, "type": "business"}
{"business_id": "EUoTIMnoHlN3pov3E2ICWw", "full_address": "Weinweg 16\n76131 Karlsruhe", "hours": {}, "open": true, "categories": ["Dentists", "Doctors", "Health & Medical"], "city": "Karlsruhe", "review_count": 3, "name": "Rudolf Pacner", "neighborhoods": [], "longitude": 8.44524, "state": "BW", "stars": 4.0, "latitude": 49.0098, "attributes": {}, "type": "business"}
{"business_id": "D5fZo7NO8JOAu5icizIf-A", "full_address": "Kriegsstr. 140\n76133 Karlsruhe", "hours": {}, "open": true, "categories": ["Doctors", "Ear Nose & Throat", "Health & Medical"], "city": "Karlsruhe", "review_count": 3, "name": "Dr. med. Martin Spreng", "neighborhoods": [], "longitude": 8.39429, "state": "BW", "stars": 5.0, "latitude": 49.0056, "attributes": {}, "type": "business"}
{"business_id": "Z6Sn4cSiFt5Fw4aznUjJsA", "full_address": "B\u00fcrgerstr. 16\nauch Karlsstr. 23\n76133 Karlsruhe", "hours": {}, "open": true, "categories": ["Doctors", "Ear Nose & Throat", "Health & Medical"], "city": "Karlsruhe", "review_count": 3, "name": "HNO-Praxis Andreas Scherer", "neighborhoods": [], "longitude": 8.393843, "state": "BW", "stars": 5.0, "latitude": 49.0067498, "attributes": {"Parking": {"garage": false, "validated": false, "street": false, "lot": false, "valet": false}}, "type": "business"}
{"business_id": "4jx3VMVyPW1gL_yoHcGSQw", "full_address": "Erzbergerstr. 131\n76149 Karlsruhe", "hours": {}, "open": true, "categories": ["Doctors", "Health & Medical", "Naturopathic/Holistic"], "city": "Karlsruhe", "review_count": 3, "name": "Stefan Mathias Fuchs", "neighborhoods": [], "longitude": 8.38622, "state": "BW", "stars": 4.5, "latitude": 49.028, "attributes": {}, "type": "business"}
{"business_id": "oDGCwoW6WLbt9_XcY0p-2A", "full_address": "Stephanienstr. 96\n76133 Karlsruhe", "hours": {}, "open": true, "categories": ["Shopping", "Doctors", "Health & Medical", "Eyewear & Opticians"], "city": "Karlsruhe", "review_count": 3, "name": "Dr. med. Thomas Kohm", "neighborhoods": [], "longitude": 8.38877, "state": "BW", "stars": 3.0, "latitude": 49.0107, "attributes": {}, "type": "business"}
{"business_id": "96DyV1HhsRRPkFIN4zfzPQ", "full_address": "Karlstr. 29\n76133 Karlsruhe", "hours": {"Friday": {"close": "12:30", "open": "08:00"}, "Tuesday": {"close": "17:30", "open": "14:00"}, "Thursday": {"close": "18:00", "open": "14:00"}, "Wednesday": {"close": "14:00", "open": "08:00"}, "Monday": {"close": "17:30", "open": "14:00"}}, "open": true, "categories": ["Doctors", "Ophthalmologists", "Health & Medical"], "city": "Karlsruhe", "review_count": 11, "name": "Dr. Stephan Kaut", "neighborhoods": [], "longitude": 8.39517480535322, "state": "BW", "stars": 4.0, "latitude": 49.0075256107311, "attributes": {"Accepts Credit Cards": true, "Wheelchair Accessible": true}, "type": "business"}
{"business_id": "FMozaZuEJ43v_aWue6hkSQ", "full_address": "Nowackanlage 15-17\n76137 Karlsruhe", "hours": {}, "open": true, "categories": ["Shopping", "Doctors", "Health & Medical", "Eyewear & Opticians"], "city": "Karlsruhe", "review_count": 3, "name": "Dr. med. Annegret Schumacher", "neighborhoods": [], "longitude": 8.40426, "state": "BW", "stars": 1.0, "latitude": 49.003, "attributes": {"Price Range": 4}, "type": "business"}
{"business_id": "PfjEZGICY_QNZAQolVDncw", "full_address": "Orthop\u00e4dische Gemeinschaft am Ludwigsplatz\nWaldstr. 67\n76133 Karlsruhe", "hours": {}, "open": true, "categories": ["Doctors", "Orthopedists", "Health & Medical", "Chiropractors"], "city": "Karlsruhe", "review_count": 5, "name": "Dr. med. Oliver Frerking", "neighborhoods": [], "longitude": 8.39616, "state": "BW", "stars": 3.0, "latitude": 49.0092, "attributes": {"By Appointment Only": false}, "type": "business"}
{"business_id": "7J75VLZKDJhCypKjUAcFXQ", "full_address": "Leopoldstr. 40\n76275 Ettlingen", "hours": {}, "open": true, "categories": ["Dermatologists", "Doctors", "Health & Medical", "Internal Medicine"], "city": "Ettlingen", "review_count": 3, "name": "Dr. med. Andreas Kist", "neighborhoods": [], "longitude": 8.40789, "state": "BW", "stars": 3.5, "latitude": 48.94011, "attributes": {"Wheelchair Accessible": true, "Parking": {"garage": false, "validated": false, "street": false, "lot": false, "valet": false}}, "type": "business"}
{"business_id": "TdFHwzPd5Ah_maA-kYktHw", "full_address": "Wilhelmstr. 1\n76275 Ettlingen", "hours": {}, "open": true, "categories": ["Neurologist", "Doctors", "Health & Medical", "Physical Therapy", "Psychiatrists"], "city": "Ettlingen", "review_count": 3, "name": "Dr. med. Bernhard Kopp", "neighborhoods": [], "longitude": 8.41062, "state": "BW", "stars": 4.5, "latitude": 48.939, "attributes": {}, "type": "business"}
{"business_id": "Jd8dJj7xYvDlQIBPh4OAjQ", "full_address": "Gerwigstr. 6\n76131 Karlsruhe", "hours": {}, "open": true, "categories": ["Doctors", "Health & Medical", "Family Practice"], "city": "Karlsruhe", "review_count": 4, "name": "Wolfgang Gabriele Calmbach Wiedenmann-Calmbach", "neighborhoods": [], "longitude": 8.42414, "state": "BW", "stars": 4.0, "latitude": 49.0094, "attributes": {"Wheelchair Accessible": false}, "type": "business"}
{"business_id": "yszLaYWs06eEc2ZcsK02aQ", "full_address": "Rheinstra\u00dfe  43\n76185 Karlsruhe", "hours": {"Monday": {"close": "18:00", "open": "15:00"}, "Tuesday": {"close": "18:00", "open": "15:00"}, "Friday": {"close": "18:00", "open": "15:00"}, "Wednesday": {"close": "18:00", "open": "15:00"}, "Thursday": {"close": "18:00", "open": "14:00"}, "Saturday": {"close": "00:00", "open": "00:00"}}, "open": true, "categories": ["Doctors", "Health & Medical", "Podiatrists"], "city": "Karlsruhe", "review_count": 3, "name": "Praxis f\u00fcr Fachfu\u00dfpflege", "neighborhoods": [], "longitude": 8.3611818, "state": "BW", "stars": 5.0, "latitude": 49.011065, "attributes": {"Wheelchair Accessible": true, "Parking": {"garage": false, "validated": false, "street": false, "lot": false, "valet": false}}, "type": "business"}
{"business_id": "6XLGrli77rWeukOsOJsVqA", "full_address": "Osteopathie & Naturheilkunde Praxis\nMoltkestr. 90\n76133 Karlsruhe", "hours": {"Tuesday": {"close": "20:00", "open": "16:00"}, "Friday": {"close": "16:00", "open": "10:00"}, "Wednesday": {"close": "20:00", "open": "10:00"}, "Thursday": {"close": "20:00", "open": "10:00"}}, "open": true, "categories": ["Doctors", "Health & Medical", "Osteopathic Physicians"], "city": "Karlsruhe", "review_count": 3, "name": "Klaus Czepan", "neighborhoods": [], "longitude": 8.3717205, "state": "BW", "stars": 4.5, "latitude": 49.0174215, "attributes": {"Accepts Credit Cards": false, "Wheelchair Accessible": true, "Parking": {"garage": false, "validated": false, "street": false, "lot": false, "valet": false}}, "type": "business"}
{"business_id": "G0l7qwpaS_4l-D86ObrVaQ", "full_address": "Kaiserstr. 110\n76133 Karlsruhe", "hours": {}, "open": true, "categories": ["Dermatologists", "Doctors", "Health & Medical"], "city": "Karlsruhe", "review_count": 5, "name": "Haut\u00e4rzte/Allergologie Robert Adina Figl Figl", "neighborhoods": [], "longitude": 8.3987, "state": "BW", "stars": 3.0, "latitude": 49.0098, "attributes": {}, "type": "business"}
{"business_id": "qGYtcAOItY3ys7CdZ-Q4xA", "full_address": "Amalienstr. 14b\n76131 Karlsruhe", "hours": {}, "open": true, "categories": ["Doctors", "Health & Medical", "Obstetricians & Gynecologists"], "city": "Karlsruhe", "review_count": 3, "name": "Frauenarztpraxis Leokadia Seidler", "neighborhoods": [], "longitude": 8.39506, "state": "BW", "stars": 4.5, "latitude": 49.0078, "attributes": {}, "type": "business"}
{"business_id": "_sWP2LkDml6bE9nKB3MUPg", "full_address": "Kaiserstra\u00dfe 215\n76133 Karlsruhe", "hours": {"Friday": {"close": "00:00", "open": "00:00"}, "Tuesday": {"close": "17:30", "open": "14:30"}, "Thursday": {"close": "17:30", "open": "14:30"}, "Wednesday": {"close": "00:00", "open": "00:00"}, "Monday": {"close": "17:30", "open": "14:30"}}, "open": true, "categories": ["Dermatologists", "Doctors", "Allergists", "Health & Medical"], "city": "Karlsruhe", "review_count": 6, "name": "Drs. Fritz O\u00dfwald, Ina Reitenbach-Blindt, Franz Schwan, David", "neighborhoods": [], "longitude": 8.39524, "state": "BW", "stars": 5.0, "latitude": 49.00978, "attributes": {"By Appointment Only": false, "Wheelchair Accessible": true, "Parking": {"garage": false, "validated": false, "street": false, "lot": false, "valet": false}}, "type": "business"}
{"business_id": "qhu-hCLlRiqoJ5du775oig", "full_address": "Sophienstr. 53\n76133 Karlsruhe", "hours": {}, "open": true, "categories": ["Doctors", "Health & Medical", "Family Practice"], "city": "Karlsruhe", "review_count": 3, "name": "Dr. med. Beate Weinschenk", "neighborhoods": [], "longitude": 8.38963, "state": "BW", "stars": 5.0, "latitude": 49.0074, "attributes": {}, "type": "business"}
{"business_id": "KVwqBtoJM4Bzzv4r1mKJSA", "full_address": "Hirschstr. 105\n76137 Karlsruhe", "hours": {}, "open": true, "categories": ["Doctors", "Orthopedists", "Health & Medical"], "city": "Karlsruhe", "review_count": 5, "name": "Facharzt f\u00fcr Orthop\u00e4die und Sportmedizin Wolfgang Krentel", "neighborhoods": [], "longitude": 8.39065, "state": "BW", "stars": 3.5, "latitude": 48.9995, "attributes": {"Wheelchair Accessible": false, "Parking": {"garage": false, "validated": false, "street": false, "lot": false, "valet": false}}, "type": "business"}
{"business_id": "RdWxr1GAp-BrK25nNRMS6Q", "full_address": "Georg-Friedrich-Str. 24\n76131 Karlsruhe", "hours": {}, "open": true, "categories": ["Dermatologists", "Doctors", "Ear Nose & Throat", "Health & Medical"], "city": "Karlsruhe", "review_count": 3, "name": "Dr. med. Wilfried Pfitzer", "neighborhoods": [], "longitude": 8.42355, "state": "BW", "stars": 4.5, "latitude": 49.0094, "attributes": {}, "type": "business"}
{"business_id": "7KaHhijkGVTvCBZ1hlV9Bw", "full_address": "Kriegsstr. 140\n76133 Karlsruhe", "hours": {}, "open": true, "categories": ["Doctors", "Health & Medical", "Internal Medicine"], "city": "Karlsruhe", "review_count": 3, "name": "Internisten Endokrinologische Praxis Carlo Sebastian Varma Zink", "neighborhoods": [], "longitude": 8.39421, "state": "BW", "stars": 2.5, "latitude": 49.0057, "attributes": {"Parking": {"garage": false, "validated": false, "street": false, "lot": false, "valet": false}}, "type": "business"}
{"business_id": "_De17jwK6Frt8stTulbEeA", "full_address": "B\u00e4renweg\n76149 Karlsruhe", "hours": {}, "open": true, "categories": ["Doctors", "Health & Medical", "Obstetricians & Gynecologists"], "city": "Karlsruhe", "review_count": 3, "name": "Dr. Nelis", "neighborhoods": [], "longitude": 8.3787081, "state": "BW", "stars": 3.5, "latitude": 49.0469655, "attributes": {}, "type": "business"}
{"business_id": "EUoTIMnoHlN3pov3E2ICWw", "full_address": "Weinweg 16\n76131 Karlsruhe", "hours": {}, "open": true, "categories": ["Dentists", "Doctors", "Health & Medical"], "city": "Karlsruhe", "review_count": 3, "name": "Rudolf Pacner", "neighborhoods": [], "longitude": 8.44524, "state": "BW", "stars": 4.0, "latitude": 49.0098, "attributes": {}, "type": "business"}
{"business_id": "D5fZo7NO8JOAu5icizIf-A", "full_address": "Kriegsstr. 140\n76133 Karlsruhe", "hours": {}, "open": true, "categories": ["Doctors", "Ear Nose & Throat", "Health & Medical"], "city": "Karlsruhe", "review_count": 3, "name": "Dr. med. Martin Spreng", "neighborhoods": [], "longitude": 8.39429, "state": "BW", "stars": 5.0, "latitude": 49.0056, "attributes": {}, "type": "business"}
{"business_id": "Z6Sn4cSiFt5Fw4aznUjJsA", "full_address": "B\u00fcrgerstr. 16\nauch Karlsstr. 23\n76133 Karlsruhe", "hours": {}, "open": true, "categories": ["Doctors", "Ear Nose & Throat", "Health & Medical"], "city": "Karlsruhe", "review_count": 3, "name": "HNO-Praxis Andreas Scherer", "neighborhoods": [], "longitude": 8.393843, "state": "BW", "stars": 5.0, "latitude": 49.0067498, "attributes": {"Parking": {"garage": false, "validated": false, "street": false, "lot": false, "valet": false}}, "type": "business"}
{"business_id": "4jx3VMVyPW1gL_yoHcGSQw", "full_address": "Erzbergerstr. 131\n76149 Karlsruhe", "hours": {}, "open": true, "categories": ["Doctors", "Health & Medical", "Naturopathic/Holistic"], "city": "Karlsruhe", "review_count": 3, "name": "Stefan Mathias Fuchs", "neighborhoods": [], "longitude": 8.38622, "state": "BW", "stars": 4.5, "latitude": 49.028, "attributes": {}, "type": "business"}
{"business_id": "oDGCwoW6WLbt9_XcY0p-2A", "full_address": "Stephanienstr. 96\n76133 Karlsruhe", "hours": {}, "open": true, "categories": ["Shopping", "Doctors", "Health & Medical", "Eyewear & Opticians"], "city": "Karlsruhe", "review_count": 3, "name": "Dr. med. Thomas Kohm", "neighborhoods": [], "longitude": 8.38877, "state": "BW", "stars": 3.0, "latitude": 49.0107, "attributes": {}, "type": "business"}
{"business_id": "96DyV1HhsRRPkFIN4zfzPQ", "full_address": "Karlstr. 29\n76133 Karlsruhe", "hours": {"Friday": {"close": "12:30", "open": "08:00"}, "Tuesday": {"close": "17:30", "open": "14:00"}, "Thursday": {"close": "18:00", "open": "14:00"}, "Wednesday": {"close": "14:00", "open": "08:00"}, "Monday": {"close": "17:30", "open": "14:00"}}, "open": true, "categories": ["Doctors", "Ophthalmologists", "Health & Medical"], "city": "Karlsruhe", "review_count": 11, "name": "Dr. Stephan Kaut", "neighborhoods": [], "longitude": 8.39517480535322, "state": "BW", "stars": 4.0, "latitude": 49.0075256107311, "attributes": {"Accepts Credit Cards": true, "Wheelchair Accessible": true}, "type": "business"}
{"business_id": "FMozaZuEJ43v_aWue6hkSQ", "full_address": "Nowackanlage 15-17\n76137 Karlsruhe", "hours": {}, "open": true, "categories": ["Shopping", "Doctors", "Health & Medical", "Eyewear & Opticians"], "city": "Karlsruhe", "review_count": 3, "name": "Dr. med. Annegret Schumacher", "neighborhoods": [], "longitude": 8.40426, "state": "BW", "stars": 1.0, "latitude": 49.003, "attributes": {"Price Range": 4}, "type": "business"}
{"business_id": "PfjEZGICY_QNZAQolVDncw", "full_address": "Orthop\u00e4dische Gemeinschaft am Ludwigsplatz\nWaldstr. 67\n76133 Karlsruhe", "hours": {}, "open": true, "categories": ["Doctors", "Orthopedists", "Health & Medical", "Chiropractors"], "city": "Karlsruhe", "review_count": 5, "name": "Dr. med. Oliver Frerking", "neighborhoods": [], "longitude": 8.39616, "state": "BW", "stars": 3.0, "latitude": 49.0092, "attributes": {"By Appointment Only": false}, "type": "business"}
{"business_id": "7J75VLZKDJhCypKjUAcFXQ", "full_address": "Leopoldstr. 40\n76275 Ettlingen", "hours": {}, "open": true, "categories": ["Dermatologists", "Doctors", "Health & Medical", "Internal Medicine"], "city": "Ettlingen", "review_count": 3, "name": "Dr. med. Andreas Kist", "neighborhoods": [], "longitude": 8.40789, "state": "BW", "stars": 3.5, "latitude": 48.94011, "attributes": {"Wheelchair Accessible": true, "Parking": {"garage": false, "validated": false, "street": false, "lot": false, "valet": false}}, "type": "business"}
{"business_id": "TdFHwzPd5Ah_maA-kYktHw", "full_address": "Wilhelmstr. 1\n76275 Ettlingen", "hours": {}, "open": true, "categories": ["Neurologist", "Doctors", "Health & Medical", "Physical Therapy", "Psychiatrists"], "city": "Ettlingen", "review_count": 3, "name": "Dr. med. Bernhard Kopp", "neighborhoods": [], "longitude": 8.41062, "state": "BW", "stars": 4.5, "latitude": 48.939, "attributes": {}, "type": "business"}
{"business_id": "Jd8dJj7xYvDlQIBPh4OAjQ", "full_address": "Gerwigstr. 6\n76131 Karlsruhe", "hours": {}, "open": true, "categories": ["Doctors", "Health & Medical", "Family Practice"], "city": "Karlsruhe", "review_count": 4, "name": "Wolfgang Gabriele Calmbach Wiedenmann-Calmbach", "neighborhoods": [], "longitude": 8.42414, "state": "BW", "stars": 4.0, "latitude": 49.0094, "attributes": {"Wheelchair Accessible": false}, "type": "business"}
{"business_id": "yszLaYWs06eEc2ZcsK02aQ", "full_address": "Rheinstra\u00dfe  43\n76185 Karlsruhe", "hours": {"Monday": {"close": "18:00", "open": "15:00"}, "Tuesday": {"close": "18:00", "open": "15:00"}, "Friday": {"close": "18:00", "open": "15:00"}, "Wednesday": {"close": "18:00", "open": "15:00"}, "Thursday": {"close": "18:00", "open": "14:00"}, "Saturday": {"close": "00:00", "open": "00:00"}}, "open": true, "categories": ["Doctors", "Health & Medical", "Podiatrists"], "city": "Karlsruhe", "review_count": 3, "name": "Praxis f\u00fcr Fachfu\u00dfpflege", "neighborhoods": [], "longitude": 8.3611818, "state": "BW", "stars": 5.0, "latitude": 49.011065, "attributes": {"Wheelchair Accessible": true, "Parking": {"garage": false, "validated": false, "street": false, "lot": false, "valet": false}}, "type": "business"}
{"business_id": "6XLGrli77rWeukOsOJsVqA", "full_address": "Osteopathie & Naturheilkunde Praxis\nMoltkestr. 90\n76133 Karlsruhe", "hours": {"Tuesday": {"close": "20:00", "open": "16:00"}, "Friday": {"close": "16:00", "open": "10:00"}, "Wednesday": {"close": "20:00", "open": "10:00"}, "Thursday": {"close": "20:00", "open": "10:00"}}, "open": true, "categories": ["Doctors", "Health & Medical", "Osteopathic Physicians"], "city": "Karlsruhe", "review_count": 3, "name": "Klaus Czepan", "neighborhoods": [], "longitude": 8.3717205, "state": "BW", "stars": 4.5, "latitude": 49.0174215, "attributes": {"Accepts Credit Cards": false, "Wheelchair Accessible": true, "Parking": {"garage": false, "validated": false, "street": false, "lot": false, "valet": false}}, "type": "business"}
{"business_id": "G0l7qwpaS_4l-D86ObrVaQ", "full_address": "Kaiserstr. 110\n76133 Karlsruhe", "hours": {}, "open": true, "categories": ["Dermatologists", "Doctors", "Health & Medical"], "city": "Karlsruhe", "review_count": 5, "name": "Haut\u00e4rzte/Allergologie Robert Adina Figl Figl", "neighborhoods": [], "longitude": 8.3987, "state": "BW", "stars": 3.0, "latitude": 49.0098, "attributes": {}, "type": "business"}
{"business_id": "qGYtcAOItY3ys7CdZ-Q4xA", "full_address": "Amalienstr. 14b\n76131 Karlsruhe", "hours": {}, "open": true, "categories": ["Doctors", "Health & Medical", "Obstetricians & Gynecologists"], "city": "Karlsruhe", "review_count": 3, "name": "Frauenarztpraxis Leokadia Seidler", "neighborhoods": [], "longitude": 8.39506, "state": "BW", "stars": 4.5, "latitude": 49.0078, "attributes": {}, "type": "business"}
{"business_id": "_sWP2LkDml6bE9nKB3MUPg", "full_address": "Kaiserstra\u00dfe 215\n76133 Karlsruhe", "hours": {"Friday": {"close": "00:00", "open": "00:00"}, "Tuesday": {"close": "17:30", "open": "14:30"}, "Thursday": {"close": "17:30", "open": "14:30"}, "Wednesday": {"close": "00:00", "open": "00:00"}, "Monday": {"close": "17:30", "open": "14:30"}}, "open": true, "categories": ["Dermatologists", "Doctors", "Allergists", "Health & Medical"], "city": "Karlsruhe", "review_count": 6, "name": "Drs. Fritz O\u00dfwald, Ina Reitenbach-Blindt, Franz Schwan, David", "neighborhoods": [], "longitude": 8.39524, "state": "BW", "stars": 5.0, "latitude": 49.00978, "attributes": {"By Appointment Only": false, "Wheelchair Accessible": true, "Parking": {"garage": false, "validated": false, "street": false, "lot": false, "valet": false}}, "type": "business"}
{"business_id": "qhu-hCLlRiqoJ5du775oig", "full_address": "Sophienstr. 53\n76133 Karlsruhe", "hours": {}, "open": true, "categories": ["Doctors", "Health & Medical", "Family Practice"], "city": "Karlsruhe", "review_count": 3, "name": "Dr. med. Beate Weinschenk", "neighborhoods": [], "longitude": 8.38963, "state": "BW", "stars": 5.0, "latitude": 49.0074, "attributes": {}, "type": "business"}
{"business_id": "KVwqBtoJM4Bzzv4r1mKJSA", "full_address": "Hirschstr. 105\n76137 Karlsruhe", "hours": {}, "open": true, "categories": ["Doctors", "Orthopedists", "Health & Medical"], "city": "Karlsruhe", "review_count": 5, "name": "Facharzt f\u00fcr Orthop\u00e4die und Sportmedizin Wolfgang Krentel", "neighborhoods": [], "longitude": 8.39065, "state": "BW", "stars": 3.5, "latitude": 48.9995, "attributes": {"Wheelchair Accessible": false, "Parking": {"garage": false, "validated": false, "street": false, "lot": false, "valet": false}}, "type": "business"}
{"business_id": "RdWxr1GAp-BrK25nNRMS6Q", "full_address": "Georg-Friedrich-Str. 24\n76131 Karlsruhe", "hours": {}, "open": true, "categories": ["Dermatologists", "Doctors", "Ear Nose & Throat", "Health & Medical"], "city": "Karlsruhe", "review_count": 3, "name": "Dr. med. Wilfried Pfitzer", "neighborhoods": [], "longitude": 8.42355, "state": "BW", "stars": 4.5, "latitude": 49.0094, "attributes": {}, "type": "business"}
{"business_id": "7KaHhijkGVTvCBZ1hlV9Bw", "full_address": "Kriegsstr. 140\n76133 Karlsruhe", "hours": {}, "open": true, "categories": ["Doctors", "Health & Medical", "Internal Medicine"], "city": "Karlsruhe", "review_count": 3, "name": "Internisten Endokrinologische Praxis Carlo Sebastian Varma Zink", "neighborhoods": [], "longitude": 8.39421, "state": "BW", "stars": 2.5, "latitude": 49.0057, "attributes": {"Parking": {"garage": false, "validated": false, "street": false, "lot": false, "valet": false}}, "type": "business"}
{"business_id": "_De17jwK6Frt8stTulbEeA", "full_address": "B\u00e4renweg\n76149 Karlsruhe", "hours": {}, "open": true, "categories": ["Doctors", "Health & Medical", "Obstetricians & Gynecologists"], "city": "Karlsruhe", "review_count": 3, "name": "Dr. Nelis", "neighborhoods": [], "longitude": 8.3787081, "state": "BW", "stars": 3.5, "latitude": 49.0469655, "attributes": {}, "type": "business"}
{"business_id": "EUoTIMnoHlN3pov3E2ICWw", "full_address": "Weinweg 16\n76131 Karlsruhe", "hours": {}, "open": true, "categories": ["Dentists", "Doctors", "Health & Medical"], "city": "Karlsruhe", "review_count": 3, "name": "Rudolf Pacner", "neighborhoods": [], "longitude": 8.44524, "state": "BW", "stars": 4.0, "latitude": 49.0098, "attributes": {}, "type": "business"}
{"business_id": "D5fZo7NO8JOAu5icizIf-A", "full_address": "Kriegsstr. 140\n76133 Karlsruhe", "hours": {}, "open": true, "categories": ["Doctors", "Ear Nose & Throat", "Health & Medical"], "city": "Karlsruhe", "review_count": 3, "name": "Dr. med. Martin Spreng", "neighborhoods": [], "longitude": 8.39429, "state": "BW", "stars": 5.0, "latitude": 49.0056, "attributes": {}, "type": "business"}
{"business_id": "Z6Sn4cSiFt5Fw4aznUjJsA", "full_address": "B\u00fcrgerstr. 16\nauch Karlsstr. 23\n76133 Karlsruhe", "hours": {}, "open": true, "categories": ["Doctors", "Ear Nose & Throat", "Health & Medical"], "city": "Karlsruhe", "review_count": 3, "name": "HNO-Praxis Andreas Scherer", "neighborhoods": [], "longitude": 8.393843, "state": "BW", "stars": 5.0, "latitude": 49.0067498, "attributes": {"Parking": {"garage": false, "validated": false, "street": false, "lot": false, "valet": false}}, "type": "business"}
{"business_id": "4jx3VMVyPW1gL_yoHcGSQw", "full_address": "Erzbergerstr. 131\n76149 Karlsruhe", "hours": {}, "open": true, "categories": ["Doctors", "Health & Medical", "Naturopathic/Holistic"], "city": "Karlsruhe", "review_count": 3, "name": "Stefan Mathias Fuchs", "neighborhoods": [], "longitude": 8.38622, "state": "BW", "stars": 4.5, "latitude": 49.028, "attributes": {}, "type": "business"}
{"business_id": "oDGCwoW6WLbt9_XcY0p-2A", "full_address": "Stephanienstr. 96\n76133 Karlsruhe", "hours": {}, "open": true, "categories": ["Shopping", "Doctors", "Health & Medical", "Eyewear & Opticians"], "city": "Karlsruhe", "review_count": 3, "name": "Dr. med. Thomas Kohm", "neighborhoods": [], "longitude": 8.38877, "state": "BW", "stars": 3.0, "latitude": 49.0107, "attributes": {}, "type": "business"}
{"business_id": "96DyV1HhsRRPkFIN4zfzPQ", "full_address": "Karlstr. 29\n76133 Karlsruhe", "hours": {"Friday": {"close": "12:30", "open": "08:00"}, "Tuesday": {"close": "17:30", "open": "14:00"}, "Thursday": {"close": "18:00", "open": "14:00"}, "Wednesday": {"close": "14:00", "open": "08:00"}, "Monday": {"close": "17:30", "open": "14:00"}}, "open": true, "categories": ["Doctors", "Ophthalmologists", "Health & Medical"], "city": "Karlsruhe", "review_count": 11, "name": "Dr. Stephan Kaut", "neighborhoods": [], "longitude": 8.39517480535322, "state": "BW", "stars": 4.0, "latitude": 49.0075256107311, "attributes": {"Accepts Credit Cards": true, "Wheelchair Accessible": true}, "type": "business"}
{"business_id": "FMozaZuEJ43v_aWue6hkSQ", "full_address": "Nowackanlage 15-17\n76137 Karlsruhe", "hours": {}, "open": true, "categories": ["Shopping", "Doctors", "Health & Medical", "Eyewear & Opticians"], "city": "Karlsruhe", "review_count": 3, "name": "Dr. med. Annegret Schumacher", "neighborhoods": [], "longitude": 8.40426, "state": "BW", "stars": 1.0, "latitude": 49.003, "attributes": {"Price Range": 4}, "type": "business"}
{"business_id": "PfjEZGICY_QNZAQolVDncw", "full_address": "Orthop\u00e4dische Gemeinschaft am Ludwigsplatz\nWaldstr. 67\n76133 Karlsruhe", "hours": {}, "open": true, "categories": ["Doctors", "Orthopedists", "Health & Medical", "Chiropractors"], "city": "Karlsruhe", "review_count": 5, "name": "Dr. med. Oliver Frerking", "neighborhoods": [], "longitude": 8.39616, "state": "BW", "stars": 3.0, "latitude": 49.0092, "attributes": {"By Appointment Only": false}, "type": "business"}
{"business_id": "7J75VLZKDJhCypKjUAcFXQ", "full_address": "Leopoldstr. 40\n76275 Ettlingen", "hours": {}, "open": true, "categories": ["Dermatologists", "Doctors", "Health & Medical", "Internal Medicine"], "city": "Ettlingen", "review_count": 3, "name": "Dr. med. Andreas Kist", "neighborhoods": [], "longitude": 8.40789, "state": "BW", "stars": 3.5, "latitude": 48.94011, "attributes": {"Wheelchair Accessible": true, "Parking": {"garage": false, "validated": false, "street": false, "lot": false, "valet": false}}, "type": "business"}
{"business_id": "TdFHwzPd5Ah_maA-kYktHw", "full_address": "Wilhelmstr. 1\n76275 Ettlingen", "hours": {}, "open": true, "categories": ["Neurologist", "Doctors", "Health & Medical", "Physical Therapy", "Psychiatrists"], "city": "Ettlingen", "review_count": 3, "name": "Dr. med. Bernhard Kopp", "neighborhoods": [], "longitude": 8.41062, "state": "BW", "stars": 4.5, "latitude": 48.939, "attributes": {}, "type": "business"}
{"business_id": "Jd8dJj7xYvDlQIBPh4OAjQ", "full_address": "Gerwigstr. 6\n76131 Karlsruhe", "hours": {}, "open": true, "categories": ["Doctors", "Health & Medical", "Family Practice"], "city": "Karlsruhe", "review_count": 4, "name": "Wolfgang Gabriele Calmbach Wiedenmann-Calmbach", "neighborhoods": [], "longitude": 8.42414, "state": "BW", "stars": 4.0, "latitude": 49.0094, "attributes": {"Wheelchair Accessible": false}, "type": "business"}
{"business_id": "yszLaYWs06eEc2ZcsK02aQ", "full_address": "Rheinstra\u00dfe  43\n76185 Karlsruhe", "hours": {"Monday": {"close": "18:00", "open": "15:00"}, "Tuesday": {"close": "18:00", "open": "15:00"}, "Friday": {"close": "18:00", "open": "15:00"}, "Wednesday": {"close": "18:00", "open": "15:00"}, "Thursday": {"close": "18:00", "open": "14:00"}, "Saturday": {"close": "00:00", "open": "00:00"}}, "open": true, "categories": ["Doctors", "Health & Medical", "Podiatrists"], "city": "Karlsruhe", "review_count": 3, "name": "Praxis f\u00fcr Fachfu\u00dfpflege", "neighborhoods": [], "longitude": 8.3611818, "state": "BW", "stars": 5.0, "latitude": 49.011065, "attributes": {"Wheelchair Accessible": true, "Parking": {"garage": false, "validated": false, "street": false, "lot": false, "valet": false}}, "type": "business"}
{"business_id": "6XLGrli77rWeukOsOJsVqA", "full_address": "Osteopathie & Naturheilkunde Praxis\nMoltkestr. 90\n76133 Karlsruhe", "hours": {"Tuesday": {"close": "20:00", "open": "16:00"}, "Friday": {"close": "16:00", "open": "10:00"}, "Wednesday": {"close": "20:00", "open": "10:00"}, "Thursday": {"close": "20:00", "open": "10:00"}}, "open": true, "categories": ["Doctors", "Health & Medical", "Osteopathic Physicians"], "city": "Karlsruhe", "review_count": 3, "name": "Klaus Czepan", "neighborhoods": [], "longitude": 8.3717205, "state": "BW", "stars": 4.5, "latitude": 49.0174215, "attributes": {"Accepts Credit Cards": false, "Wheelchair Accessible": true, "Parking": {"garage": false, "validated": false, "street": false, "lot": false, "valet": false}}, "type": "business"}
{"business_id": "G0l7qwpaS_4l-D86ObrVaQ", "full_address": "Kaiserstr. 110\n76133 Karlsruhe", "hours": {}, "open": true, "categories": ["Dermatologists", "Doctors", "Health & Medical"], "city": "Karlsruhe", "review_count": 5, "name": "Haut\u00e4rzte/Allergologie Robert Adina Figl Figl", "neighborhoods": [], "longitude": 8.3987, "state": "BW", "stars": 3.0, "latitude": 49.0098, "attributes": {}, "type": "business"}
{"business_id": "qGYtcAOItY3ys7CdZ-Q4xA", "full_address": "Amalienstr. 14b\n76131 Karlsruhe", "hours": {}, "open": true, "categories": ["Doctors", "Health & Medical", "Obstetricians & Gynecologists"], "city": "Karlsruhe", "review_count": 3, "name": "Frauenarztpraxis Leokadia Seidler", "neighborhoods": [], "longitude": 8.39506, "state": "BW", "stars": 4.5, "latitude": 49.0078, "attributes": {}, "type": "business"}
