{"business_id": "ZhVdaEgFDO8Mg6ycyGklKw", "full_address": "Geibelstr. 34\n76185 Karlsruhe", "hours": {"Friday": {"close": "12:00", "open": "08:30"}, "Tuesday": {"close": "18:00", "open": "14:30"}, "Thursday": {"close": "18:00", "open": "14:30"}, "Wednesday": {"close": "12:00", "open": "08:30"}, "Monday": {"close": "18:00", "open": "14:30"}}, "open": true, "categories": ["Shopping", "Eyewear & Opticians"], "city": "Karlsruhe", "review_count": 3, "name": "Augen\u00e4rztin Praxis Angela Wippermann", "neighborhoods": [], "longitude": 8.36137, "state": "BW", "stars": 1.0, "latitude": 49.0123, "attributes": {}, "type": "business"}
{"business_id": "K008tT3H-CyjiBV0zC97lw", "full_address": "Kaiserstr. 163\n76133 Karlsruhe", "hours": {"Monday": {"close": "20:00", "open": "09:30"}, "Tuesday": {"close": "20:00", "open": "09:30"}, "Friday": {"close": "20:00", "open": "09:30"}, "Wednesday": {"close": "20:00", "open": "09:30"}, "Thursday": {"close": "20:00", "open": "09:30"}, "Saturday": {"close": "19:00", "open": "09:30"}}, "open": true, "categories": ["Shopping", "Eyewear & Opticians"], "city": "Karlsruhe", "review_count": 3, "name": "Fielmann", "neighborhoods": [], "longitude": 8.4008089, "state": "BW", "stars": 2.5, "latitude": 49.0095341, "attributes": {}, "type": "business"}
{"business_id": "JtthDxLSHiCopkUfS2NlSw", "full_address": "Waldstr. 61\n76133 Karlsruhe", "hours": {}, "open": true, "categories": ["Shopping", "Eyewear & Opticians"], "city": "Karlsruhe", "review_count": 5, "name": "Optik Vision Brillen & Contactlinsen Am Ludwigsplatz", "neighborhoods": [], "longitude": 8.39608, "state": "BW", "stars": 4.0, "latitude": 49.0087, "attributes": {"Price Range": 3}, "type": "business"}
{"business_id": "oDGCwoW6WLbt9_XcY0p-2A", "full_address": "Stephanienstr. 96\n76133 Karlsruhe", "hours": {}, "open": true, "categories": ["Shopping", "Doctors", "Health & Medical", "Eyewear & Opticians"], "city": "Karlsruhe", "review_count": 3, "name": "Dr. med. Thomas Kohm", "neighborhoods": [], "longitude": 8.38877, "state": "BW", "stars": 3.0, "latitude": 49.0107, "attributes": {}, "type": "business"}
{"business_id": "FMozaZuEJ43v_aWue6hkSQ", "full_address": "Nowackanlage 15-17\n76137 Karlsruhe", "hours": {}, "open": true, "categories": ["Shopping", "Doctors", "Health & Medical", "Eyewear & Opticians"], "city": "Karlsruhe", "review_count": 3, "name": "Dr. med. Annegret Schumacher", "neighborhoods": [], "longitude": 8.40426, "state": "BW", "stars": 1.0, "latitude": 49.003, "attributes": {"Price Range": 4}, "type": "business"}
{"business_id": "ZhVdaEgFDO8Mg6ycyGklKw", "full_address": "Geibelstr. 34\n76185 Karlsruhe", "hours": {"Friday": {"close": "12:00", "open": "08:30"}, "Tuesday": {"close": "18:00", "open": "14:30"}, "Thursday": {"close": "18:00", "open": "14:30"}, "Wednesday": {"close": "12:00", "open": "08:30"}, "Monday": {"close": "18:00", "open": "14:30"}}, "open": true, "categories": ["Shopping", "Eyewear & Opticians"], "city": "Karlsruhe", "review_count": 3, "name": "Augen\u00e4rztin Praxis Angela Wippermann", "neighborhoods": [], "longitude": 8.36137, "state": "BW", "stars": 1.0, "latitude": 49.0123, "attributes": {}, "type": "business"}
{"business_id": "K008tT3H-CyjiBV0zC97lw", "full_address": "Kaiserstr. 163\n76133 Karlsruhe", "hours": {"Monday": {"close": "20:00", "open": "09:30"}, "Tuesday": {"close": "20:00", "open": "09:30"}, "Friday": {"close": "20:00", "open": "09:30"}, "Wednesday": {"close": "20:00", "open": "09:30"}, "Thursday": {"close": "20:00", "open": "09:30"}, "Saturday": {"close": "19:00", "open": "09:30"}}, "open": true, "categories": ["Shopping", "Eyewear & Opticians"], "city": "Karlsruhe", "review_count": 3, "name": "Fielmann", "neighborhoods": [], "longitude": 8.4008089, "state": "BW", "stars": 2.5, "latitude": 49.0095341, "attributes": {}, "type": "business"}
{"business_id": "JtthDxLSHiCopkUfS2NlSw", "full_address": "Waldstr. 61\n76133 Karlsruhe", "hours": {}, "open": true, "categories": ["Shopping", "Eyewear & Opticians"], "city": "Karlsruhe", "review_count": 5, "name": "Optik Vision Brillen & Contactlinsen Am Ludwigsplatz", "neighborhoods": [], "longitude": 8.39608, "state": "BW", "stars": 4.0, "latitude": 49.0087, "attributes": {"Price Range": 3}, "type": "business"}
{"business_id": "oDGCwoW6WLbt9_XcY0p-2A", "full_address": "Stephanienstr. 96\n76133 Karlsruhe", "hours": {}, "open": true, "categories": ["Shopping", "Doctors", "Health & Medical", "Eyewear & Opticians"], "city": "Karlsruhe", "review_count": 3, "name": "Dr. med. Thomas Kohm", "neighborhoods": [], "longitude": 8.38877, "state": "BW", "stars": 3.0, "latitude": 49.0107, "attributes": {}, "type": "business"}
{"business_id": "FMozaZuEJ43v_aWue6hkSQ", "full_address": "Nowackanlage 15-17\n76137 Karlsruhe", "hours": {}, "open": true, "categories": ["Shopping", "Doctors", "Health & Medical", "Eyewear & Opticians"], "city": "Karlsruhe", "review_count": 3, "name": "Dr. med. Annegret Schumacher", "neighborhoods": [], "longitude": 8.40426, "state": "BW", "stars": 1.0, "latitude": 49.003, "attributes": {"Price Range": 4}, "type": "business"}
{"business_id": "ZhVdaEgFDO8Mg6ycyGklKw", "full_address": "Geibelstr. 34\n76185 Karlsruhe", "hours": {"Friday": {"close": "12:00", "open": "08:30"}, "Tuesday": {"close": "18:00", "open": "14:30"}, "Thursday": {"close": "18:00", "open": "14:30"}, "Wednesday": {"close": "12:00", "open": "08:30"}, "Monday": {"close": "18:00", "open": "14:30"}}, "open": true, "categories": ["Shopping", "Eyewear & Opticians"], "city": "Karlsruhe", "review_count": 3, "name": "Augen\u00e4rztin Praxis Angela Wippermann", "neighborhoods": [], "longitude": 8.36137, "state": "BW", "stars": 1.0, "latitude": 49.0123, "attributes": {}, "type": "business"}
{"business_id": "K008tT3H-CyjiBV0zC97lw", "full_address": "Kaiserstr. 163\n76133 Karlsruhe", "hours": {"Monday": {"close": "20:00", "open": "09:30"}, "Tuesday": {"close": "20:00", "open": "09:30"}, "Friday": {"close": "20:00", "open": "09:30"}, "Wednesday": {"close": "20:00", "open": "09:30"}, "Thursday": {"close": "20:00", "open": "09:30"}, "Saturday": {"close": "19:00", "open": "09:30"}}, "open": true, "categories": ["Shopping", "Eyewear & Opticians"], "city": "Karlsruhe", "review_count": 3, "name": "Fielmann", "neighborhoods": [], "longitude": 8.4008089, "state": "BW", "stars": 2.5, "latitude": 49.0095341, "attributes": {}, "type": "business"}
{"business_id": "JtthDxLSHiCopkUfS2NlSw", "full_address": "Waldstr. 61\n76133 Karlsruhe", "hours": {}, "open": true, "categories": ["Shopping", "Eyewear & Opticians"], "city": "Karlsruhe", "review_count": 5, "name": "Optik Vision Brillen & Contactlinsen Am Ludwigsplatz", "neighborhoods": [], "longitude": 8.39608, "state": "BW", "stars": 4.0, "latitude": 49.0087, "attributes": {"Price Range": 3}, "type": "business"}
{"business_id": "oDGCwoW6WLbt9_XcY0p-2A", "full_address": "Stephanienstr. 96\n76133 Karlsruhe", "hours": {}, "open": true, "categories": ["Shopping", "Doctors", "Health & Medical", "Eyewear & Opticians"], "city": "Karlsruhe", "review_count": 3, "name": "Dr. med. Thomas Kohm", "neighborhoods": [], "longitude": 8.38877, "state": "BW", "stars": 3.0, "latitude": 49.0107, "attributes": {}, "type": "business"}
{"business_id": "FMozaZuEJ43v_aWue6hkSQ", "full_address": "Nowackanlage 15-17\n76137 Karlsruhe", "hours": {}, "open": true, "categories": ["Shopping", "Doctors", "Health & Medical", "Eyewear & Opticians"], "city": "Karlsruhe", "review_count": 3, "name": "Dr. med. Annegret Schumacher", "neighborhoods": [], "longitude": 8.40426, "state": "BW", "stars": 1.0, "latitude": 49.003, "attributes": {"Price Range": 4}, "type": "business"}
{"business_id": "ZhVdaEgFDO8Mg6ycyGklKw", "full_address": "Geibelstr. 34\n76185 Karlsruhe", "hours": {"Friday": {"close": "12:00", "open": "08:30"}, "Tuesday": {"close": "18:00", "open": "14:30"}, "Thursday": {"close": "18:00", "open": "14:30"}, "Wednesday": {"close": "12:00", "open": "08:30"}, "Monday": {"close": "18:00", "open": "14:30"}}, "open": true, "categories": ["Shopping", "Eyewear & Opticians"], "city": "Karlsruhe", "review_count": 3, "name": "Augen\u00e4rztin Praxis Angela Wippermann", "neighborhoods": [], "longitude": 8.36137, "state": "BW", "stars": 1.0, "latitude": 49.0123, "attributes": {}, "type": "business"}
{"business_id": "K008tT3H-CyjiBV0zC97lw", "full_address": "Kaiserstr. 163\n76133 Karlsruhe", "hours": {"Monday": {"close": "20:00", "open": "09:30"}, "Tuesday": {"close": "20:00", "open": "09:30"}, "Friday": {"close": "20:00", "open": "09:30"}, "Wednesday": {"close": "20:00", "open": "09:30"}, "Thursday": {"close": "20:00", "open": "09:30"}, "Saturday": {"close": "19:00", "open": "09:30"}}, "open": true, "categories": ["Shopping", "Eyewear & Opticians"], "city": "Karlsruhe", "review_count": 3, "name": "Fielmann", "neighborhoods": [], "longitude": 8.4008089, "state": "BW", "stars": 2.5, "latitude": 49.0095341, "attributes": {}, "type": "business"}
{"business_id": "JtthDxLSHiCopkUfS2NlSw", "full_address": "Waldstr. 61\n76133 Karlsruhe", "hours": {}, "open": true, "categories": ["Shopping", "Eyewear & Opticians"], "city": "Karlsruhe", "review_count": 5, "name": "Optik Vision Brillen & Contactlinsen Am Ludwigsplatz", "neighborhoods": [], "longitude": 8.39608, "state": "BW", "stars": 4.0, "latitude": 49.0087, "attributes": {"Price Range": 3}, "type": "business"}
{"business_id": "oDGCwoW6WLbt9_XcY0p-2A", "full_address": "Stephanienstr. 96\n76133 Karlsruhe", "hours": {}, "open": true, "categories": ["Shopping", "Doctors", "Health & Medical", "Eyewear & Opticians"], "city": "Karlsruhe", "review_count": 3, "name": "Dr. med. Thomas Kohm", "neighborhoods": [], "longitude": 8.38877, "state": "BW", "stars": 3.0, "latitude": 49.0107, "attributes": {}, "type": "business"}
{"business_id": "FMozaZuEJ43v_aWue6hkSQ", "full_address": "Nowackanlage 15-17\n76137 Karlsruhe", "hours": {}, "open": true, "categories": ["Shopping", "Doctors", "Health & Medical", "Eyewear & Opticians"], "city": "Karlsruhe", "review_count": 3, "name": "Dr. med. Annegret Schumacher", "neighborhoods": [], "longitude": 8.40426, "state": "BW", "stars": 1.0, "latitude": 49.003, "attributes": {"Price Range": 4}, "type": "business"}
{"business_id": "ZhVdaEgFDO8Mg6ycyGklKw", "full_address": "Geibelstr. 34\n76185 Karlsruhe", "hours": {"Friday": {"close": "12:00", "open": "08:30"}, "Tuesday": {"close": "18:00", "open": "14:30"}, "Thursday": {"close": "18:00", "open": "14:30"}, "Wednesday": {"close": "12:00", "open": "08:30"}, "Monday": {"close": "18:00", "open": "14:30"}}, "open": true, "categories": ["Shopping", "Eyewear & Opticians"], "city": "Karlsruhe", "review_count": 3, "name": "Augen\u00e4rztin Praxis Angela Wippermann", "neighborhoods": [], "longitude": 8.36137, "state": "BW", "stars": 1.0, "latitude": 49.0123, "attributes": {}, "type": "business"}
{"business_id": "K008tT3H-CyjiBV0zC97lw", "full_address": "Kaiserstr. 163\n76133 Karlsruhe", "hours": {"Monday": {"close": "20:00", "open": "09:30"}, "Tuesday": {"close": "20:00", "open": "09:30"}, "Friday": {"close": "20:00", "open": "09:30"}, "Wednesday": {"close": "20:00", "open": "09:30"}, "Thursday": {"close": "20:00", "open": "09:30"}, "Saturday": {"close": "19:00", "open": "09:30"}}, "open": true, "categories": ["Shopping", "Eyewear & Opticians"], "city": "Karlsruhe", "review_count": 3, "name": "Fielmann", "neighborhoods": [], "longitude": 8.4008089, "state": "BW", "stars": 2.5, "latitude": 49.0095341, "attributes": {}, "type": "business"}
{"business_id": "JtthDxLSHiCopkUfS2NlSw", "full_address": "Waldstr. 61\n76133 Karlsruhe", "hours": {}, "open": true, "categories": ["Shopping", "Eyewear & Opticians"], "city": "Karlsruhe", "review_count": 5, "name": "Optik Vision Brillen & Contactlinsen Am Ludwigsplatz", "neighborhoods": [], "longitude": 8.39608, "state": "BW", "stars": 4.0, "latitude": 49.0087, "attributes": {"Price Range": 3}, "type": "business"}
{"business_id": "oDGCwoW6WLbt9_XcY0p-2A", "full_address": "Stephanienstr. 96\n76133 Karlsruhe", "hours": {}, "open": true, "categories": ["Shopping", "Doctors", "Health & Medical", "Eyewear & Opticians"], "city": "Karlsruhe", "review_count": 3, "name": "Dr. med. Thomas Kohm", "neighborhoods": [], "longitude": 8.38877, "state": "BW", "stars": 3.0, "latitude": 49.0107, "attributes": {}, "type": "business"}
{"business_id": "FMozaZuEJ43v_aWue6hkSQ", "full_address": "Nowackanlage 15-17\n76137 Karlsruhe", "hours": {}, "open": true, "categories": ["Shopping", "Doctors", "Health & Medical", "Eyewear & Opticians"], "city": "Karlsruhe", "review_count": 3, "name": "Dr. med. Annegret Schumacher", "neighborhoods": [], "longitude": 8.40426, "state": "BW", "stars": 1.0, "latitude": 49.003, "attributes": {"Price Range": 4}, "type": "business"}
{"business_id": "ZhVdaEgFDO8Mg6ycyGklKw", "full_address": "Geibelstr. 34\n76185 Karlsruhe", "hours": {"Friday": {"close": "12:00", "open": "08:30"}, "Tuesday": {"close": "18:00", "open": "14:30"}, "Thursday": {"close": "18:00", "open": "14:30"}, "Wednesday": {"close": "12:00", "open": "08:30"}, "Monday": {"close": "18:00", "open": "14:30"}}, "open": true, "categories": ["Shopping", "Eyewear & Opticians"], "city": "Karlsruhe", "review_count": 3, "name": "Augen\u00e4rztin Praxis Angela Wippermann", "neighborhoods": [], "longitude": 8.36137, "state": "BW", "stars": 1.0, "latitude": 49.0123, "attributes": {}, "type": "business"}
{"business_id": "K008tT3H-CyjiBV0zC97lw", "full_address": "Kaiserstr. 163\n76133 Karlsruhe", "hours": {"Monday": {"close": "20:00", "open": "09:30"}, "Tuesday": {"close": "20:00", "open": "09:30"}, "Friday": {"close": "20:00", "open": "09:30"}, "Wednesday": {"close": "20:00", "open": "09:30"}, "Thursday": {"close": "20:00", "open": "09:30"}, "Saturday": {"close": "19:00", "open": "09:30"}}, "open": true, "categories": ["Shopping", "Eyewear & Opticians"], "city": "Karlsruhe", "review_count": 3, "name": "Fielmann", "neighborhoods": [], "longitude": 8.4008089, "state": "BW", "stars": 2.5, "latitude": 49.0095341, "attributes": {}, "type": "business"}
{"business_id": "JtthDxLSHiCopkUfS2NlSw", "full_address": "Waldstr. 61\n76133 Karlsruhe", "hours": {}, "open": true, "categories": ["Shopping", "Eyewear & Opticians"], "city": "Karlsruhe", "review_count": 5, "name": "Optik Vision Brillen & Contactlinsen Am Ludwigsplatz", "neighborhoods": [], "longitude": 8.39608, "state": "BW", "stars": 4.0, "latitude": 49.0087, "attributes": {"Price Range": 3}, "type": "business"}
{"business_id": "oDGCwoW6WLbt9_XcY0p-2A", "full_address": "Stephanienstr. 96\n76133 Karlsruhe", "hours": {}, "open": true, "categories": ["Shopping", "Doctors", "Health & Medical", "Eyewear & Opticians"], "city": "Karlsruhe", "review_count": 3, "name": "Dr. med. Thomas Kohm", "neighborhoods": [], "longitude": 8.38877, "state": "BW", "stars": 3.0, "latitude": 49.0107, "attributes": {}, "type": "business"}
{"business_id": "FMozaZuEJ43v_aWue6hkSQ", "full_address": "Nowackanlage 15-17\n76137 Karlsruhe", "hours": {}, "open": true, "categories": ["Shopping", "Doctors", "Health & Medical", "Eyewear & Opticians"], "city": "Karlsruhe", "review_count": 3, "name": "Dr. med. Annegret Schumacher", "neighborhoods": [], "longitude": 8.40426, "state": "BW", "stars": 1.0, "latitude": 49.003, "attributes": {"Price Range": 4}, "type": "business"}
